     3.02           OBSERVATION DATA    G: GPS              RINEX VERSION / TYPE
RTKCONV 2.4.3                           20200430 005951 UTC PGM / RUN BY / DATE 
log: D:\FastData\IF_Test\0429-C7สตั้\2020-04-29-zhanghan-u  COMMENT             
format: u-blox                                              COMMENT             
                                                            MARKER NAME         
                                                            MARKER NUMBER       
                                                            MARKER TYPE         
                                                            OBSERVER / AGENCY   
                                                            REC # / TYPE / VERS 
                                                            ANT # / TYPE        
        0.0000        0.0000        0.0000                  APPROX POSITION XYZ 
        0.0000        0.0000        0.0000                  ANTENNA: DELTA H/E/N
G    4 C1C L1C D1C S1C                                      SYS / # / OBS TYPES 
  2019     6    16     1    12   59.0000000     GPS         TIME OF FIRST OBS   
  2019     6    16     1    22   55.0000000     GPS         TIME OF LAST OBS    
G                                                           SYS / PHASE SHIFT   
  0                                                         GLONASS SLOT / FRQ #
 C1C    0.000 C1P    0.000 C2C    0.000 C2P    0.000        GLONASS COD/PHS/BIS 
                                                            END OF HEADER       
> 2019  6 16  1 12 59.0000000  0  9                     
G 6  21345398.911   113746226.053        -481.056          42.000  
G 5  21345394.363   113746102.125        -481.228          47.000  
G20  21220814.381   113091550.655        -481.535          32.000  
G 3  21345624.486   113747351.879        -481.288          47.000  
G 9  21299944.174   113507065.659        -481.627          33.000  
G 4  21345628.166   113747447.214        -481.282          45.000  
G18  21439119.360   114238749.2552       -481.149          32.000  
G 1  21345632.358   113747442.661        -481.101          41.000  
G25  21350315.550   113772084.7792       -481.368          32.000  
> 2019  6 16  1 13  0.0000000  0  9                     
G 6  21345490.602   113746707.389        -481.125          42.000  
G 5  21345486.104   113746583.463        -481.271          46.000  
G20  21220906.032   113092031.971        -481.208          32.000  
G 3  21345716.209   113747833.209        -481.183          46.000  
G 9  21300035.848   113507547.001        -481.919          33.000  
G 4  21345720.076   113747928.550        -481.290          45.000  
G18  21439211.088   114239230.6002       -481.084          32.000  
G 1  21345724.030   113747923.994        -481.102          41.000  
G25  21350407.235   113772566.1042       -481.296          32.000  
> 2019  6 16  1 13  1.0000000  0  9                     
G 6  21345582.320   113747188.667        -481.239          42.000  
G 5  21345577.846   113747064.737        -481.371          46.000  
G20  21220997.697   113092513.251        -481.308          32.000  
G 3  21345807.898   113748314.490        -481.384          47.000  
G 9  21300127.604   113508028.251        -481.334          33.000  
G 4  21345811.832   113748409.830        -481.443          45.000  
G18  21439302.772   114239711.3751       -481.245          32.000  
G 1  21345815.689   113748405.279        -481.388          41.000  
G25  21350498.958   113773046.9081       -481.693          32.000  
> 2019  6 16  1 13  2.0000000  0  9                     
G 6  21345673.912   113747669.905        -481.155          42.000  
G 5  21345669.476   113747545.971        -481.174          47.000  
G20  21221089.416   113092994.488        -481.233          32.000  
G 3  21345899.535   113748795.728        -481.262          47.000  
G 9  21300219.179   113508509.509        -481.449          33.000  
G 4  21345903.493   113748891.063        -481.266          45.000  
G18  21439394.389   114240192.622        -481.593          32.000  
G 1  21345907.199   113748886.517        -481.287          41.000  
G25  21350590.609   113773528.136        -481.318          32.000  
> 2019  6 16  1 13  3.0000000  0  9                     
G 6  21345765.552   113748151.119        -480.908          42.000  
G 5  21345761.153   113748027.185        -481.028          46.000  
G20  21221181.160   113093475.700        -481.079          32.000  
G 3  21345991.194   113749276.935        -480.924          47.000  
G 9  21300310.802   113508990.710        -481.168          33.000  
G 4  21345995.065   113749372.275        -480.969          45.000  
G18  21439486.029   114240673.819        -480.997          32.000  
G 1  21345998.875   113749367.725        -480.977          41.000  
G25  21350682.242   113774009.337        -480.830          31.000  
> 2019  6 16  1 13  4.0000000  0  9                     
G 6  21345857.158   113748632.228        -481.134          42.000  
G 5  21345852.800   113748508.291        -481.217          46.000  
G20  21221272.756   113093956.825        -481.596          32.000  
G 3  21346082.833   113749758.039        -481.064          47.000  
G 9  21300402.514   113509471.816        -481.339          33.000  
G 4  21346086.639   113749853.379        -481.140          45.000  
G18  21439577.580   114241154.931        -481.451          32.000  
G 1  21346090.568   113749848.839        -481.333          41.000  
G25  21350773.920   113774490.432        -480.959          31.000  
> 2019  6 16  1 13  5.0000000  0  9                     
G 6  21345948.713   113749113.358        -481.117          42.000  
G 5  21345944.388   113748989.427        -481.174          46.000  
G20  21221364.406   113094437.961        -481.318          32.000  
G 3  21346174.452   113750239.168        -481.028          46.000  
G 9  21300494.209   113509952.947        -480.990          33.000  
G 4  21346178.293   113750334.509        -481.107          45.000  
G18  21439669.281   114241636.045        -481.019          32.000  
G 1  21346182.192   113750329.975        -481.377          41.000  
G25  21350865.496   113774971.543        -480.363          32.000  
> 2019  6 16  1 13  6.0000000  0  9                     
G 6  21346040.364   113749594.416        -481.046          42.000  
G 5  21346036.102   113749470.489        -481.172          46.000  
G20  21221455.970   113094919.019        -481.417          32.000  
G 3  21346266.053   113750720.236        -481.105          46.000  
G 9  21300585.904   113510434.008        -481.207          32.000  
G 4  21346269.972   113750815.576        -481.155          45.000  
G18  21439760.913   114242117.112        -481.304          32.000  
G 1  21346273.917   113750811.035        -481.222          41.000  
G25  21350957.172   113775452.651        -481.157          33.000  
> 2019  6 16  1 13  7.0000000  0  9                     
G 6  21346132.079   113750075.455        -481.016          42.000  
G 5  21346127.689   113749951.524        -481.001          46.000  
G20  21221547.554   113095400.051        -480.998          31.000  
G 3  21346357.750   113751201.272        -480.914          46.000  
G 9  21300677.668   113510915.033        -481.017          32.000  
G 4  21346361.555   113751296.614        -480.956          45.000  
G18  21439852.404   114242598.146        -480.947          32.000  
G 1  21346365.616   113751292.071        -481.045          41.000  
G25  21351048.721   113775933.647        -480.383          32.000  
> 2019  6 16  1 13  8.0000000  0  9                     
G 6  21346223.711   113750556.526        -481.327          42.000  
G 5  21346219.368   113750432.591        -481.274          46.000  
G20  21221639.122   113095881.094        -481.368          32.000  
G 3  21346449.450   113751682.339        -481.133          46.000  
G 9  21300769.407   113511396.103        -481.030          33.000  
G 4  21346453.222   113751777.672        -481.157          45.000  
G18  21439944.142   114243079.209        -480.887          32.000  
G 1  21346457.197   113751773.148        -481.552          41.000  
G25  21351140.338   113776414.705        -480.172          32.000  
> 2019  6 16  1 13  9.0000000  0  9                     
G 6  21346315.348   113751037.644        -481.323          42.000  
G 5  21346310.952   113750913.703        -481.289          46.000  
G20  21221730.681   113096362.231        -481.579          32.000  
G 3  21346541.084   113752163.451        -481.156          47.000  
G 9  21300861.155   113511877.218        -481.237          33.000  
G 4  21346544.889   113752258.797        -481.234          45.000  
G18  21440035.762   114243560.321        -481.143          32.000  
G 1  21346548.754   113752254.262        -481.482          41.000  
G25  21351232.136   113776895.776        -479.557          31.000  
> 2019  6 16  1 13 10.0000000  0  9                     
G 6  21346406.988   113751518.816        -481.099          42.000  
G 5  21346402.551   113751394.876        -481.078          46.000  
G20  21221822.307   113096843.394        -481.295          32.000  
G 3  21346632.836   113752644.631        -481.039          47.000  
G 9  21300952.838   113512358.399        -480.985          33.000  
G 4  21346636.534   113752739.971        -481.022          45.000  
G18  21440127.289   114244041.497        -480.826          32.000  
G 1  21346640.422   113752735.430        -481.210          41.000  
G25  21351323.753   113777376.956        -479.799          31.000  
> 2019  6 16  1 13 11.0000000  0  9                     
G 6  21346498.588   113751999.959        -481.240          42.000  
G 5  21346494.174   113751876.015        -481.042          46.000  
G20  21221914.043   113097324.523        -481.087          31.000  
G 3  21346724.502   113753125.763        -481.013          46.000  
G 9  21301044.521   113512839.535        -481.189          32.000  
G 4  21346728.267   113753221.104        -480.995          45.000  
G18  21440218.897   114244522.615        -480.322          32.000  
G 1  21346732.059   113753216.566        -481.202          41.000  
G25  21351415.395   113777858.111        -480.057          32.000  
> 2019  6 16  1 13 12.0000000  0  9                     
G 6  21346590.235   113752481.028        -480.907          42.000  
G 5  21346585.777   113752357.086        -480.779          46.000  
G20  21222005.725   113097805.585        -480.773          31.000  
G 3  21346815.994   113753606.834        -480.748          46.000  
G 9  21301136.228   113513320.611        -480.775          32.000  
G 4  21346819.782   113753702.177        -480.820          45.000  
G18  21440310.592   114245003.696        -480.487          31.000  
G 1  21346823.631   113753697.637        -480.970          41.000  
G25  21351507.020   113778339.193        -480.236          32.000  
> 2019  6 16  1 13 13.0000000  0  9                     
G 6  21346681.937   113752961.967        -481.165          42.000  
G 5  21346677.372   113752838.026        -481.128          46.000  
G20  21222097.368   113098286.532        -481.147          32.000  
G 3  21346907.553   113754087.772        -481.039          46.000  
G 9  21301227.703   113513801.548        -480.859          33.000  
G 4  21346911.321   113754183.117        -481.038          45.000  
G18  21440402.301   114245484.662        -481.434          31.000  
G 1  21346915.362   113754178.582        -481.287          41.000  
G25  21351598.691   113778820.106        -480.261          31.000  
> 2019  6 16  1 13 14.0000000  0  9                     
G 6  21346773.557   113753443.028        -481.187          42.000  
G 5  21346768.945   113753319.084        -481.174          46.000  
G20  21222188.930   113098767.606        -481.382          31.000  
G 3  21346999.196   113754568.837        -481.132          46.000  
G 9  21301319.355   113514282.577        -480.715          33.000  
G 4  21347003.031   113754664.185        -481.213          45.000  
G18  21440493.963   114245965.720        -481.118          31.000  
G 1  21347006.972   113754659.640        -481.318          41.000  
G25  21351690.210   113779301.137        -479.830          30.000  
> 2019  6 16  1 13 15.0000000  0  9                     
G 6  21346865.177   113753924.049        -481.151          42.000  
G 5  21346860.655   113753800.101        -481.042          46.000  
G20  21222280.680   113099248.620        -481.121          31.000  
G 3  21347090.821   113755049.852        -480.956          46.000  
G 9  21301410.951   113514763.597        -480.527          33.000  
G 4  21347094.739   113755145.197        -481.085          45.000  
G18  21440585.571   114246446.769        -481.794          31.000  
G 1  21347098.549   113755140.662        -481.364          41.000  
G25  21351781.858   113779782.205        -480.924          30.000  
> 2019  6 16  1 13 16.0000000  0  9                     
G 6  21346956.866   113754404.998        -480.724          42.000  
G 5  21346952.186   113754281.065        -480.831          46.000  
G20  21222372.368   113099729.577        -480.921          31.000  
G 3  21347182.352   113755530.809        -480.719          47.000  
G 9  21301502.581   113515244.578        -480.531          33.000  
G 4  21347186.332   113755626.163        -480.782          45.000  
G18  21440677.253   114246927.711        -481.040          32.000  
G 1  21347190.161   113755621.621        -480.991          41.000  
G25  21351873.493   113780271.6493       -480.198          30.000  
> 2019  6 16  1 13 17.0000000  0  9                     
G 6  21347048.369   113754885.871        -480.811          42.000  
G 5  21347043.895   113754761.936        -480.911          46.000  
G20  21222464.004   113100210.449        -480.980          32.000  
G 3  21347273.884   113756011.690        -480.914          46.000  
G 9  21301594.177   113515725.453        -480.946          33.000  
G 4  21347278.042   113756107.046        -480.890          45.000  
G18  21440768.925   114247408.566        -480.887          32.000  
G 1  21347281.801   113756102.504        -481.184          41.000  
G25  21351964.990   113780752.5162       -480.365          30.000  
> 2019  6 16  1 13 18.0000000  0  9                     
G 6  21347139.951   113755366.895        -480.922          42.000  
G 5  21347135.625   113755242.958        -481.027          46.000  
G20  21222555.665   113100691.486        -481.381          32.000  
G 3  21347365.457   113756492.707        -481.022          46.000  
G 9  21301685.777   113516206.466        -481.052          33.000  
G 4  21347369.693   113756588.058        -481.091          45.000  
G18  21440860.559   114247889.603        -481.421          32.000  
G 1  21347373.454   113756583.513        -481.125          41.000  
G25  21352056.585   113781233.5832       -481.014          31.000  
> 2019  6 16  1 13 19.0000000  0  9                     
G 6  21347231.537   113755847.886        -480.839          42.000  
G 5  21347227.152   113755723.961        -480.970          46.000  
G20  21222647.321   113101172.493        -481.207          32.000  
G 3  21347457.037   113756973.708        -480.968          46.000  
G 9  21301777.446   113516687.477        -481.039          33.000  
G 4  21347461.274   113757069.065        -481.025          45.000  
G18  21440952.082   114248370.611        -481.512          32.000  
G 1  21347465.140   113757064.515        -480.981          41.000  
G25  21352148.267   113781714.1171       -481.396          32.000  
> 2019  6 16  1 13 20.0000000  0  9                     
G 6  21347323.163   113756328.911        -481.174          42.000  
G 5  21347318.750   113756204.982        -481.232          46.000  
G20  21222738.996   113101653.502        -481.252          32.000  
G 3  21347548.635   113757454.722        -481.210          46.000  
G 9  21301868.957   113517168.488        -480.974          32.000  
G 4  21347552.919   113757550.081        -481.241          45.000  
G18  21441043.698   114248851.634        -481.908          31.000  
G 1  21347556.841   113757545.537        -481.201          41.000  
G25  21352239.909   113782195.193        -482.225          31.000  
> 2019  6 16  1 13 21.0000000  0  9                     
G 6  21347414.906   113756809.964        -481.138          42.000  
G 5  21347410.327   113756686.029        -481.128          46.000  
G20  21222830.510   113102134.550        -481.128          32.000  
G 3  21347640.283   113757935.774        -481.139          46.000  
G 9  21301960.362   113517649.555        -481.129          32.000  
G 4  21347644.561   113758031.129        -481.157          45.000  
G18  21441135.468   114249332.665        -481.339          32.000  
G 1  21347648.572   113758026.581        -481.056          41.000  
G25  21352331.514   113782676.184        -481.502          31.000  
> 2019  6 16  1 13 22.0000000  0  9                     
G 6  21347506.570   113757290.966        -480.881          42.000  
G 5  21347501.966   113757167.038        -480.826          46.000  
G20  21222922.179   113102615.546        -480.639          32.000  
G 3  21347731.844   113758416.781        -480.861          46.000  
G 9  21302051.894   113518130.554        -480.717          32.000  
G 4  21347736.208   113758512.141        -480.925          45.000  
G18  21441227.064   114249813.676        -481.069          32.000  
G 1  21347740.228   113758507.588        -480.829          41.000  
G25  21352423.112   113783157.184        -480.887          32.000  
> 2019  6 16  1 13 23.0000000  0  9                     
G 6  21347598.159   113757771.886        -481.212          42.000  
G 5  21347593.610   113757647.944        -481.082          46.000  
G20  21223013.748   113103096.471        -480.885          32.000  
G 3  21347823.461   113758897.696        -481.123          46.000  
G 9  21302143.318   113518611.486        -480.963          33.000  
G 4  21347827.885   113758993.056        -481.193          45.000  
G18  21441318.744   114250294.565        -481.138          32.000  
G 1  21347831.899   113758988.511        -481.080          41.000  
G25  21352514.681   113783638.082        -481.388          29.000  
> 2019  6 16  1 13 24.0000000  0  9                     
G 6  21347689.708   113758252.805        -480.950          42.000  
G 5  21347685.146   113758128.867        -480.787          45.000  
G20  21223105.416   113103577.406        -480.688          32.000  
G 3  21347915.120   113759378.619        -480.891          46.000  
G 9  21302234.781   113519092.388        -480.621          33.000  
G 4  21347919.654   113759473.970        -480.868          45.000  
G18  21441410.252   114250775.509        -480.861          32.000  
G 1  21347923.504   113759469.421        -480.684          41.000  
G25  21352606.296   113784119.024        -480.907          32.000  
> 2019  6 16  1 13 25.0000000  0  9                     
G 6  21347781.301   113758733.765        -481.136          42.000  
G 5  21347776.900   113758609.836        -481.072          46.000  
G20  21223197.078   113104058.361        -481.032          32.000  
G 3  21348006.849   113759859.584        -481.117          46.000  
G 9  21302326.234   113519573.364        -480.974          33.000  
G 4  21348011.330   113759954.934        -481.090          45.000  
G18  21441501.853   114251256.471        -481.200          31.000  
G 1  21348015.059   113759950.376        -480.848          41.000  
G25  21352697.957   113784599.939        -480.878          32.000  
> 2019  6 16  1 13 26.0000000  0  9                     
G 6  21347872.865   113759214.808        -481.019          42.000  
G 5  21347868.607   113759090.868        -480.986          46.000  
G20  21223288.689   113104539.403        -480.963          32.000  
G 3  21348098.527   113760340.623        -481.080          47.000  
G 9  21302417.768   113520054.390        -480.875          33.000  
G 4  21348102.784   113760435.972        -481.025          45.000  
G18  21441593.343   114251737.506        -480.935          32.000  
G 1  21348106.581   113760431.409        -480.785          41.000  
G25  21352789.486   113785081.035        -481.530          31.000  
> 2019  6 16  1 13 27.0000000  0  9                     
G 6  21347964.485   113759695.875        -480.898          42.000  
G 5  21347960.282   113759571.935        -480.825          46.000  
G20  21223380.358   113105020.484        -481.087          31.000  
G 3  21348190.081   113760821.695        -481.006          47.000  
G 9  21302509.307   113520535.470        -481.030          33.000  
G 4  21348194.359   113760917.039        -480.886          45.000  
G18  21441684.961   114252218.565        -480.632          32.000  
G 1  21348198.194   113760912.478        -480.686          41.000  
G25  21352881.141   113785562.087        -481.410          31.000  
> 2019  6 16  1 13 28.0000000  0  9                     
G 6  21348056.168   113760176.894        -481.061          42.000  
G 5  21348051.720   113760052.951        -480.808          46.000  
G20  21223471.940   113105501.505        -481.441          32.000  
G 3  21348281.623   113761302.714        -480.968          46.000  
G 9  21302600.847   113521016.505        -481.426          33.000  
G 4  21348286.051   113761398.059        -480.886          45.000  
G18  21441776.398   114252699.575        -480.449          32.000  
G 1  21348289.822   113761393.502        -480.704          41.000  
G25  21352972.776   113786043.097        -481.428          31.000  
> 2019  6 16  1 13 29.0000000  0  9                     
G 6  21348147.910   113760657.908        -481.080          42.000  
G 5  21348143.408   113760533.966        -480.989          46.000  
G20  21223563.457   113105982.490        -481.066          31.000  
G 3  21348373.361   113761783.723        -481.177          47.000  
G 9  21302692.494   113521497.493        -481.245          33.000  
G 4  21348377.726   113761879.066        -481.008          45.000  
G18  21441867.902   114253180.570        -480.428          32.000  
G 1  21348381.442   113761874.504        -480.785          41.000  
G25  21353064.377   113786524.120        -482.000          31.000  
> 2019  6 16  1 13 30.0000000  0  9                     
G 6  21348239.516   113761139.001        -481.154          42.000  
G 5  21348235.062   113761015.056        -480.940          46.000  
G20  21223654.926   113106463.613        -481.509          32.000  
G 3  21348465.038   113762264.812        -481.073          46.000  
G 9  21302784.036   113521978.619        -481.586          33.000  
G 4  21348469.404   113762360.156        -480.978          45.000  
G18  21441959.477   114253661.676        -480.658          32.000  
G 1  21348473.065   113762355.598        -480.795          41.000  
G25  21353155.992   113787005.216        -482.166          31.000  
> 2019  6 16  1 13 31.0000000  0  9                     
G 6  21348331.170   113761620.177        -481.401          42.000  
G 5  21348326.777   113761496.238        -481.329          46.000  
G20  21223746.509   113106944.779        -481.349          32.000  
G 3  21348556.691   113762745.996        -481.527          46.000  
G 9  21302875.563   113522459.785        -481.591          33.000  
G 4  21348561.038   113762841.335        -481.260          45.000  
G18  21442051.128   114254142.855        -481.100          31.000  
G 1  21348564.796   113762836.791        -481.322          41.000  
G25  21353247.697   113787486.425        -482.228          31.000  
> 2019  6 16  1 13 32.0000000  0  9                     
G 6  21348422.733   113762101.374        -481.385          42.000  
G 5  21348418.438   113761977.428        -481.211          45.000  
G20  21223838.226   113107425.976        -481.503          31.000  
G 3  21348648.340   113763227.179        -481.238          46.000  
G 9  21302967.083   113522940.962        -481.356          32.000  
G 4  21348652.573   113763322.529        -481.149          45.000  
G18  21442142.863   114254624.038        -480.338          31.000  
G 1  21348656.399   113763317.983        -481.125          41.000  
G25  21353339.347   113787967.581        -481.372          32.000  
> 2019  6 16  1 13 33.0000000  0  9                     
G 6  21348514.453   113762582.614        -481.346          42.000  
G 5  21348510.118   113762458.677        -481.243          45.000  
G20  21223929.962   113107907.221        -481.689          31.000  
G 3  21348740.048   113763708.427        -481.239          46.000  
G 9  21303058.652   113523422.221        -481.515          32.000  
G 4  21348744.213   113763803.768        -481.108          45.000  
G18  21442234.529   114255105.303        -481.155          31.000  
G 1  21348748.032   113763799.214        -481.064          41.000  
G25  21353430.995   113788448.850        -482.079          31.000  
> 2019  6 16  1 13 34.0000000  0  9                     
G 6  21348606.083   113763063.717        -481.150          42.000  
G 5  21348601.685   113762939.778        -481.096          46.000  
G20  21224021.528   113108388.329        -481.386          32.000  
G 3  21348831.681   113764189.526        -481.138          47.000  
G 9  21303150.277   113523903.327        -481.453          32.000  
G 4  21348835.782   113764284.872        -481.058          45.000  
G18  21442326.102   114255586.386        -480.717          31.000  
G 1  21348839.596   113764280.328        -481.144          41.000  
G25  21353522.553   113788929.924        -481.149          31.000  
> 2019  6 16  1 13 35.0000000  0  9                     
G 6  21348697.758   113763544.833        -481.031          42.000  
G 5  21348693.278   113763420.900        -480.985          45.000  
G20  21224113.151   113108869.439        -481.119          31.000  
G 3  21348923.360   113764670.648        -480.994          46.000  
G 9  21303241.885   113524384.441        -481.187          33.000  
G 4  21348927.327   113764765.990        -480.851          45.000  
G18  21442417.738   114256067.518        -480.599          31.000  
G 1  21348931.151   113764761.446        -480.957          41.000  
G25  21353614.198   113789411.043        -481.078          32.000  
> 2019  6 16  1 13 36.0000000  0  9                     
G 6  21348789.398   113764025.958        -481.201          42.000  
G 5  21348784.842   113763902.015        -481.121          45.000  
G20  21224204.848   113109350.557        -481.357          31.000  
G 3  21349015.073   113765151.769        -481.157          46.000  
G 9  21303333.628   113524865.548        -481.306          32.000  
G 4  21349019.032   113765247.110        -481.046          45.000  
G18  21442509.328   114256548.678        -481.184          31.000  
G 1  21349022.845   113765242.563        -481.113          41.000  
G25  21353705.889   113789892.181        -481.223          31.000  
> 2019  6 16  1 13 37.0000000  0  9                     
G 6  21348880.960   113764507.136        -481.289          42.000  
G 5  21348876.436   113764383.194        -481.232          46.000  
G20  21224296.575   113109831.733        -481.228          32.000  
G 3  21349106.795   113765632.948        -481.240          46.000  
G 9  21303425.183   113525346.766        -481.658          33.000  
G 4  21349110.698   113765728.287        -481.057          45.000  
G18  21442601.046   114257029.825        -481.014          32.000  
G 1  21349114.527   113765723.749        -481.324          41.000  
G25  21353797.649   113790373.336        -481.729          30.000  
> 2019  6 16  1 13 38.0000000  0  9                     
G 6  21348972.600   113764988.295        -481.196          42.000  
G 5  21348968.057   113764864.360        -481.212          45.000  
G20  21224388.209   113110312.918        -481.333          31.000  
G 3  21349198.446   113766114.115        -481.298          46.000  
G 9  21303516.744   113525827.925        -481.683          33.000  
G 4  21349202.433   113766209.462        -481.165          45.000  
G18  21442692.755   114257510.979        -481.117          31.000  
G 1  21349206.197   113766204.922        -481.414          41.000  
G25  21353889.156   113790854.460        -480.759          30.000  
> 2019  6 16  1 13 39.0000000  0  9                     
G 6  21349064.261   113765469.431        -480.928          42.000  
G 5  21349059.687   113765345.495        -480.955          45.000  
G20  21224479.862   113110794.052        -481.363          31.000  
G 3  21349290.103   113766595.258        -481.029          46.000  
G 9  21303608.201   113526309.071        -481.184          32.000  
G 4  21349294.123   113766690.605        -481.035          45.000  
G18  21442784.504   114257992.097        -481.195          30.000  
G 1  21349297.915   113766686.069        -481.051          41.000  
G25  21353980.752   113791335.618        -480.860          30.000  
> 2019  6 16  1 13 40.0000000  0  9                     
G 6  21349156.030   113765950.617        -481.011          42.000  
G 5  21349151.342   113765826.685        -481.099          46.000  
G20  21224571.580   113111275.220        -480.906          31.000  
G 3  21349381.669   113767076.435        -481.051          46.000  
G 9  21303699.760   113526790.233        -481.445          32.000  
G 4  21349385.841   113767171.777        -480.992          44.000  
G18  21442876.150   114258473.280        -480.889          32.000  
G 1  21349389.610   113767167.230        -480.962          41.000  
G25  21354072.393   113791816.809        -480.540          31.000  
> 2019  6 16  1 13 41.0000000  0  9                     
G 6  21349247.650   113766431.795        -481.383          42.000  
G 5  21349243.221   113766307.866        -481.488          45.000  
G20  21224663.174   113111756.420        -481.927          31.000  
G 3  21349473.309   113767557.616        -481.411          46.000  
G 9  21303791.530   113527271.412        -482.007          33.000  
G 4  21349477.301   113767652.964        -481.460          44.000  
G18  21442967.913   114258954.467        -481.465          31.000  
G 1  21349481.335   113767648.416        -481.357          41.000  
G25  21354164.096   113792298.020        -481.409          32.000  
> 2019  6 16  1 13 42.0000000  0  9                     
G 6  21349339.240   113766913.027        -481.270          42.000  
G 5  21349334.953   113766789.092        -481.459          45.000  
G20  21224754.763   113112237.632        -481.384          32.000  
G 3  21349564.970   113768038.843        -481.306          46.000  
G 9  21303883.204   113527752.632        -481.232          33.000  
G 4  21349568.983   113768134.192        -481.296          45.000  
G18  21443059.501   114259435.735        -481.630          32.000  
G 1  21349573.083   113768129.647        -481.339          41.000  
G25  21354255.819   113792779.221        -481.127          32.000  
> 2019  6 16  1 13 43.0000000  0  9                     
G 6  21349430.978   113767394.302        -481.354          42.000  
G 5  21349426.598   113767270.370        -481.382          45.000  
G20  21224846.328   113112718.886        -481.131          32.000  
G 3  21349656.606   113768520.118        -481.304          46.000  
G 9  21303974.857   113528233.894        -481.302          33.000  
G 4  21349660.726   113768615.469        -481.320          45.000  
G18  21443151.126   114259916.995        -481.875          32.000  
G 1  21349664.783   113768610.922        -481.377          41.000  
G25  21354347.407   113793260.527        -481.461          30.000  
> 2019  6 16  1 13 44.0000000  0  9                     
G 6  21349522.671   113767875.558        -481.191          42.000  
G 5  21349518.223   113767751.630        -481.327          45.000  
G20  21224938.129   113113200.167        -481.205          32.000  
G 3  21349748.223   113769001.373        -481.201          46.000  
G 9  21304066.620   113528715.134        -481.229          33.000  
G 4  21349752.417   113769096.727        -481.211          44.000  
G18  21443242.782   114260398.274        -481.880          31.000  
G 1  21349756.431   113769092.179        -481.200          41.000  
G25  21354439.187   113793741.824        -481.664          31.000  
> 2019  6 16  1 13 45.0000000  0  9                     
G 6  21349614.261   113768356.843        -481.239          42.000  
G 5  21349609.805   113768232.910        -481.215          45.000  
G20  21225029.806   113113681.417        -480.960          32.000  
G 3  21349839.935   113769482.660        -481.241          45.000  
G 9  21304158.511   113529196.434        -481.096          33.000  
G 4  21349844.177   113769578.007        -481.245          44.000  
G18  21443334.469   114260879.577        -481.964          32.000  
G 1  21349848.100   113769573.452        -481.117          41.000  
G25  21354530.948   113794223.111        -482.332          31.000  
> 2019  6 16  1 13 46.0000000  0  9                     
G 6  21349705.798   113768838.090        -481.387          42.000  
G 5  21349701.595   113768714.165        -481.442          45.000  
G20  21225121.405   113114162.677        -481.457          32.000  
G 3  21349931.627   113769963.911        -481.401          45.000  
G 9  21304250.535   113529677.684        -481.340          32.000  
G 4  21349935.974   113770059.258        -481.372          44.000  
G18  21443426.197   114261360.798        -481.731          32.000  
G 1  21349939.721   113770054.716        -481.431          41.000  
G25  21354622.604   113794704.348        -481.873          32.000  
> 2019  6 16  1 13 47.0000000  0  9                     
G 6  21349797.495   113769319.364        -481.416          42.000  
G 5  21349793.430   113769195.439        -481.523          45.000  
G20  21225213.112   113114643.961        -481.237          32.000  
G 3  21350023.328   113770445.183        -481.390          46.000  
G 9  21304342.337   113530158.967        -481.433          33.000  
G 4  21350027.628   113770540.526        -481.378          44.000  
G18  21443517.748   114261842.072        -482.216          31.000  
G 1  21350031.390   113770535.983        -481.414          41.000  
G25  21354714.250   113795185.569        -481.074          32.000  
> 2019  6 16  1 13 48.0000000  0  9                     
G 6  21349889.079   113769800.655        -481.277          42.000  
G 5  21349884.970   113769676.720        -481.230          45.000  
G20  21225304.683   113115125.251        -481.041          32.000  
G 3  21350115.055   113770926.470        -481.198          46.000  
G 9  21304434.139   113530640.266        -481.720          33.000  
G 4  21350119.281   113771021.819        -481.282          44.000  
G18  21443609.324   114262323.369        -481.573          32.000  
G 1  21350123.033   113771017.275        -481.282          41.000  
G25  21354805.996   113795666.854        -480.737          32.000  
> 2019  6 16  1 13 49.0000000  0  9                     
G 6  21349980.819   113770281.983        -481.342          42.000  
G 5  21349976.683   113770158.050        -481.488          45.000  
G20  21225396.322   113115606.553        -480.990          32.000  
G 3  21350206.706   113771407.790        -481.290          46.000  
G 9  21304525.798   113531121.589        -481.610          33.000  
G 4  21350210.968   113771503.147        -481.405          45.000  
G18  21443701.153   114262804.681        -481.737          32.000  
G 1  21350214.804   113771498.598        -481.351          41.000  
G25  21354897.657   113796148.143        -481.212          31.000  
> 2019  6 16  1 13 50.0000000  0  9                     
G 6  21350072.639   113770763.340        -481.334          42.000  
G 5  21350068.330   113770639.412        -481.351          45.000  
G20  21225488.037   113116087.932        -481.291          31.000  
G 3  21350298.279   113771889.141        -481.200          46.000  
G 9  21304617.490   113531602.958        -481.432          33.000  
G 4  21350302.635   113771984.510        -481.339          45.000  
G18  21443792.910   114263286.044        -481.345          32.000  
G 1  21350306.460   113771979.941        -481.290          41.000  
G25  21354989.297   113796629.513        -481.005          30.000  
> 2019  6 16  1 13 51.0000000  0  9                     
G 6  21350164.320   113771244.697        -481.313          42.000  
G 5  21350159.987   113771120.757        -481.301          45.000  
G20  21225579.843   113116569.272        -480.938          31.000  
G 3  21350389.919   113772370.493        -481.050          46.000  
G 9  21304709.167   113532084.307        -481.554          32.000  
G 4  21350394.276   113772465.851        -481.244          44.000  
G18  21443884.715   114263767.394        -481.230          32.000  
G 1  21350398.082   113772461.298        -481.187          41.000  
G25  21355081.024   113797110.886        -481.553          29.000  
> 2019  6 16  1 13 52.0000000  0  9                     
G 6  21350256.097   113771725.992        -481.414          42.000  
G 5  21350251.690   113771602.049        -481.235          45.000  
G20  21225671.628   113117050.577        -481.152          31.000  
G 3  21350481.687   113772851.791        -481.212          46.000  
G 9  21304801.048   113532565.596        -481.327          32.000  
G 4  21350485.996   113772947.151        -481.456          44.000  
G18  21443976.312   114264248.669        -481.312          32.000  
G 1  21350489.785   113772942.593        -481.329          41.000  
G25  21355172.653   113797609.6853       -481.353          30.000  
> 2019  6 16  1 13 53.0000000  0  9                     
G 6  21350347.813   113772207.397        -481.626          42.000  
G 5  21350343.428   113772083.459        -481.636          46.000  
G20  21225763.378   113117531.979        -481.390          31.000  
G 3  21350573.402   113773333.202        -481.462          46.000  
G 9  21304892.652   113533046.995        -481.682          33.000  
G 4  21350577.780   113773428.554        -481.569          44.000  
G18  21444068.126   114264730.075        -481.377          31.000  
G 1  21350581.448   113773423.997        -481.497          41.000  
G25  21355264.358   113798091.0722       -481.200          31.000  
> 2019  6 16  1 13 54.0000000  0  9                     
G 6  21350439.552   113772688.818        -481.642          42.000  
G 5  21350435.159   113772564.879        -481.456          45.000  
G20  21225855.181   113118013.416        -481.152          31.000  
G 3  21350665.076   113773814.627        -481.542          45.000  
G 9  21304984.206   113533528.387        -480.640          32.000  
G 4  21350669.493   113773909.988        -481.855          44.000  
G18  21444159.697   114265211.478        -481.457          31.000  
G 1  21350673.085   113773905.430        -481.533          41.000  
G25  21355356.169   113798572.5102       -481.307          32.000  
> 2019  6 16  1 13 55.0000000  0  9                     
G 6  21350531.227   113773170.280        -481.283          42.000  
G 5  21350526.750   113773046.342        -481.423          45.000  
G20  21225946.915   113118494.868        -481.323          31.000  
G 3  21350756.799   113774296.085        -481.281          46.000  
G 9  21305075.777   113534009.845        -480.726          32.000  
G 4  21350761.195   113774391.437        -481.370          45.000  
G18  21444251.440   114265692.971        -481.349          31.000  
G 1  21350764.678   113774386.894        -481.555          41.000  
G25  21355447.902   113799053.4151       -480.304          31.000  
> 2019  6 16  1 13 56.0000000  0  9                     
G 6  21350623.046   113773651.689        -481.371          42.000  
G 5  21350618.446   113773527.757        -481.500          45.000  
G20  21226038.679   113118976.265        -481.308          31.000  
G 3  21350848.582   113774777.499        -481.459          46.000  
G 9  21305167.622   113534491.250        -480.729          32.000  
G 4  21350852.828   113774872.854        -481.561          44.000  
G18  21444343.201   114266174.401        -481.576          32.000  
G 1  21350856.504   113774868.309        -481.545          41.000  
G25  21355539.634   113799537.4133       -481.923          31.000  
> 2019  6 16  1 13 57.0000000  0  9                     
G 6  21350714.757   113774133.014        -481.373          42.000  
G 5  21350710.142   113774009.076        -481.444          45.000  
G20  21226130.483   113119457.566        -481.015          31.000  
G 3  21350940.294   113775258.820        -481.385          46.000  
G 9  21305259.283   113534972.594        -481.031          33.000  
G 4  21350944.490   113775354.181        -481.552          45.000  
G18  21444435.059   114266655.703        -481.556          31.000  
G 1  21350948.181   113775349.628        -481.416          41.000  
G25  21355631.319   113800018.7062       -481.616          30.000  
> 2019  6 16  1 13 58.0000000  0  9                     
G 6  21350806.477   113774614.253        -480.999          42.000  
G 5  21350801.674   113774490.315        -481.147          45.000  
G20  21226222.185   113119938.818        -480.869          31.000  
G 3  21351031.918   113775740.064        -481.177          46.000  
G 9  21305350.938   113535453.825        -480.717          33.000  
G 4  21351036.090   113775835.410        -481.219          44.000  
G18  21444526.832   114267136.937        -481.429          31.000  
G 1  21351039.852   113775830.868        -481.285          41.000  
G25  21355722.889   113800499.9222       -480.704          30.000  
> 2019  6 16  1 13 59.0000000  0  9                     
G 6  21350898.109   113775095.469        -481.029          42.000  
G 5  21350893.314   113774971.541        -481.287          45.000  
G20  21226313.825   113120420.046        -480.958          31.000  
G 3  21351123.632   113776221.284        -481.323          46.000  
G 9  21305442.656   113535935.064        -481.055          32.000  
G 4  21351127.707   113776316.632        -481.293          44.000  
G18  21444618.387   114267618.183        -481.464          31.000  
G 1  21351131.564   113776312.089        -481.477          41.000  
G25  21355814.652   113800981.1692       -480.966          30.000  
> 2019  6 16  1 14  0.0000000  0  9                     
G 6  21350989.902   113775576.717        -481.272          42.000  
G 5  21350985.103   113775452.777        -481.278          45.000  
G20  21226405.496   113120901.285        -481.332          31.000  
G 3  21351215.245   113776702.527        -481.455          45.000  
G 9  21305534.266   113536416.285        -480.897          33.000  
G 4  21351219.412   113776797.873        -481.348          45.000  
G18  21444709.946   114268099.414        -481.537          31.000  
G 1  21351223.156   113776793.327        -481.487          41.000  
G25  21355906.284   113801462.4272       -481.740          31.000  
> 2019  6 16  1 14  1.0000000  0  9                     
G 6  21351081.584   113776058.009        -481.237          42.000  
G 5  21351076.817   113775934.064        -481.289          45.000  
G20  21226497.200   113121382.565        -480.954          32.000  
G 3  21351306.893   113777183.822        -481.403          46.000  
G 9  21305625.955   113536897.572        -480.696          33.000  
G 4  21351311.048   113777279.164        -481.316          44.000  
G18  21444801.555   114268580.684        -481.055          31.000  
G 1  21351314.758   113777274.606        -481.260          41.000  
G25  21355997.823   113801943.2001       -480.789          31.000  
> 2019  6 16  1 14  2.0000000  0  9                     
G 6  21351173.356   113776539.309        -481.471          43.000  
G 5  21351168.509   113776415.363        -481.495          45.000  
G20  21226588.948   113121863.861        -480.962          32.000  
G 3  21351398.618   113777665.115        -481.592          46.000  
G 9  21305717.548   113537378.868        -480.999          33.000  
G 4  21351402.862   113777760.458        -481.398          44.000  
G18  21444893.144   114269061.995        -481.283          32.000  
G 1  21351406.478   113777755.928        -481.538          43.000  
G25  21356089.424   113802424.499        -481.104          31.000  
> 2019  6 16  1 14  3.0000000  0  9                     
G 6  21351265.191   113777020.667        -481.493          43.000  
G 5  21351260.076   113776896.724        -481.512          45.000  
G20  21226680.664   113122345.219        -480.983          32.000  
G 3  21351490.262   113778146.479        -481.709          46.000  
G 9  21305809.382   113537860.218        -480.780          33.000  
G 4  21351494.565   113778241.813        -481.229          45.000  
G18  21444984.811   114269543.358        -481.200          31.000  
G 1  21351498.222   113778237.262        -481.451          42.000  
G25  21356181.129   113802905.835        -480.913          31.000  
> 2019  6 16  1 14  4.0000000  0  9                     
G 6  21351356.907   113777502.030        -481.453          43.000  
G 5  21351351.738   113777378.084        -481.438          45.000  
G20  21226772.421   113122826.578        -481.119          31.000  
G 3  21351581.857   113778627.840        -481.553          45.000  
G 9  21305900.969   113538341.584        -480.654          33.000  
G 4  21351586.250   113778723.191        -481.252          44.000  
G18  21445076.418   114270024.716        -481.158          31.000  
G 1  21351589.887   113778718.640        -481.385          42.000  
G25  21356272.812   113803387.293        -482.947          31.000  
> 2019  6 16  1 14  5.0000000  0  9                     
G 6  21351448.426   113777983.319        -481.309          43.000  
G 5  21351443.494   113777859.398        -481.362          45.000  
G20  21226864.199   113123307.862        -480.660          31.000  
G 3  21351673.482   113779109.136        -481.517          45.000  
G 9  21305992.588   113538822.868        -480.521          32.000  
G 4  21351677.872   113779204.477        -481.270          43.000  
G18  21445168.159   114270506.006        -481.005          32.000  
G 1  21351681.738   113779199.942        -481.494          41.000  
G25  21356364.275   113803868.492        -480.507          31.000  
> 2019  6 16  1 14  6.0000000  0  9                     
G 6  21351540.106   113778464.643        -481.439          42.000  
G 5  21351535.243   113778340.691        -481.288          45.000  
G20  21226955.853   113123789.186        -480.990          32.000  
G 3  21351765.208   113779590.450        -481.544          46.000  
G 9  21306084.140   113539304.186        -480.754          33.000  
G 4  21351769.564   113779685.791        -481.457          44.000  
G18  21445259.896   114270987.311        -481.161          32.000  
G 1  21351773.481   113779681.246        -481.289          41.000  
G25  21356455.962   113804349.784        -480.306          31.000  
> 2019  6 16  1 14  7.0000000  0  9                     
G 6  21351631.780   113778945.857        -481.028          43.000  
G 5  21351626.809   113778821.924        -481.036          45.000  
G20  21227047.542   113124270.431        -480.909          33.000  
G 3  21351857.019   113780071.677        -481.208          45.000  
G 9  21306175.844   113539785.421        -480.422          33.000  
G 4  21351861.150   113780167.017        -481.028          44.000  
G18  21445351.614   114271468.559        -480.759          32.000  
G 1  21351865.120   113780162.493        -481.151          41.000  
G25  21356547.587   113804831.002        -480.113          30.000  
> 2019  6 16  1 14  8.0000000  0  8                     
G 6  21351723.560   113779427.006        -480.962          43.000  
G 5  21351718.346   113779303.056        -480.861          45.000  
G20  21227139.337   113124751.567        -480.994          31.000  
G 3  21351948.762   113780552.809        -481.088          46.000  
G 9  21306267.670   113540266.559        -480.668          33.000  
G 4  21351952.705   113780648.146        -481.050          44.000  
G 1  21351956.689   113780643.608        -480.848          41.000  
G25  21356639.298   113805312.225        -481.640          29.000  
> 2019  6 16  1 14  9.0000000  0  9                     
G 6  21351815.249   113779908.000        -480.951          43.000  
G 5  21351809.966   113779784.051        -480.886          45.000  
G20  21227231.217   113125232.555        -480.810          32.000  
G 3  21352040.471   113781033.807        -480.972          45.000  
G 9  21306359.501   113540747.557        -480.933          32.000  
G 4  21352044.210   113781129.146        -480.988          44.000  
G18  21445534.947   114272465.6871       -480.885          31.000  
G 1  21352048.162   113781124.593        -480.815          41.000  
G25  21356730.864   113805793.171        -480.604          31.000  
> 2019  6 16  1 14 10.0000000  0  9                     
G 6  21351906.851   113780388.995        -480.699          43.000  
G 5  21351901.617   113780265.055        -480.857          45.000  
G20  21227323.022   113125713.552        -480.687          32.000  
G 3  21352132.163   113781514.806        -480.898          45.000  
G 9  21306451.209   113541228.575        -480.825          33.000  
G 4  21352135.736   113781610.139        -480.641          44.000  
G18  21445626.558   114272946.703        -481.140          31.000  
G 1  21352139.796   113781605.599        -480.654          41.000  
G25  21356822.528   113806274.164        -481.086          31.000  
> 2019  6 16  1 14 11.0000000  0  9                     
G 6  21351998.480   113780869.970        -480.885          43.000  
G 5  21351993.218   113780746.029        -480.929          45.000  
G20  21227414.722   113126194.551        -480.940          32.000  
G 3  21352223.838   113781995.780        -480.909          46.000  
G 9  21306542.946   113541709.531        -480.906          33.000  
G 4  21352227.348   113782091.130        -481.270          44.000  
G18  21445718.230   114273427.702        -481.848          31.000  
G 1  21352231.510   113782086.579        -480.740          41.000  
G25  21356914.118   113806755.126        -480.376          30.000  
> 2019  6 16  1 14 12.0000000  0  9                     
G 6  21352090.181   113781351.147        -481.201          43.000  
G 5  21352084.810   113781227.202        -481.207          45.000  
G20  21227506.375   113126675.725        -481.290          32.000  
G 3  21352315.488   113782476.949        -481.194          46.000  
G 9  21306634.830   113542190.707        -481.049          33.000  
G 4  21352318.961   113782572.298        -481.174          44.000  
G18  21445809.970   114273908.819        -480.828          30.000  
G 1  21352323.196   113782567.747        -481.073          41.000  
G25  21357005.840   113807236.342        -481.017          31.000  
> 2019  6 16  1 14 13.0000000  0  9                     
G 6  21352181.838   113781832.353        -481.349          43.000  
G 5  21352176.476   113781708.414        -481.460          45.000  
G20  21227598.099   113127156.920        -481.331          32.000  
G 3  21352407.163   113782958.169        -481.364          46.000  
G 9  21306726.500   113542671.907        -481.190          33.000  
G 4  21352410.595   113783053.507        -481.359          44.000  
G18  21445901.636   114274390.064        -482.000          31.000  
G 1  21352414.843   113783048.957        -481.222          41.000  
G25  21357097.524   113807717.510        -480.812          31.000  
> 2019  6 16  1 14 14.0000000  0  9                     
G 6  21352273.439   113782313.537        -481.459          43.000  
G 5  21352268.057   113782189.597        -481.405          45.000  
G20  21227689.800   113127638.122        -481.662          32.000  
G 3  21352498.779   113783439.346        -481.332          46.000  
G 9  21306818.184   113543153.108        -481.385          33.000  
G 4  21352502.363   113783534.692        -481.361          44.000  
G18  21445993.261   114274871.241        -481.627          31.000  
G 1  21352506.585   113783530.139        -481.309          41.000  
G25  21357189.293   113808198.710        -480.856          31.000  
> 2019  6 16  1 14 15.0000000  0  9                     
G 6  21352365.028   113782794.721        -481.256          42.000  
G 5  21352359.758   113782670.784        -481.071          45.000  
G20  21227781.529   113128119.295        -481.196          31.000  
G 3  21352590.358   113783920.538        -481.119          46.000  
G 9  21306909.912   113543634.285        -481.121          32.000  
G 4  21352594.080   113784015.878        -481.061          44.000  
G18  21446084.982   114275352.433        -480.906          30.000  
G 1  21352598.192   113784011.328        -480.974          41.000  
G25  21357280.958   113808679.888        -480.834          30.000  
> 2019  6 16  1 14 16.0000000  0  9                     
G 6  21352456.586   113783275.776        -480.933          43.000  
G 5  21352451.324   113783151.833        -480.977          45.000  
G20  21227873.073   113128600.352        -481.070          31.000  
G 3  21352681.988   113784401.589        -480.972          46.000  
G 9  21307001.524   113544115.354        -481.353          32.000  
G 4  21352685.732   113784496.930        -480.977          44.000  
G18  21446176.713   114275833.493        -481.295          31.000  
G 1  21352689.990   113784492.379        -480.789          41.000  
G25  21357372.485   113809160.958        -480.968          30.000  
> 2019  6 16  1 14 17.0000000  0  9                     
G 6  21352548.242   113783756.833        -481.024          43.000  
G 5  21352542.985   113783632.895        -481.062          45.000  
G20  21227964.679   113129081.412        -481.202          31.000  
G 3  21352773.650   113784882.646        -480.978          46.000  
G 9  21307093.191   113544596.416        -481.360          33.000  
G 4  21352777.246   113784977.990        -481.080          44.000  
G18  21446268.463   114276314.540        -481.123          31.000  
G 1  21352781.470   113784973.443        -481.016          41.000  
G25  21357464.091   113809641.984        -480.198          32.000  
> 2019  6 16  1 14 18.0000000  0  9                     
G 6  21352639.832   113784237.952        -481.190          42.000  
G 5  21352634.612   113784114.011        -481.241          45.000  
G20  21228056.359   113129562.536        -481.295          32.000  
G 3  21352865.309   113785363.773        -481.221          46.000  
G 9  21307184.812   113545077.547        -481.577          33.000  
G 4  21352868.784   113785459.119        -481.213          44.000  
G18  21446359.964   114276795.642        -480.844          32.000  
G 1  21352873.126   113785454.563        -481.219          42.000  
G25  21357555.694   113810123.103        -480.771          31.000  
> 2019  6 16  1 14 19.0000000  0  9                     
G 6  21352731.422   113784719.035        -481.038          42.000  
G 5  21352726.315   113784595.094        -480.956          45.000  
G20  21228147.970   113130043.610        -481.081          32.000  
G 3  21352956.749   113785844.843        -480.900          46.000  
G 9  21307276.403   113545558.586        -480.862          32.000  
G 4  21352960.429   113785940.183        -480.916          44.000  
G18  21446451.471   114277276.743        -481.342          32.000  
G 1  21352964.719   113785935.630        -480.790          42.000  
G25  21357647.288   113810604.159        -479.963          30.000  
> 2019  6 16  1 14 20.0000000  0  9                     
G 6  21352823.040   113785200.059        -480.879          42.000  
G 5  21352817.877   113785076.123        -480.811          45.000  
G20  21228239.543   113130524.637        -481.005          32.000  
G 3  21353048.303   113786325.869        -480.797          46.000  
G 9  21307368.011   113546039.650        -481.298          33.000  
G 4  21353051.946   113786421.199        -480.674          44.000  
G18  21446543.076   114277757.749        -480.986          31.000  
G 1  21353056.384   113786416.662        -480.806          42.000  
G25  21357738.872   113811085.237        -480.322          31.000  
> 2019  6 16  1 14 21.0000000  0  9                     
G 6  21352914.602   113785681.014        -481.259          42.000  
G 5  21352909.523   113785557.068        -481.072          45.000  
G20  21228331.042   113131005.578        -481.292          31.000  
G 3  21353139.816   113786806.813        -481.033          46.000  
G 9  21307459.719   113546520.571        -481.271          33.000  
G 4  21353143.603   113786902.153        -480.994          44.000  
G18  21446634.759   114278238.704        -481.208          31.000  
G 1  21353148.060   113786897.615        -481.044          42.000  
G25  21357830.487   113811566.188        -481.367          31.000  
> 2019  6 16  1 14 22.0000000  0  9                     
G 6  21353006.224   113786225.0513       -481.266          43.000  
G 5  21353001.181   113786038.110        -481.238          45.000  
G20  21228422.572   113131486.735        -483.702          32.000  
G 3  21353231.434   113787287.847        -481.073          46.000  
G 9  21307551.323   113547001.743        -483.669          32.000  
G 4  21353235.325   113787383.194        -481.187          44.000  
G18  21446726.531   114278719.685        -480.229          31.000  
G 1  21353239.568   113787378.626        -480.839          42.000  
G25  21357922.238   113812047.221        -481.051          32.000  
> 2019  6 16  1 14 23.0000000  0  9                     
G 6  21353097.751   113786705.0943       -481.216          43.000  
G 5  21353092.896   113786519.151        -481.136          45.000  
G20  21228514.020   113131967.671        -481.587          32.000  
G 3  21353323.045   113787768.901        -481.111          46.000  
G 9  21307642.803   113547482.658        -481.051          32.000  
G 4  21353326.997   113787864.233        -481.031          44.000  
G18  21446818.183   114279200.796        -481.086          32.000  
G 1  21353331.084   113787859.688        -481.045          42.000  
G25  21358013.873   113812528.243        -480.574          31.000  
> 2019  6 16  1 14 24.0000000  0  9                     
G 6  21353189.315   113787186.1942       -481.205          43.000  
G 5  21353184.617   113787000.262        -481.317          45.000  
G20  21228605.656   113132448.781        -481.331          32.000  
G 3  21353414.682   113788250.004        -481.213          46.000  
G 9  21307734.451   113547963.750        -480.514          33.000  
G 4  21353418.715   113788345.351        -481.261          44.000  
G18  21446909.931   114279681.909        -481.893          32.000  
G 1  21353422.716   113788340.807        -481.444          42.000  
G25  21358105.393   113813009.348        -480.648          31.000  
> 2019  6 16  1 14 25.0000000  0  9                     
G 6  21353280.913   113787668.2223       -480.952          43.000  
G 5  21353276.352   113787643.7823       -480.928          45.000  
G20  21228697.250   113132976.7913       -480.872          32.000  
G 3  21353506.377   113788853.0293       -480.875          46.000  
G 9  21307826.085   113548801.7753       -480.828          33.000  
G 4  21353510.391   113788874.3773       -481.089          44.000  
G18  21447001.678   114280173.9033       -480.642          32.000  
G 1  21353514.273   113788894.3243       -480.923          42.000  
G25  21358196.943   113813502.3533       -480.242          31.000  
> 2019  6 16  1 14 26.0000000  0  9                     
G 6  21353372.564   113788150.1802       -481.053          42.000  
G 5  21353368.001   113788125.7372       -481.039          45.000  
G20  21228788.873   113133457.7652       -481.133          32.000  
G 3  21353597.937   113789333.9792       -481.044          46.000  
G 9  21307917.873   113549283.7622       -481.079          33.000  
G 4  21353601.988   113789355.3302       -481.057          44.000  
G18  21447093.358   114280655.8502       -480.564          32.000  
G 1  21353605.899   113789376.2782       -481.001          42.000  
G25  21358288.491   113813983.3342       -481.001          31.000  
> 2019  6 16  1 14 27.0000000  0  9                     
G 6  21353464.162   113788631.0592       -480.714          42.000  
G 5  21353459.593   113788606.6242       -480.865          45.000  
G20  21228880.436   113133938.6632       -481.244          32.000  
G 3  21353689.530   113789814.8792       -480.830          46.000  
G 9  21308009.673   113549764.6612       -481.450          33.000  
G 4  21353693.604   113789836.2252       -480.922          44.000  
G18  21447184.950   114281136.7442       -480.266          31.000  
G 1  21353697.505   113789857.1722       -480.839          42.000  
G25  21358380.124   113814464.2552       -480.925          31.000  
> 2019  6 16  1 14 28.0000000  0  9                     
G 6  21353555.760   113789111.9212       -480.946          42.000  
G 5  21353551.138   113789087.4792       -480.962          45.000  
G20  21228972.111   113134419.4972       -481.237          32.000  
G 3  21353781.121   113790295.7292       -480.988          46.000  
G 9  21308101.327   113550245.5002       -481.395          33.000  
G 4  21353785.106   113790317.0732       -480.966          44.000  
G18  21447276.605   114281617.5902       -480.500          31.000  
G 1  21353789.094   113790338.0142       -480.911          42.000  
G25  21358471.731   113814945.1122       -481.538          31.000  
> 2019  6 16  1 14 29.0000000  0  9                     
G 6  21353647.376   113789593.9613       -480.883          43.000  
G 5  21353642.622   113789568.5213       -480.938          45.000  
G20  21229063.751   113134902.5533       -481.457          32.000  
G 3  21353872.841   113790778.7723       -480.837          46.000  
G 9  21308193.200   113550730.5403       -481.229          33.000  
G 4  21353876.670   113790799.1143       -480.894          44.000  
G18  21447368.175   114282099.6353       -480.294          31.000  
G 1  21353880.786   113790820.0603       -480.890          42.000  
G25  21358563.443   113815428.1473       -481.322          31.000  
> 2019  6 16  1 14 30.0000000  0  8                     
G 6  21353738.975   113790075.0432       -480.953          43.000  
G 5  21353734.144   113790049.5982       -480.969          45.000  
G20  21229155.457   113135384.6292       -480.983          32.000  
G 3  21353964.597   113791260.8462       -480.797          46.000  
G 9  21308284.877   113551212.6322       -481.444          33.000  
G 4  21353968.421   113791281.1962       -480.906          44.000  
G18  21447459.870   114282581.6872       -479.752          31.000  
G 1  21353972.418   113791302.1482       -481.033          42.000  
> 2019  6 16  1 14 31.0000000  0  8                     
G 6  21353830.519   113790556.0313       -481.069          43.000  
G 5  21353825.904   113790531.5953       -481.117          45.000  
G20  21229247.093   113135865.6113       -481.216          32.000  
G 3  21354056.196   113791741.8413       -481.020          45.000  
G 9  21308376.529   113551693.6173       -481.404          32.000  
G 4  21354060.161   113791763.1753       -480.942          44.000  
G18  21447551.512   114283063.6723       -480.355          31.000  
G 1  21354063.993   113791783.1263       -481.152          42.000  
> 2019  6 16  1 14 32.0000000  0  8                     
G 6  21353922.146   113791037.0062       -481.017          43.000  
G 5  21353917.546   113791012.5732       -481.097          45.000  
G20  21229338.870   113136346.6032       -481.476          32.000  
G 3  21354147.789   113792222.8162       -480.963          46.000  
G 9  21308468.138   113552174.5922       -481.689          33.000  
G 4  21354151.754   113792244.1632       -481.001          44.000  
G18  21447643.118   114283544.6782       -480.773          32.000  
G 1  21354155.467   113792264.1112       -481.145          42.000  
> 2019  6 16  1 14 33.0000000  0  8                     
G 6  21354013.814   113791517.9472       -480.702          42.000  
G 5  21354009.232   113791493.5132       -480.781          45.000  
G20  21229430.399   113136827.5392       -480.684          33.000  
G 3  21354239.351   113792703.7612       -480.756          45.000  
G 9  21308559.771   113552655.5452       -481.245          32.000  
G 4  21354243.309   113792725.1042       -480.842          44.000  
G18  21447734.661   114284025.6412       -480.868          32.000  
G 1  21354247.118   113792745.0522       -480.828          42.000  
> 2019  6 16  1 14 34.0000000  0  8                     
G 6  21354105.465   113791998.9502       -480.674          42.000  
G 5  21354100.851   113791974.5232       -480.792          46.000  
G20  21229521.865   113137308.5432       -480.946          32.000  
G 3  21354330.946   113793184.7622       -480.768          45.000  
G 9  21308651.384   113553136.5762       -481.436          33.000  
G 4  21354334.874   113793206.1072       -480.726          45.000  
G18  21447826.293   114284506.6542       -481.047          32.000  
G 1  21354338.905   113793226.0672       -480.936          42.000  
> 2019  6 16  1 14 35.0000000  0  8                     
G 6  21354197.110   113792480.0222       -480.948          42.000  
G 5  21354192.433   113792455.5872       -480.935          45.000  
G20  21229613.512   113137789.6352       -481.191          32.000  
G 3  21354422.542   113793665.8382       -481.089          45.000  
G 9  21308742.868   113553617.6292       -481.478          33.000  
G 4  21354426.490   113793687.1912       -481.099          44.000  
G18  21447917.850   114284987.7262       -481.249          31.000  
G 1  21354430.599   113793707.1432       -481.100          42.000  
> 2019  6 16  1 14 36.0000000  0  8                     
G 6  21354288.878   113792961.0642       -480.876          42.000  
G 5  21354283.992   113792936.6302       -480.901          45.000  
G20  21229705.018   113138270.6652       -480.968          32.000  
G 3  21354514.091   113794146.8762       -480.918          46.000  
G 9  21308834.598   113554098.6732       -481.438          33.000  
G 4  21354518.311   113794168.2292       -480.995          44.000  
G18  21448009.554   114285468.7652       -481.133          32.000  
G 1  21354522.264   113794188.1742       -480.986          42.000  
> 2019  6 16  1 14 37.0000000  0  8                     
G 6  21354380.624   113793442.095        -480.867          42.000  
G 5  21354375.716   113793417.1581       -480.970          45.000  
G20  21229796.728   113138751.692        -480.965          32.000  
G 3  21354605.789   113794627.912        -481.060          46.000  
G 9  21308926.322   113554579.668        -480.812          33.000  
G 4  21354610.035   113794649.263        -481.125          44.000  
G18  21448101.138   114285949.803        -481.332          32.000  
G 1  21354613.922   113794668.7141       -481.239          42.000  
> 2019  6 16  1 14 38.0000000  0  8                     
G 6  21354472.311   113793929.1553       -480.880          43.000  
G 5  21354467.365   113793898.222        -480.992          45.000  
G20  21229888.259   113139232.775        -481.557          32.000  
G 3  21354697.502   113795108.967        -480.974          46.000  
G 9  21309017.781   113555060.771        -481.849          33.000  
G 4  21354701.640   113795130.322        -481.107          44.000  
G18  21448192.770   114286430.849        -481.239          32.000  
G 1  21354705.430   113795149.762        -480.983          42.000  
> 2019  6 16  1 14 39.0000000  0  8                     
G 6  21354563.883   113794410.2382       -480.804          42.000  
G 5  21354559.068   113794379.302        -480.902          45.000  
G20  21229979.827   113139713.859        -481.187          32.000  
G 3  21354789.158   113795590.053        -480.892          46.000  
G 9  21309109.474   113555541.861        -481.630          33.000  
G 4  21354793.272   113795611.400        -480.870          44.000  
G18  21448284.414   114286911.956        -481.337          32.000  
G 1  21354797.009   113795630.856        -480.978          42.000  
> 2019  6 16  1 14 40.0000000  0  8                     
G 6  21354655.560   113794892.2783       -481.282          42.000  
G 5  21354650.693   113794860.329        -480.991          45.000  
G20  21230071.227   113140194.943        -482.921          31.000  
G 3  21354880.764   113796071.072        -480.977          46.000  
G 9  21309200.670   113556022.913        -482.307          32.000  
G 4  21354884.927   113796092.418        -481.069          44.000  
G18  21448375.949   114287392.935        -481.112          32.000  
G 1  21354888.602   113796111.851        -480.812          43.000  
> 2019  6 16  1 14 41.0000000  0  8                     
G 6  21354747.171   113795373.4463       -481.224          42.000  
G 5  21354742.282   113795341.513        -481.261          45.000  
G20  21230162.706   113140676.020        -481.404          32.000  
G 3  21354972.402   113796552.267        -481.394          45.000  
G 9  21309292.166   113556504.048        -481.550          32.000  
G 4  21354976.529   113796573.613        -481.322          44.000  
G18  21448467.497   114287874.158        -481.414          32.000  
G 1  21354980.289   113796593.066        -481.451          41.000  
> 2019  6 16  1 14 42.0000000  0  8                     
G 6  21354838.840   113795854.5862       -481.055          42.000  
G 5  21354833.911   113795822.644        -481.122          45.000  
G20  21230254.350   113141157.169        -480.801          32.000  
G 3  21355064.016   113797033.399        -481.306          46.000  
G 9  21309383.821   113556985.170        -481.100          33.000  
G 4  21355068.168   113797054.735        -481.311          44.000  
G18  21448559.160   114288355.298        -481.619          32.000  
G 1  21355071.948   113797074.204        -481.443          42.000  
> 2019  6 16  1 14 43.0000000  0  8                     
G 6  21354930.442   113796336.6513       -480.958          43.000  
G 5  21354925.477   113796310.2163       -481.078          45.000  
G20  21230345.917   113141640.2503       -480.947          32.000  
G 3  21355155.686   113797520.4733       -481.030          46.000  
G 9  21309475.366   113557468.7533       -481.193          33.000  
G 4  21355159.640   113797540.8203       -481.392          44.000  
G18  21448650.662   114288839.3693       -481.504          31.000  
G 1  21355163.842   113797562.7633       -481.117          42.000  
> 2019  6 16  1 14 44.0000000  0  8                     
G 6  21355022.110   113796817.8302       -481.117          42.000  
G 5  21355017.236   113796792.3992       -481.163          45.000  
G20  21230437.699   113142122.4522       -481.060          32.000  
G 3  21355247.308   113798001.6482       -481.169          46.000  
G 9  21309567.162   113557950.9622       -481.034          32.000  
G 4  21355251.338   113798023.0002       -481.157          44.000  
G18  21448742.268   114289320.5492       -481.877          32.000  
G 1  21355255.485   113798044.9522       -481.147          41.000  
> 2019  6 16  1 14 45.0000000  0  8                     
G 6  21355113.613   113797299.0022       -480.951          42.000  
G 5  21355108.925   113797273.5762       -481.040          45.000  
G20  21230529.378   113142603.6072       -480.987          32.000  
G 3  21355338.937   113798482.8162       -481.051          46.000  
G 9  21309658.610   113558432.1092       -480.820          32.000  
G 4  21355343.061   113798504.1802       -481.158          44.000  
G18  21448833.833   114289801.7412       -481.649          32.000  
G 1  21355347.203   113798526.1232       -481.066          41.000  
> 2019  6 16  1 14 46.0000000  0  8                     
G 6  21355205.235   113797780.0222       -481.204          42.000  
G 5  21355200.617   113797754.5952       -481.255          45.000  
G20  21230620.937   113143084.6292       -481.322          32.000  
G 3  21355430.536   113798963.8402       -481.322          46.000  
G 9  21309750.152   113558913.1482       -481.632          32.000  
G 4  21355434.828   113798985.2012       -481.357          45.000  
G18  21448925.336   114290282.7132       -480.817          31.000  
G 1  21355438.747   113799007.1412       -481.144          41.000  
> 2019  6 16  1 14 47.0000000  0  8                     
G 6  21355296.852   113798262.2173       -481.090          42.000  
G 5  21355292.285   113798237.7883       -481.213          45.000  
G20  21230712.588   113143566.8173       -481.206          32.000  
G 3  21355522.157   113799446.0343       -481.189          46.000  
G 9  21309841.737   113559393.3303       -481.417          32.000  
G 4  21355526.485   113799468.3953       -481.205          44.000  
G18  21449017.007   114290764.9673       -481.776          31.000  
G 1  21355530.544   113799490.3393       -481.008          42.000  
> 2019  6 16  1 14 48.0000000  0  8                     
G 6  21355388.433   113798743.3322       -480.850          42.000  
G 5  21355383.875   113798718.9062       -480.935          45.000  
G20  21230804.106   113144047.9322       -480.971          32.000  
G 3  21355613.846   113799928.1622       -481.019          45.000  
G 9  21309933.184   113559874.4662       -481.346          32.000  
G 4  21355618.124   113799950.5182       -481.039          44.000  
G18  21449108.673   114291246.0662       -481.110          31.000  
G 1  21355622.096   113799971.4552       -480.828          42.000  
> 2019  6 16  1 14 49.0000000  0  8                     
G 6  21355480.085   113799224.3653       -480.842          42.000  
G 5  21355475.605   113799200.9453       -481.052          45.000  
G20  21230895.646   113144528.9533       -480.905          32.000  
G 3  21355705.395   113800409.1883       -481.050          46.000  
G 9  21310024.665   113560354.4673       -481.195          32.000  
G 4  21355709.739   113800431.5453       -481.008          45.000  
G18  21449200.433   114291728.1433       -481.884          31.000  
G 1  21355713.732   113800452.4903       -480.861          41.000  
> 2019  6 16  1 14 50.0000000  0  8                     
G 6  21355571.784   113799705.4892       -481.020          42.000  
G 5  21355567.251   113799682.0732       -481.198          45.000  
G20  21230987.384   113145010.0912       -481.218          32.000  
G 3  21355796.980   113800890.3102       -481.177          45.000  
G 9  21310116.369   113560835.6112       -481.379          32.000  
G 4  21355801.424   113800912.6722       -481.227          44.000  
G18  21449292.179   114292209.2122       -481.349          31.000  
G 1  21355805.423   113800933.6082       -481.022          41.000  
> 2019  6 16  1 14 51.0000000  0  8                     
G 6  21355663.420   113800186.6422       -480.959          42.000  
G 5  21355658.840   113800163.2222       -481.086          45.000  
G20  21231079.119   113145491.2482       -481.086          31.000  
G 3  21355888.544   113801371.4732       -481.167          46.000  
G 9  21310208.148   113561316.7572       -481.047          33.000  
G 4  21355893.132   113801393.8282       -481.133          44.000  
G18  21449383.842   114292690.3792       -481.235          32.000  
G 1  21355897.109   113801414.7662       -480.969          41.000  
> 2019  6 16  1 14 52.0000000  0  8                     
G 6  21355755.058   113800667.7202       -480.923          42.000  
G 5  21355750.557   113800644.2942       -481.027          45.000  
G20  21231170.847   113145972.3382       -481.169          31.000  
G 3  21355980.115   113801852.5482       -481.083          46.000  
G 9  21310299.606   113561797.8292       -481.085          33.000  
G 4  21355984.883   113801874.9032       -481.086          44.000  
G18  21449475.412   114293171.4422       -481.080          31.000  
G 1  21355988.770   113801895.8402       -480.940          41.000  
> 2019  6 16  1 14 53.0000000  0  8                     
G 6  21355846.647   113801148.7412       -481.177          42.000  
G 5  21355842.264   113801125.3222       -481.313          45.000  
G20  21231262.491   113146453.3662       -481.551          32.000  
G 3  21356071.725   113802333.5742       -481.349          46.000  
G 9  21310391.213   113562278.8382       -481.237          33.000  
G 4  21356076.489   113802355.9342       -481.392          44.000  
G18  21449567.063   114293652.4982       -481.807          31.000  
G 1  21356080.421   113802376.8612       -481.132          41.000  
> 2019  6 16  1 14 54.0000000  0  8                     
G 6  21355938.264   113801629.8892       -481.073          42.000  
G 5  21355934.030   113801606.4772       -481.239          45.000  
G20  21231354.036   113146934.5002       -481.265          32.000  
G 3  21356163.337   113802814.7252       -481.357          46.000  
G 9  21310482.882   113562760.0052       -481.404          32.000  
G 4  21356168.200   113802837.0802       -481.302          44.000  
G18  21449658.577   114294133.6322       -481.455          32.000  
G 1  21356172.095   113802858.0132       -481.069          41.000  
> 2019  6 16  1 14 55.0000000  0  8                     
G 6  21356029.879   113802110.955        -481.005          42.000  
G 5  21356025.608   113802087.0431       -481.090          45.000  
G20  21231445.548   113147415.552        -480.981          31.000  
G 3  21356254.969   113803295.791        -481.149          45.000  
G 9  21310574.464   113563240.5781       -481.244          32.000  
G 4  21356259.729   113803318.149        -481.187          44.000  
G18  21449750.155   114294614.668        -480.920          32.000  
G 1  21356263.649   113803338.5831       -480.945          42.000  
> 2019  6 16  1 14 56.0000000  0  8                     
G 6  21356121.492   113802592.073        -480.989          42.000  
G 5  21356117.271   113802568.170        -481.127          45.000  
G20  21231537.152   113147896.644        -480.764          31.000  
G 3  21356346.626   113803776.907        -481.130          45.000  
G 9  21310666.024   113563721.688        -481.047          32.000  
G 4  21356351.285   113803799.272        -481.183          44.000  
G18  21449841.741   114295095.809        -481.066          32.000  
G 1  21356355.356   113803819.699        -480.979          41.000  
> 2019  6 16  1 14 57.0000000  0  8                     
G 6  21356213.175   113803073.333        -481.217          42.000  
G 5  21356208.910   113803049.423        -481.324          45.000  
G20  21231628.828   113148377.927        -481.262          31.000  
G 3  21356438.300   113804258.172        -481.365          45.000  
G 9  21310757.883   113564202.946        -481.311          32.000  
G 4  21356442.887   113804280.531        -481.302          44.000  
G18  21449933.289   114295577.062        -481.342          32.000  
G 1  21356446.961   113804300.955        -481.172          41.000  
> 2019  6 16  1 14 58.0000000  0  8                     
G 6  21356304.906   113803554.683        -481.387          42.000  
G 5  21356300.496   113803530.767        -481.360          45.000  
G20  21231720.533   113148859.269        -481.345          31.000  
G 3  21356529.952   113804739.512        -481.388          45.000  
G 9  21310849.730   113564684.281        -481.174          33.000  
G 4  21356534.518   113804761.867        -481.329          44.000  
G18  21450024.987   114296058.380        -480.831          32.000  
G 1  21356538.697   113804782.304        -481.360          41.000  
> 2019  6 16  1 14 59.0000000  0  8                     
G 6  21356396.580   113804035.974        -481.392          42.000  
G 5  21356392.214   113804012.056        -481.331          45.000  
G20  21231812.264   113149340.578        -481.457          31.000  
G 3  21356621.526   113805220.805        -481.389          46.000  
G 9  21310941.487   113565165.566        -481.023          33.000  
G 4  21356626.345   113805243.159        -481.342          44.000  
G18  21450116.632   114296539.711        -481.260          32.000  
G 1  21356630.345   113805263.596        -481.360          41.000  
> 2019  6 16  1 15  0.0000000  0  8                     
G 6  21356488.286   113804517.351        -481.570          42.000  
G 5  21356483.932   113804493.422        -481.370          45.000  
G20  21231904.059   113149821.944        -481.270          31.000  
G 3  21356713.173   113805702.171        -481.333          46.000  
G 9  21311033.234   113565646.921        -480.725          32.000  
G 4  21356718.225   113805724.520        -481.200          44.000  
G18  21450208.343   114297021.067        -481.052          32.000  
G 1  21356722.082   113805744.965        -481.468          41.000  
> 2019  6 16  1 15  1.0000000  0  8                     
G 6  21356579.948   113804998.644        -481.382          42.000  
G 5  21356575.617   113804974.718        -481.317          45.000  
G20  21231995.830   113150303.249        -481.120          31.000  
G 3  21356804.865   113806183.468        -481.240          46.000  
G 9  21311124.908   113566128.218        -480.632          32.000  
G 4  21356809.945   113806205.811        -481.067          44.000  
G18  21450300.069   114297502.360        -481.056          32.000  
G 1  21356813.684   113806226.252        -481.202          41.000  
> 2019  6 16  1 15  2.0000000  0  8                     
G 6  21356671.536   113805479.834        -481.793          42.000  
G 5  21356667.429   113805455.902        -481.542          45.000  
G20  21232087.434   113150784.423        -481.665          31.000  
G 3  21356896.607   113806664.650        -481.576          45.000  
G 9  21311216.529   113566609.420        -481.184          33.000  
G 4  21356901.680   113806687.002        -481.411          44.000  
G18  21450391.628   114297983.541        -481.560          32.000  
G 1  21356905.132   113806707.447        -481.691          41.000  
> 2019  6 16  1 15  3.0000000  0  8                     
G 6  21356763.207   113805961.207        -481.580          42.000  
G 5  21356759.132   113805937.285        -481.464          45.000  
G20  21232179.010   113151265.817        -481.448          31.000  
G 3  21356988.308   113807146.026        -481.420          45.000  
G 9  21311308.268   113567090.788        -480.841          32.000  
G 4  21356993.395   113807168.382        -481.367          44.000  
G18  21450483.362   114298464.945        -481.926          32.000  
G 1  21356996.820   113807188.827        -481.489          41.000  
> 2019  6 16  1 15  4.0000000  0  8                     
G 6  21356854.971   113806442.532        -481.536          42.000  
G 5  21356850.697   113806418.604        -481.400          45.000  
G20  21232270.619   113151747.128        -481.241          32.000  
G 3  21357079.880   113807627.347        -481.365          46.000  
G 9  21311399.921   113567572.101        -480.825          32.000  
G 4  21357085.071   113807649.702        -481.300          44.000  
G18  21450575.072   114298946.239        -481.522          32.000  
G 1  21357088.569   113807670.150        -481.534          41.000  
> 2019  6 16  1 15  5.0000000  0  8                     
G 6  21356946.757   113806923.883        -481.503          42.000  
G 5  21356942.377   113806899.951        -481.324          45.000  
G20  21232362.353   113152228.465        -481.454          32.000  
G 3  21357171.640   113808108.700        -481.327          46.000  
G 9  21311491.592   113568053.446        -480.559          32.000  
G 4  21357176.747   113808131.050        -481.211          44.000  
G18  21450666.801   114299427.590        -481.443          32.000  
G 1  21357180.387   113808151.496        -481.438          41.000  
> 2019  6 16  1 15  6.0000000  0  8                     
G 6  21357038.514   113807405.163        -481.393          42.000  
G 5  21357034.032   113807381.235        -481.116          45.000  
G20  21232453.895   113152709.736        -480.682          32.000  
G 3  21357263.381   113808589.973        -481.064          45.000  
G 9  21311583.156   113568534.739        -480.869          32.000  
G 4  21357268.519   113808612.330        -481.053          44.000  
G18  21450758.548   114299908.884        -481.655          32.000  
G 1  21357272.053   113808632.779        -481.219          41.000  
> 2019  6 16  1 15  7.0000000  0  8                     
G 6  21357130.147   113807886.387        -481.599          42.000  
G 5  21357125.668   113807862.453        -481.412          45.000  
G20  21232545.476   113153190.973        -480.970          32.000  
G 3  21357355.119   113809071.194        -481.279          45.000  
G 9  21311674.746   113569015.976        -481.227          32.000  
G 4  21357360.136   113809093.545        -481.248          44.000  
G18  21450850.114   114300390.089        -480.990          31.000  
G 1  21357363.665   113809114.001        -481.492          41.000  
> 2019  6 16  1 15  8.0000000  0  8                     
G 6  21357221.765   113808367.566        -481.650          42.000  
G 5  21357217.273   113808343.634        -481.432          45.000  
G20  21232637.151   113153672.146        -481.569          32.000  
G 3  21357446.842   113809552.387        -481.450          45.000  
G 9  21311766.509   113569497.144        -481.178          32.000  
G 4  21357451.805   113809574.724        -481.245          44.000  
G18  21450941.725   114300871.281        -481.223          31.000  
G 1  21357455.165   113809595.170        -481.379          42.000  
> 2019  6 16  1 15  9.0000000  0  8                     
G 6  21357313.340   113808848.686        -481.594          42.000  
G 5  21357309.118   113808824.742        -481.405          45.000  
G20  21232728.959   113154153.258        -481.362          31.000  
G 3  21357538.644   113810033.491        -481.331          46.000  
G 9  21311858.352   113569978.263        -481.437          32.000  
G 4  21357543.434   113810055.850        -481.234          44.000  
G18  21451033.377   114301352.390        -480.867          31.000  
G 1  21357546.840   113810076.292        -481.362          41.000  
> 2019  6 16  1 15 10.0000000  0  8                     
G 6  21357405.076   113809329.926        -481.412          42.000  
G 5  21357400.830   113809305.998        -481.416          45.000  
G20  21232820.663   113154634.518        -481.575          31.000  
G 3  21357630.278   113810514.748        -481.439          46.000  
G 9  21311950.135   113570459.517        -481.511          33.000  
G 4  21357634.923   113810537.098        -481.357          44.000  
G18  21451125.094   114301833.631        -481.484          31.000  
G 1  21357638.517   113810557.543        -481.324          41.000  
> 2019  6 16  1 15 11.0000000  0  8                     
G 6  21357496.704   113809811.073        -481.299          42.000  
G 5  21357492.449   113809787.142        -481.188          45.000  
G20  21232912.418   113155115.645        -480.958          31.000  
G 3  21357721.955   113810995.882        -481.187          45.000  
G 9  21312041.919   113570940.666        -481.450          33.000  
G 4  21357726.454   113811018.234        -481.111          44.000  
G18  21451216.696   114302314.749        -480.898          32.000  
G 1  21357730.281   113811038.686        -481.165          41.000  
> 2019  6 16  1 15 12.0000000  0  8                     
G 6  21357588.300   113810292.154        -481.305          42.000  
G 5  21357583.990   113810268.211        -481.208          45.000  
G20  21233004.105   113155596.729        -480.965          31.000  
G 3  21357813.557   113811476.953        -481.088          45.000  
G 9  21312133.550   113571421.728        -481.228          32.000  
G 4  21357818.105   113811499.312        -481.136          44.000  
G18  21451308.242   114302795.848        -481.053          32.000  
G 1  21357821.906   113811519.757        -481.075          41.000  
> 2019  6 16  1 15 13.0000000  0  8                     
G 6  21357679.912   113810773.142        -481.033          42.000  
G 5  21357675.568   113810749.209        -480.957          45.000  
G20  21233095.741   113156077.724        -480.896          31.000  
G 3  21357905.124   113811957.950        -480.951          46.000  
G 9  21312225.147   113571902.725        -481.091          32.000  
G 4  21357909.707   113811980.297        -480.901          44.000  
G18  21451400.009   114303276.831        -480.638          32.000  
G 1  21357913.577   113812000.747        -480.857          41.000  
> 2019  6 16  1 15 14.0000000  0  8                     
G 6  21357771.600   113811254.086        -481.119          42.000  
G 5  21357767.117   113811230.160        -481.100          45.000  
G20  21233187.311   113156558.678        -481.121          31.000  
G 3  21357996.665   113812438.898        -481.061          46.000  
G 9  21312316.740   113572383.692        -481.327          32.000  
G 4  21358001.346   113812461.252        -481.106          44.000  
G18  21451491.662   114303757.783        -480.885          32.000  
G 1  21358005.168   113812481.698        -481.006          41.000  
> 2019  6 16  1 15 15.0000000  0  8                     
G 6  21357863.153   113811735.043        -481.079          42.000  
G 5  21357858.794   113811711.120        -481.136          45.000  
G20  21233278.807   113157039.646        -481.254          31.000  
G 3  21358088.433   113812919.863        -481.078          46.000  
G 9  21312408.285   113572864.633        -481.357          32.000  
G 4  21358093.102   113812942.211        -481.163          44.000  
G18  21451583.278   114304238.723        -480.724          31.000  
G 1  21358096.791   113812962.662        -481.090          42.000  
> 2019  6 16  1 15 16.0000000  0  8                     
G 6  21357954.747   113812216.050        -480.952          42.000  
G 5  21357950.444   113812192.123        -480.990          45.000  
G20  21233370.394   113157520.670        -481.207          31.000  
G 3  21358180.089   113813400.868        -480.894          45.000  
G 9  21312499.827   113573345.660        -481.155          33.000  
G 4  21358184.771   113813423.222        -480.985          44.000  
G18  21451674.847   114304719.725        -480.408          32.000  
G 1  21358188.429   113813443.671        -480.955          42.000  
> 2019  6 16  1 15 17.0000000  0  8                     
G 6  21358046.255   113812697.024        -480.732          42.000  
G 5  21358041.997   113812673.101        -480.800          45.000  
G20  21233461.966   113158001.615        -480.721          32.000  
G 3  21358271.702   113813881.853        -480.894          45.000  
G 9  21312591.311   113573826.643        -480.985          33.000  
G 4  21358276.381   113813904.200        -480.898          44.000  
G18  21451766.386   114305200.687        -480.110          32.000  
G 1  21358280.011   113813924.645        -480.709          41.000  
> 2019  6 16  1 15 18.0000000  0  8                     
G 6  21358137.876   113813177.982        -481.000          42.000  
G 5  21358133.702   113813154.057        -481.047          45.000  
G20  21233553.654   113158482.576        -481.008          32.000  
G 3  21358363.237   113814362.803        -481.187          46.000  
G 9  21312682.860   113574307.593        -481.147          33.000  
G 4  21358368.016   113814385.152        -481.127          44.000  
G18  21451857.908   114305681.646        -480.572          32.000  
G 1  21358371.642   113814405.604        -481.082          41.000  
> 2019  6 16  1 15 19.0000000  0  8                     
G 6  21358229.533   113813659.046        -481.191          42.000  
G 5  21358225.257   113813635.119        -481.099          45.000  
G20  21233645.280   113158963.628        -481.125          32.000  
G 3  21358454.835   113814843.863        -481.260          46.000  
G 9  21312774.354   113574788.637        -481.061          33.000  
G 4  21358459.664   113814866.209        -481.163          44.000  
G18  21451949.559   114306162.753        -481.246          32.000  
G 1  21358463.326   113814886.664        -481.189          41.000  
> 2019  6 16  1 15 20.0000000  0  8                     
G 6  21358321.175   113814140.066        -481.034          42.000  
G 5  21358316.856   113814116.143        -481.078          45.000  
G20  21233736.933   113159444.662        -481.277          32.000  
G 3  21358546.461   113815324.887        -481.061          45.000  
G 9  21312866.004   113575269.637        -480.737          33.000  
G 4  21358551.267   113815347.239        -481.144          44.000  
G18  21452041.176   114306643.740        -480.485          32.000  
G 1  21358555.003   113815367.694        -481.118          41.000  
> 2019  6 16  1 15 21.0000000  0  8                     
G 6  21358412.829   113814621.073        -480.961          42.000  
G 5  21358408.458   113814597.152        -481.062          44.000  
G20  21233828.565   113159925.657        -480.975          32.000  
G 3  21358638.153   113815805.902        -481.207          45.000  
G 9  21312957.572   113575750.673        -481.410          33.000  
G 4  21358642.873   113815828.248        -481.230          44.000  
G18  21452132.709   114307124.770        -480.619          31.000  
G 1  21358646.726   113815848.706        -481.234          41.000  
> 2019  6 16  1 15 22.0000000  0  8                     
G 6  21358504.475   113815102.067        -480.986          42.000  
G 5  21358500.115   113815078.140        -480.978          46.000  
G20  21233920.089   113160406.642        -480.647          32.000  
G 3  21358729.844   113816286.888        -481.079          46.000  
G 9  21313049.151   113576231.659        -480.997          33.000  
G 4  21358734.473   113816309.240        -481.077          44.000  
G18  21452224.445   114307605.746        -480.625          31.000  
G 1  21358738.244   113816329.692        -481.091          41.000  
> 2019  6 16  1 15 23.0000000  0  8                     
G 6  21358595.976   113815582.972        -481.006          42.000  
G 5  21358591.775   113815559.050        -480.956          45.000  
G20  21234011.617   113160887.563        -480.880          32.000  
G 3  21358821.501   113816767.796        -481.039          45.000  
G 9  21313140.798   113576712.552        -480.977          33.000  
G 4  21358826.225   113816790.148        -481.108          44.000  
G18  21452316.102   114308086.636        -480.427          31.000  
G 1  21358829.900   113816810.598        -481.089          41.000  
> 2019  6 16  1 15 24.0000000  0  8                     
G 6  21358687.468   113816063.935        -481.094          42.000  
G 5  21358683.538   113816040.006        -481.086          45.000  
G20  21234103.264   113161368.553        -481.526          32.000  
G 3  21358913.121   113817248.754        -481.222          46.000  
G 9  21313232.448   113577193.514        -480.912          33.000  
G 4  21358917.833   113817271.099        -481.125          44.000  
G18  21452407.760   114308567.615        -481.046          31.000  
G 1  21358921.497   113817291.558        -481.193          41.000  
> 2019  6 16  1 15 25.0000000  0  8                     
G 6  21358779.037   113816544.964        -480.956          42.000  
G 5  21358775.130   113816521.035        -480.844          45.000  
G20  21234194.803   113161849.583        -481.381          31.000  
G 3  21359004.766   113817729.786        -480.963          46.000  
G 9  21313324.110   113577674.539        -480.885          33.000  
G 4  21359009.375   113817752.140        -480.984          44.000  
G18  21452499.367   114309048.635        -480.497          31.000  
G 1  21359013.119   113817772.589        -480.989          42.000  
> 2019  6 16  1 15 26.0000000  0  8                     
G 6  21358870.679   113817025.977        -480.925          42.000  
G 5  21358866.678   113817002.035        -480.764          45.000  
G20  21234286.328   113162330.566        -480.812          32.000  
G 3  21359096.459   113818210.793        -480.857          46.000  
G 9  21313415.715   113578155.572        -480.964          33.000  
G 4  21359101.019   113818233.142        -480.867          45.000  
G18  21452590.947   114309529.660        -480.703          32.000  
G 1  21359104.739   113818253.590        -480.913          41.000  
> 2019  6 16  1 15 27.0000000  0  8                     
G 6  21358962.455   113817507.070        -481.046          42.000  
G 5  21358958.305   113817483.140        -481.072          45.000  
G20  21234377.837   113162811.695        -481.569          32.000  
G 3  21359188.076   113818691.889        -481.084          46.000  
G 9  21313507.301   113578636.665        -481.394          33.000  
G 4  21359192.649   113818714.239        -481.075          45.000  
G18  21452682.500   114310010.767        -481.353          32.000  
G 1  21359196.375   113818734.679        -480.999          42.000  
> 2019  6 16  1 15 28.0000000  0  8                     
G 6  21359054.085   113817988.025        -480.939          42.000  
G 5  21359049.853   113817964.093        -480.875          45.000  
G20  21234469.163   113163292.642        -481.315          32.000  
G 3  21359279.721   113819172.844        -480.898          45.000  
G 9  21313598.984   113579117.640        -481.394          32.000  
G 4  21359284.274   113819195.196        -481.007          44.000  
G18  21452774.211   114310491.714        -480.797          32.000  
G 1  21359288.064   113819215.646        -480.973          42.000  
> 2019  6 16  1 15 29.0000000  0  8                     
G 6  21359145.711   113818468.887        -480.879          42.000  
G 5  21359141.467   113818444.956        -480.819          45.000  
G20  21234560.732   113163773.474        -481.038          32.000  
G 3  21359371.255   113819653.707        -480.863          46.000  
G 9  21313690.296   113579598.500        -481.312          33.000  
G 4  21359375.820   113819676.053        -480.834          45.000  
G18  21452865.805   114310972.588        -481.105          31.000  
G 1  21359379.844   113819696.505        -480.881          42.000  
> 2019  6 16  1 15 30.0000000  0  8                     
G 6  21359237.297   113818949.762        -480.721          42.000  
G 5  21359233.099   113818925.827        -480.629          45.000  
G20  21234652.307   113164254.348        -480.562          32.000  
G 3  21359462.839   113820134.582        -480.714          46.000  
G 9  21313781.893   113580079.381        -481.156          33.000  
G 4  21359467.436   113820156.933        -480.740          44.000  
G18  21452957.458   114311453.433        -480.222          32.000  
G 1  21359471.335   113820177.373        -480.526          42.000  
> 2019  6 16  1 15 31.0000000  0  8                     
G 6  21359328.886   113819430.577        -480.922          42.000  
G 5  21359324.799   113819406.650        -480.845          45.000  
G20  21234743.874   113164735.171        -481.048          31.000  
G 3  21359554.340   113820615.400        -480.802          46.000  
G 9  21313873.426   113580560.188        -481.234          33.000  
G 4  21359559.002   113820637.745        -480.625          44.000  
G18  21453049.080   114311934.218        -479.926          32.000  
G 1  21359563.013   113820658.202        -480.836          42.000  
> 2019  6 16  1 15 32.0000000  0  8                     
G 6  21359420.365   113819911.341        -480.417          42.000  
G 5  21359416.394   113819887.425        -480.610          45.000  
G20  21234835.451   113165215.989        -481.139          31.000  
G 3  21359645.907   113821096.170        -480.621          46.000  
G 9  21313964.998   113581040.993        -481.200          32.000  
G 4  21359650.571   113821118.516        -480.522          44.000  
G18  21453140.572   114312415.033        -480.499          32.000  
G 1  21359654.506   113821138.969        -480.493          42.000  
> 2019  6 16  1 15 33.0000000  0  8                     
G 6  21359511.975   113820392.155        -480.399          42.000  
G 5  21359507.932   113820368.241        -480.688          45.000  
G20  21234927.035   113165696.760        -480.919          31.000  
G 3  21359737.444   113821576.988        -480.737          46.000  
G 9  21314056.681   113581521.794        -481.140          33.000  
G 4  21359742.005   113821599.334        -480.677          44.000  
G18  21453232.147   114312895.858        -480.707          32.000  
G 1  21359746.050   113821619.781        -480.649          42.000  
> 2019  6 16  1 15 34.0000000  0  8                     
G 6  21359603.615   113820872.894        -480.537          42.000  
G 5  21359599.429   113820848.974        -480.691          45.000  
G20  21235018.580   113166177.512        -481.237          31.000  
G 3  21359828.996   113822057.727        -480.710          47.000  
G 9  21314148.225   113582002.507        -480.944          33.000  
G 4  21359833.579   113822080.071        -480.616          44.000  
G18  21453323.714   114313376.590        -481.080          32.000  
G 1  21359837.560   113822100.517        -480.525          42.000  
> 2019  6 16  1 15 35.0000000  0  8                     
G 6  21359695.243   113821353.711        -480.663          42.000  
G 5  21359690.895   113821329.790        -480.751          45.000  
G20  21235110.149   113166658.326        -481.202          32.000  
G 3  21359920.480   113822538.541        -480.793          47.000  
G 9  21314239.922   113582483.330        -481.091          33.000  
G 4  21359925.207   113822560.891        -480.741          44.000  
G18  21453415.292   114313857.410        -481.285          31.000  
G 1  21359929.172   113822581.333        -480.668          41.000  
> 2019  6 16  1 15 36.0000000  0  8                     
G 6  21359786.893   113821834.569        -480.820          42.000  
G 5  21359782.556   113821810.644        -480.935          45.000  
G20  21235201.804   113167139.199        -481.312          32.000  
G 3  21360012.131   113823019.397        -480.986          45.000  
G 9  21314331.567   113582964.189        -481.171          32.000  
G 4  21360016.847   113823041.745        -480.900          44.000  
G18  21453506.879   114314338.295        -480.935          32.000  
G 1  21360020.780   113823062.191        -480.874          42.000  
> 2019  6 16  1 15 37.0000000  0  8                     
G 6  21359878.509   113822315.539        -480.934          42.000  
G 5  21359874.292   113822291.621        -481.119          45.000  
G20  21235293.446   113167620.169        -481.720          31.000  
G 3  21360103.784   113823500.367        -481.077          46.000  
G 9  21314423.081   113583445.177        -481.638          33.000  
G 4  21360108.525   113823522.718        -481.080          44.000  
G18  21453598.562   114314819.264        -481.313          32.000  
G 1  21360112.420   113823543.166        -481.013          41.000  
> 2019  6 16  1 15 38.0000000  0  8                     
G 6  21359970.032   113822796.491        -480.681          42.000  
G 5  21359965.997   113822772.568        -480.751          45.000  
G20  21235384.992   113168101.116        -481.045          30.000  
G 3  21360195.433   113823981.305        -480.651          46.000  
G 9  21314514.645   113583926.115        -481.039          33.000  
G 4  21360200.171   113824003.675        -480.758          44.000  
G18  21453690.294   114315300.185        -480.481          31.000  
G 1  21360204.077   113824024.113        -480.658          42.000  
> 2019  6 16  1 15 39.0000000  0  8                     
G 6  21360061.601   113823277.464        -480.806          42.000  
G 5  21360057.713   113823253.542        -480.797          45.000  
G20  21235476.613   113168582.078        -481.080          31.000  
G 3  21360287.097   113824462.282        -480.740          46.000  
G 9  21314606.255   113584407.093        -481.050          32.000  
G 4  21360291.833   113824484.640        -480.884          44.000  
G18  21453781.836   114315781.153        -480.812          31.000  
G 1  21360295.700   113824505.081        -480.797          41.000  
> 2019  6 16  1 15 40.0000000  0  8                     
G 6  21360153.194   113823758.289        -480.665          42.000  
G 5  21360149.389   113823734.368        -480.732          45.000  
G20  21235568.205   113169062.897        -480.815          32.000  
G 3  21360378.713   113824943.103        -480.586          46.000  
G 9  21314697.742   113584887.908        -480.682          32.000  
G 4  21360383.519   113824965.463        -480.732          44.000  
G18  21453873.500   114316262.005        -480.963          32.000  
G 1  21360387.283   113824985.906        -480.634          41.000  
> 2019  6 16  1 15 41.0000000  0  8                     
G 6  21360244.835   113824239.100        -480.878          42.000  
G 5  21360240.955   113824215.171        -480.963          45.000  
G20  21235659.785   113169543.702        -481.170          31.000  
G 3  21360470.257   113825423.916        -480.786          46.000  
G 9  21314789.318   113585368.710        -480.735          33.000  
G 4  21360475.004   113825446.267        -481.029          44.000  
G18  21453965.101   114316742.826        -481.626          32.000  
G 1  21360478.892   113825466.719        -480.978          41.000  
> 2019  6 16  1 15 42.0000000  0  8                     
G 6  21360336.521   113824719.912        -481.047          42.000  
G 5  21360332.378   113824695.979        -481.112          45.000  
G20  21235751.480   113170024.508        -480.924          32.000  
G 3  21360561.861   113825904.727        -480.897          46.000  
G 9  21314880.869   113585849.506        -480.580          33.000  
G 4  21360566.533   113825927.074        -481.088          44.000  
G18  21454056.767   114317223.608        -481.555          32.000  
G 1  21360570.404   113825947.523        -481.110          41.000  
> 2019  6 16  1 15 43.0000000  0  8                     
G 6  21360428.185   113825200.762        -481.039          42.000  
G 5  21360423.933   113825176.827        -480.957          45.000  
G20  21235843.147   113170505.359        -480.740          32.000  
G 3  21360653.359   113826385.562        -480.806          47.000  
G 9  21314972.427   113586330.322        -479.990          33.000  
G 4  21360658.000   113826407.926        -480.878          44.000  
G18  21454148.417   114317704.479        -481.699          32.000  
G 1  21360661.939   113826428.380        -481.085          41.000  
> 2019  6 16  1 15 44.0000000  0  8                     
G 6  21360519.767   113825681.558        -480.997          42.000  
G 5  21360515.531   113825657.628        -480.983          45.000  
G20  21235934.775   113170986.149        -480.864          31.000  
G 3  21360745.049   113826866.370        -480.858          46.000  
G 9  21315064.124   113586811.129        -480.112          32.000  
G 4  21360749.641   113826888.731        -480.990          44.000  
G18  21454239.869   114318185.292        -481.611          32.000  
G 1  21360753.438   113826909.182        -481.031          41.000  
> 2019  6 16  1 15 45.0000000  0  8                     
G 6  21360611.386   113826162.471        -481.052          42.000  
G 5  21360607.107   113826138.534        -480.903          45.000  
G20  21236026.453   113171467.050        -480.703          32.000  
G 3  21360836.698   113827347.276        -480.825          46.000  
G 9  21315155.794   113587292.028        -479.786          33.000  
G 4  21360841.278   113827369.626        -480.842          45.000  
G18  21454331.449   114318666.207        -481.846          32.000  
G 1  21360845.043   113827390.087        -480.968          41.000  
> 2019  6 16  1 15 46.0000000  0  8                     
G 6  21360703.014   113826643.335        -481.069          42.000  
G 5  21360698.679   113826619.400        -480.924          46.000  
G20  21236118.103   113171947.919        -481.268          32.000  
G 3  21360928.237   113827828.137        -480.751          46.000  
G 9  21315247.348   113587772.916        -480.483          33.000  
G 4  21360932.947   113827850.504        -480.958          44.000  
G18  21454423.118   114319147.054        -481.699          32.000  
G 1  21360936.609   113827870.954        -480.996          41.000  
> 2019  6 16  1 15 47.0000000  0  8                     
G 6  21360794.566   113827124.187        -481.058          42.000  
G 5  21360790.257   113827100.253        -480.979          46.000  
G20  21236209.728   113172428.796        -481.159          32.000  
G 3  21361019.778   113828308.988        -480.834          46.000  
G 9  21315338.894   113588253.769        -480.612          33.000  
G 4  21361024.533   113828331.353        -481.023          44.000  
G18  21454514.731   114319627.905        -481.367          32.000  
G 1  21361028.380   113828351.802        -480.989          41.000  
> 2019  6 16  1 15 48.0000000  0  8                     
G 6  21360886.247   113827605.133        -481.208          42.000  
G 5  21360881.789   113827581.193        -481.095          46.000  
G20  21236301.358   113172909.723        -480.918          31.000  
G 3  21361111.382   113828789.936        -480.983          46.000  
G 9  21315430.515   113588734.714        -480.735          33.000  
G 4  21361116.038   113828812.291        -481.119          45.000  
G18  21454606.366   114320108.822        -480.963          31.000  
G 1  21361120.008   113828832.749        -481.212          41.000  
> 2019  6 16  1 15 49.0000000  0  8                     
G 6  21360977.908   113828086.055        -481.100          42.000  
G 5  21360973.194   113828062.121        -481.074          45.000  
G20  21236392.866   113173390.657        -481.057          31.000  
G 3  21361203.026   113829270.864        -480.947          46.000  
G 9  21315522.139   113589215.645        -480.646          33.000  
G 4  21361207.437   113829293.224        -481.089          45.000  
G18  21454698.070   114320589.771        -481.194          32.000  
G 1  21361211.600   113829313.671        -481.150          41.000  
> 2019  6 16  1 15 50.0000000  0  8                     
G 6  21361069.499   113828567.005        -481.116          42.000  
G 5  21361064.809   113828543.076        -481.030          45.000  
G20  21236484.607   113173871.586        -480.811          31.000  
G 3  21361294.752   113829751.819        -480.955          46.000  
G 9  21315613.631   113589696.591        -480.837          33.000  
G 4  21361298.972   113829774.173        -481.099          45.000  
G18  21454789.640   114321070.695        -480.687          32.000  
G 1  21361303.188   113829794.628        -481.205          41.000  
> 2019  6 16  1 15 51.0000000  0  8                     
G 6  21361161.062   113829047.890        -481.099          42.000  
G 5  21361156.552   113829023.947        -480.891          46.000  
G20  21236576.218   113174352.469        -480.566          31.000  
G 3  21361386.419   113830232.694        -480.856          46.000  
G 9  21315705.090   113590177.476        -480.983          32.000  
G 4  21361390.628   113830255.053        -480.923          45.000  
G18  21454881.253   114321551.559        -480.148          31.000  
G 1  21361394.873   113830275.509        -481.068          41.000  
> 2019  6 16  1 15 52.0000000  0  8                     
G 6  21361252.590   113829528.793        -481.047          42.000  
G 5  21361248.200   113829504.858        -480.981          46.000  
G20  21236667.745   113174833.387        -480.770          31.000  
G 3  21361478.016   113830713.608        -480.930          47.000  
G 9  21315796.749   113590658.374        -480.668          33.000  
G 4  21361482.416   113830735.962        -481.000          45.000  
G18  21454972.849   114322032.475        -480.566          32.000  
G 1  21361486.510   113830756.420        -481.151          41.000  
> 2019  6 16  1 15 53.0000000  0  8                     
G 6  21361344.090   113830009.691        -480.729          42.000  
G 5  21361339.797   113829985.754        -480.669          46.000  
G20  21236759.333   113175314.284        -480.519          32.000  
G 3  21361569.694   113831194.507        -480.708          47.000  
G 9  21315888.247   113591139.267        -480.354          33.000  
G 4  21361574.046   113831216.863        -480.719          45.000  
G18  21455064.448   114322513.391        -480.548          33.000  
G 1  21361578.079   113831237.315        -480.841          41.000  
> 2019  6 16  1 15 54.0000000  0  8                     
G 6  21361435.619   113830490.629        -480.983          42.000  
G 5  21361431.445   113830466.701        -481.039          46.000  
G20  21236850.950   113175795.231        -481.028          32.000  
G 3  21361661.277   113831675.445        -481.055          47.000  
G 9  21315979.753   113591620.216        -480.658          32.000  
G 4  21361665.760   113831697.801        -480.959          45.000  
G18  21455156.135   114322994.328        -480.756          32.000  
G 1  21361669.639   113831718.250        -481.104          41.000  
> 2019  6 16  1 15 55.0000000  0  8                     
G 6  21361527.186   113830971.599        -481.165          42.000  
G 5  21361523.100   113830947.665        -481.040          46.000  
G20  21236942.487   113176276.171        -480.667          32.000  
G 3  21361752.945   113832156.412        -481.149          47.000  
G 9  21316071.467   113592101.163        -480.393          32.000  
G 4  21361757.310   113832178.764        -481.086          45.000  
G18  21455247.796   114323475.292        -480.674          31.000  
G 1  21361761.141   113832199.225        -481.299          41.000  
> 2019  6 16  1 15 56.0000000  0  8                     
G 6  21361618.734   113831452.449        -480.677          42.000  
G 5  21361614.599   113831428.515        -480.679          46.000  
G20  21237034.028   113176757.049        -480.595          32.000  
G 3  21361844.483   113832637.273        -480.747          46.000  
G 9  21316162.966   113592582.021        -480.150          32.000  
G 4  21361848.880   113832659.624        -480.695          45.000  
G18  21455339.316   114323956.147        -480.464          31.000  
G 1  21361852.808   113832680.081        -480.839          41.000  
> 2019  6 16  1 15 57.0000000  0  8                     
G 6  21361710.380   113831933.394        -480.945          42.000  
G 5  21361706.228   113831909.465        -480.984          46.000  
G20  21237125.524   113177237.968        -480.526          31.000  
G 3  21361936.109   113833118.214        -481.041          47.000  
G 9  21316254.445   113593062.968        -480.823          33.000  
G 4  21361940.485   113833140.569        -480.996          45.000  
G18  21455430.942   114324437.116        -481.230          31.000  
G 1  21361944.601   113833161.021        -481.066          41.000  
> 2019  6 16  1 15 58.0000000  0  8                     
G 6  21361802.063   113832414.346        -481.139          42.000  
G 5  21361797.939   113832390.416        -481.158          47.000  
G20  21237217.114   113177718.930        -481.070          32.000  
G 3  21362027.702   113833599.167        -481.210          47.000  
G 9  21316346.147   113593543.939        -481.085          33.000  
G 4  21362031.997   113833621.521        -481.152          45.000  
G18  21455522.397   114324918.047        -480.865          32.000  
G 1  21362036.179   113833641.966        -481.108          41.000  
> 2019  6 16  1 15 59.0000000  0  8                     
G 6  21361893.803   113832895.358        -480.999          42.000  
G 5  21361889.537   113832871.426        -480.974          46.000  
G20  21237308.852   113178199.926        -480.698          32.000  
G 3  21362119.327   113834080.174        -481.023          47.000  
G 9  21316437.768   113594024.938        -480.864          33.000  
G 4  21362123.682   113834102.530        -480.989          45.000  
G18  21455614.066   114325399.044        -480.183          32.000  
G 1  21362127.794   113834122.978        -481.008          41.000  
> 2019  6 16  1 16  0.0000000  0  8                     
G 6  21361985.427   113833376.349        -481.035          42.000  
G 5  21361981.151   113833352.415        -480.991          47.000  
G20  21237400.584   113178680.915        -480.622          32.000  
G 3  21362210.937   113834561.166        -481.060          47.000  
G 9  21316529.447   113594505.921        -480.721          33.000  
G 4  21362215.332   113834583.525        -481.022          45.000  
G18  21455705.699   114325880.039        -480.548          32.000  
G 1  21362219.330   113834603.972        -481.096          41.000  
> 2019  6 16  1 16  1.0000000  0  8                     
G 6  21362076.936   113833857.351        -481.097          42.000  
G 5  21362072.756   113833833.425        -481.116          46.000  
G20  21237492.278   113179161.932        -481.001          32.000  
G 3  21362302.589   113835042.180        -481.207          46.000  
G 9  21316621.080   113594986.917        -480.945          33.000  
G 4  21362306.888   113835064.529        -481.110          45.000  
G18  21455797.293   114326361.044        -480.509          31.000  
G 1  21362310.928   113835084.983        -481.135          41.000  
> 2019  6 16  1 16  2.0000000  0  8                     
G 6  21362168.556   113834338.420        -481.105          42.000  
G 5  21362164.484   113834314.495        -481.134          46.000  
G20  21237583.921   113179643.004        -481.056          31.000  
G 3  21362394.229   113835523.244        -481.249          46.000  
G 9  21316712.895   113595467.984        -480.615          33.000  
G 4  21362398.542   113835545.597        -481.101          45.000  
G18  21455888.979   114326842.113        -480.793          32.000  
G 1  21362402.523   113835566.056        -481.317          41.000  
> 2019  6 16  1 16  3.0000000  0  8                     
G 6  21362260.140   113834819.449        -481.135          42.000  
G 5  21362256.083   113834795.524        -481.189          46.000  
G20  21237675.548   113180124.045        -481.170          32.000  
G 3  21362485.855   113836004.280        -481.320          47.000  
G 9  21316804.585   113595949.019        -480.708          33.000  
G 4  21362490.344   113836026.628        -481.313          45.000  
G18  21455980.609   114327323.151        -480.996          32.000  
G 1  21362494.188   113836047.082        -481.288          41.000  
> 2019  6 16  1 16  4.0000000  0  8                     
G 6  21362351.874   113835300.564        -481.179          42.000  
G 5  21362347.643   113835276.624        -481.287          46.000  
G20  21237767.332   113180605.130        -480.757          32.000  
G 3  21362577.551   113836485.370        -481.213          47.000  
G 9  21316896.064   113596430.119        -480.616          33.000  
G 4  21362581.845   113836507.721        -481.204          45.000  
G18  21456072.196   114327804.252        -481.094          31.000  
G 1  21362585.935   113836528.175        -481.151          41.000  
> 2019  6 16  1 16  5.0000000  0  8                     
G 6  21362443.541   113835781.627        -481.294          42.000  
G 5  21362439.205   113835757.688        -481.171          47.000  
G20  21237859.080   113181086.206        -481.063          32.000  
G 3  21362669.210   113836966.439        -481.195          46.000  
G 9  21316987.851   113596911.164        -480.815          33.000  
G 4  21362673.474   113836988.786        -481.187          45.000  
G18  21456163.930   114328285.329        -480.991          31.000  
G 1  21362677.558   113837009.241        -481.206          41.000  
> 2019  6 16  1 16  6.0000000  0  8                     
G 6  21362535.279   113836262.698        -481.078          42.000  
G 5  21362530.897   113836238.750        -481.052          47.000  
G20  21237950.786   113181567.277        -481.034          32.000  
G 3  21362760.814   113837447.499        -481.051          47.000  
G 9  21317079.646   113597392.258        -481.079          33.000  
G 4  21362765.087   113837469.853        -480.999          45.000  
G18  21456255.538   114328766.405        -481.394          31.000  
G 1  21362769.186   113837490.306        -480.996          41.000  
> 2019  6 16  1 16  7.0000000  0  8                     
G 6  21362627.030   113836743.746        -481.178          42.000  
G 5  21362622.545   113836719.811        -481.094          46.000  
G20  21238042.303   113182048.363        -481.502          32.000  
G 3  21362852.422   113837928.556        -481.216          46.000  
G 9  21317171.350   113597873.333        -481.267          33.000  
G 4  21362856.770   113837950.910        -481.083          45.000  
G18  21456347.193   114329247.447        -481.196          31.000  
G 1  21362860.809   113837971.360        -481.125          41.000  
> 2019  6 16  1 16  8.0000000  0  8                     
G 6  21362718.609   113837224.712        -481.188          42.000  
G 5  21362714.238   113837200.772        -481.105          46.000  
G20  21238133.887   113182529.293        -480.798          32.000  
G 3  21362944.097   113838409.523        -481.237          46.000  
G 9  21317262.981   113598354.294        -481.421          33.000  
G 4  21362948.618   113838431.888        -481.218          45.000  
G18  21456438.834   114329728.421        -481.425          31.000  
G 1  21362952.366   113838452.327        -481.080          41.000  
> 2019  6 16  1 16  9.0000000  0  8                     
G 6  21362810.228   113837705.905        -481.252          42.000  
G 5  21362805.933   113837681.972        -481.332          46.000  
G20  21238225.567   113183010.487        -481.042          32.000  
G 3  21363035.782   113838890.719        -481.321          46.000  
G 9  21317354.752   113598835.492        -481.652          33.000  
G 4  21363040.333   113838913.078        -481.375          45.000  
G18  21456530.495   114330209.593        -481.047          31.000  
G 1  21363044.026   113838933.509        -481.012          41.000  
> 2019  6 16  1 16 10.0000000  0  8                     
G 6  21362901.843   113838186.971        -481.006          42.000  
G 5  21362897.512   113838163.033        -480.869          46.000  
G20  21238317.218   113183491.563        -481.205          32.000  
G 3  21363127.452   113839371.784        -480.988          47.000  
G 9  21317446.524   113599316.559        -481.305          33.000  
G 4  21363131.929   113839394.148        -481.029          45.000  
G18  21456622.165   114330690.650        -480.826          31.000  
G 1  21363135.554   113839414.580        -480.806          41.000  
> 2019  6 16  1 16 11.0000000  0  8                     
G 6  21362993.474   113838668.062        -481.245          42.000  
G 5  21362989.142   113838644.125        -481.162          46.000  
G20  21238408.894   113183972.645        -481.053          32.000  
G 3  21363219.048   113839852.873        -481.273          47.000  
G 9  21317538.186   113599797.650        -481.425          33.000  
G 4  21363223.511   113839875.238        -481.213          45.000  
G18  21456713.841   114331171.715        -480.058          31.000  
G 1  21363227.232   113839895.675        -481.079          41.000  
> 2019  6 16  1 16 12.0000000  0  8                     
G 6  21363085.213   113839149.269        -481.119          42.000  
G 5  21363080.657   113839125.343        -481.136          46.000  
G20  21238500.381   113184453.868        -481.321          32.000  
G 3  21363310.804   113840334.092        -481.229          46.000  
G 9  21317630.012   113600278.867        -481.431          33.000  
G 4  21363315.023   113840356.444        -481.171          45.000  
G18  21456805.662   114331652.984        -481.517          31.000  
G 1  21363318.917   113840376.886        -480.970          41.000  
> 2019  6 16  1 16 13.0000000  0  8                     
G 6  21363176.852   113839630.401        -480.914          42.000  
G 5  21363172.248   113839606.475        -481.127          47.000  
G20  21238592.084   113184934.997        -480.984          32.000  
G 3  21363402.382   113840815.227        -481.158          47.000  
G 9  21317721.671   113600760.003        -481.434          33.000  
G 4  21363406.789   113840837.586        -481.091          46.000  
G18  21456897.363   114332134.145        -481.359          31.000  
G 1  21363410.555   113840858.013        -480.870          41.000  
> 2019  6 16  1 16 14.0000000  0  8                     
G 6  21363268.473   113840111.554        -481.012          42.000  
G 5  21363263.906   113840087.622        -481.101          46.000  
G20  21238683.797   113185416.142        -481.062          32.000  
G 3  21363494.053   113841296.378        -481.158          46.000  
G 9  21317813.413   113601241.148        -481.505          33.000  
G 4  21363498.593   113841318.733        -481.146          45.000  
G18  21456989.013   114332615.272        -481.304          31.000  
G 1  21363502.191   113841339.168        -480.961          41.000  
> 2019  6 16  1 16 15.0000000  0  8                     
G 6  21363360.029   113840592.598        -480.764          42.000  
G 5  21363355.583   113840568.667        -480.957          46.000  
G20  21238775.358   113185897.201        -480.999          32.000  
G 3  21363585.745   113841777.421        -480.981          46.000  
G 9  21317905.063   113601722.214        -481.255          33.000  
G 4  21363590.252   113841799.781        -480.970          45.000  
G18  21457080.830   114333096.346        -481.327          32.000  
G 1  21363593.834   113841820.222        -480.988          41.000  
> 2019  6 16  1 16 16.0000000  0  8                     
G 6  21363451.759   113841073.687        -480.903          42.000  
G 5  21363447.295   113841049.758        -481.079          46.000  
G20  21238866.944   113186378.258        -481.022          32.000  
G 3  21363677.400   113842258.509        -481.124          46.000  
G 9  21317996.607   113602203.304        -481.653          33.000  
G 4  21363682.110   113842280.878        -481.265          45.000  
G18  21457172.476   114333577.425        -481.593          32.000  
G 1  21363685.374   113842301.307        -480.983          41.000  
> 2019  6 16  1 16 17.0000000  0  8                     
G 6  21363543.453   113841554.748        -480.613          42.000  
G 5  21363538.987   113841530.827        -480.847          46.000  
G20  21238958.694   113186859.312        -480.355          31.000  
G 3  21363769.036   113842739.570        -480.861          46.000  
G 9  21318088.135   113602684.371        -481.515          33.000  
G 4  21363773.681   113842761.931        -480.935          45.000  
G18  21457264.187   114334058.454        -480.458          32.000  
G 1  21363777.050   113842782.365        -480.712          41.000  
> 2019  6 16  1 16 18.0000000  0  8                     
G 6  21363635.026   113842035.708        -480.743          42.000  
G 5  21363630.596   113842011.783        -480.852          46.000  
G20  21239050.219   113187340.288        -480.838          32.000  
G 3  21363860.598   113843220.532        -480.909          46.000  
G 9  21318179.797   113603165.327        -481.577          32.000  
G 4  21363865.090   113843242.890        -480.914          45.000  
G18  21457355.838   114334539.388        -479.658          31.000  
G 1  21363868.699   113843263.325        -480.806          41.000  
> 2019  6 16  1 16 19.0000000  0  8                     
G 6  21363726.757   113842516.846        -481.156          42.000  
G 5  21363722.267   113842492.922        -481.300          46.000  
G20  21239141.759   113187821.402        -481.011          31.000  
G 3  21363952.181   113843701.664        -481.240          46.000  
G 9  21318271.476   113603646.455        -481.752          33.000  
G 4  21363956.756   113843724.017        -481.240          45.000  
G18  21457447.529   114335020.534        -480.864          31.000  
G 1  21363960.367   113843744.456        -481.090          41.000  
> 2019  6 16  1 16 20.0000000  0  8                     
G 6  21363818.492   113842998.057        -480.961          42.000  
G 5  21363813.836   113842974.130        -481.176          46.000  
G20  21239233.506   113188302.642        -481.227          31.000  
G 3  21364043.791   113844182.880        -481.201          47.000  
G 9  21318363.082   113604127.652        -481.228          33.000  
G 4  21364048.424   113844205.235        -481.195          45.000  
G18  21457539.279   114335501.748        -481.143          32.000  
G 1  21364052.165   113844225.676        -481.108          41.000  
> 2019  6 16  1 16 21.0000000  0  8                     
G 6  21363910.152   113843479.054        -480.699          42.000  
G 5  21363905.421   113843455.128        -480.681          46.000  
G20  21239325.176   113188783.641        -480.725          32.000  
G 3  21364135.483   113844663.876        -480.724          46.000  
G 9  21318454.718   113604608.642        -480.875          32.000  
G 4  21364140.079   113844686.228        -480.743          45.000  
G18  21457630.814   114335982.768        -480.894          32.000  
G 1  21364143.713   113844706.669        -480.750          41.000  
> 2019  6 16  1 16 22.0000000  0  8                     
G 6  21364001.741   113843960.015        -480.868          42.000  
G 5  21363997.091   113843936.091        -481.013          46.000  
G20  21239416.856   113189264.606        -481.268          32.000  
G 3  21364227.071   113845144.829        -480.793          47.000  
G 9  21318546.339   113605089.596        -480.994          33.000  
G 4  21364231.717   113845167.175        -480.825          45.000  
G18  21457722.430   114336463.730        -481.100          32.000  
G 1  21364235.379   113845187.635        -480.944          42.000  
> 2019  6 16  1 16 23.0000000  0  8                     
G 6  21364093.378   113844440.884        -481.118          43.000  
G 5  21364088.835   113844416.952        -481.110          46.000  
G20  21239508.591   113189745.479        -481.418          31.000  
G 3  21364318.809   113845625.698        -481.027          47.000  
G 9  21318638.035   113605570.474        -481.071          33.000  
G 4  21364323.407   113845648.046        -481.075          45.000  
G18  21457814.104   114336944.584        -481.173          32.000  
G 1  21364326.988   113845668.505        -481.073          42.000  
> 2019  6 16  1 16 24.0000000  0  8                     
G 6  21364185.019   113844921.768        -480.896          43.000  
G 5  21364180.345   113844897.838        -480.891          45.000  
G20  21239600.196   113190226.337        -480.754          32.000  
G 3  21364410.513   113846106.593        -480.895          46.000  
G 9  21318729.534   113606051.334        -480.288          32.000  
G 4  21364414.864   113846128.931        -480.913          45.000  
G18  21457905.601   114337425.472        -480.229          32.000  
G 1  21364418.582   113846149.402        -481.038          42.000  
> 2019  6 16  1 16 25.0000000  0  8                     
G 6  21364276.512   113845402.662        -480.836          43.000  
G 5  21364271.812   113845378.729        -480.852          46.000  
G20  21239691.724   113190707.220        -480.858          32.000  
G 3  21364502.117   113846587.482        -480.768          47.000  
G 9  21318821.057   113606532.251        -480.941          33.000  
G 4  21364506.227   113846609.833        -480.858          46.000  
G18  21457996.956   114337906.352        -480.110          32.000  
G 1  21364510.224   113846630.279        -480.895          41.000  
> 2019  6 16  1 16 26.0000000  0  8                     
G 6  21364368.069   113845883.441        -480.791          42.000  
G 5  21364363.477   113845859.507        -480.787          46.000  
G20  21239783.383   113191188.008        -480.864          31.000  
G 3  21364593.622   113847068.253        -480.934          47.000  
G 9  21318912.633   113607013.029        -481.053          33.000  
G 4  21364597.711   113847090.614        -480.918          45.000  
G18  21458088.515   114338387.158        -481.028          31.000  
G 1  21364601.775   113847111.055        -481.007          41.000  
> 2019  6 16  1 16 27.0000000  0  8                     
G 6  21364459.762   113846364.307        -480.925          42.000  
G 5  21364454.973   113846340.370        -480.908          46.000  
G20  21239875.030   113191668.858        -480.763          31.000  
G 3  21364685.191   113847549.115        -480.846          46.000  
G 9  21319004.352   113607493.880        -480.702          33.000  
G 4  21364689.384   113847571.466        -480.878          45.000  
G18  21458180.179   114338867.996        -480.721          31.000  
G 1  21364693.235   113847591.923        -481.108          41.000  
> 2019  6 16  1 16 28.0000000  0  8                     
G 6  21364551.352   113846845.180        -480.970          42.000  
G 5  21364546.646   113846821.251        -480.894          46.000  
G20  21239966.534   113192149.743        -481.096          31.000  
G 3  21364776.817   113848029.997        -480.759          46.000  
G 9  21319096.064   113607974.759        -480.928          33.000  
G 4  21364781.180   113848052.358        -480.824          45.000  
G18  21458271.722   114339348.885        -480.552          32.000  
G 1  21364784.806   113848072.809        -481.102          41.000  
> 2019  6 16  1 16 29.0000000  0  8                     
G 6  21364642.921   113847326.082        -480.858          42.000  
G 5  21364638.170   113847302.150        -480.836          46.000  
G20  21240058.229   113192630.682        -480.980          32.000  
G 3  21364868.509   113848510.896        -480.664          46.000  
G 9  21319187.689   113608455.675        -480.822          32.000  
G 4  21364872.732   113848533.253        -480.676          45.000  
G18  21458363.229   114339829.784        -480.426          32.000  
G 1  21364876.293   113848553.707        -480.942          41.000  
> 2019  6 16  1 16 30.0000000  0  8                     
G 6  21364734.446   113847807.057        -481.033          42.000  
G 5  21364729.752   113847783.119        -480.835          46.000  
G20  21240149.839   113193111.626        -481.016          32.000  
G 3  21364960.105   113848991.872        -480.825          46.000  
G 9  21319279.361   113608936.661        -481.282          32.000  
G 4  21364964.400   113849014.228        -480.782          45.000  
G18  21458454.913   114340310.722        -480.496          32.000  
G 1  21364967.818   113849034.676        -480.983          41.000  
> 2019  6 16  1 16 31.0000000  0  8                     
G 6  21364825.977   113848338.0153       -480.809          42.000  
G 5  21364821.269   113848264.085        -480.618          46.000  
G20  21240241.362   113193592.586        -480.836          32.000  
G 3  21365051.802   113849472.839        -480.671          46.000  
G 9  21319370.895   113609417.601        -480.782          32.000  
G 4  21365056.152   113849495.196        -480.699          45.000  
G18  21458546.650   114340791.713        -480.665          32.000  
G 1  21365059.475   113849515.644        -480.935          41.000  
> 2019  6 16  1 16 32.0000000  0  8                     
G 6  21364917.711   113848819.9683       -481.240          42.000  
G 5  21364912.975   113848745.032        -481.067          46.000  
G20  21240332.796   113194073.550        -481.237          31.000  
G 3  21365143.454   113849953.774        -480.948          46.000  
G 9  21319462.231   113609898.568        -481.222          32.000  
G 4  21365147.794   113849976.134        -480.908          45.000  
G18  21458638.173   114341272.663        -481.016          32.000  
G 1  21365151.245   113849996.596        -481.229          41.000  
> 2019  6 16  1 16 33.0000000  0  8                     
G 6  21365009.301   113849300.8532       -481.206          42.000  
G 5  21365004.689   113849225.904        -480.927          46.000  
G20  21240424.426   113194554.494        -482.213          31.000  
G 3  21365234.949   113850434.644        -480.846          46.000  
G 9  21319553.748   113610379.444        -481.094          33.000  
G 4  21365239.421   113850457.003        -480.823          45.000  
G18  21458729.815   114341753.499        -480.178          31.000  
G 1  21365242.974   113850477.451        -480.958          41.000  
> 2019  6 16  1 16 34.0000000  0  8                     
G 6  21365100.958   113849782.6722       -480.667          42.000  
G 5  21365096.263   113849706.750        -480.752          46.000  
G20  21240516.052   113195035.262        -480.697          32.000  
G 3  21365326.547   113850915.490        -480.675          46.000  
G 9  21319645.229   113610860.249        -480.237          33.000  
G 4  21365330.980   113850937.849        -480.732          45.000  
G18  21458821.303   114342234.390        -481.003          32.000  
G 1  21365334.584   113850958.306        -480.989          41.000  
> 2019  6 16  1 16 35.0000000  0  8                     
G 6  21365192.521   113850264.4093       -480.768          42.000  
G 5  21365187.941   113850187.486        -480.869          46.000  
G20  21240607.411   113195516.000        -480.824          32.000  
G 3  21365418.129   113851396.241        -480.875          46.000  
G 9  21319736.772   113611341.018        -481.002          32.000  
G 4  21365422.712   113851418.595        -480.922          45.000  
G18  21458912.883   114342715.118        -480.894          32.000  
G 1  21365426.182   113851439.043        -481.035          41.000  
> 2019  6 16  1 16 36.0000000  0  8                     
G 6  21365284.092   113850745.1842       -480.436          42.000  
G 5  21365279.455   113850668.265        -480.575          46.000  
G20  21240698.741   113195996.901        -482.718          32.000  
G 3  21365509.740   113851877.010        -480.641          46.000  
G 9  21319828.200   113611821.787        -480.276          32.000  
G 4  21365514.160   113851899.365        -480.591          45.000  
G18  21459004.411   114343195.932        -481.185          32.000  
G 1  21365517.662   113851919.823        -480.894          41.000  
> 2019  6 16  1 16 37.0000000  0  8                     
G 6  21365375.692   113851226.9443       -480.417          42.000  
G 5  21365371.097   113851149.019        -480.572          46.000  
G20  21240790.170   113196525.5653       -480.955          32.000  
G 3  21365601.293   113852357.769        -480.601          46.000  
G 9  21319919.799   113612302.557        -480.940          33.000  
G 4  21365605.710   113852380.122        -480.532          45.000  
G18  21459095.979   114343676.672        -480.918          32.000  
G 1  21365609.205   113852400.568        -480.527          41.000  
> 2019  6 16  1 16 38.0000000  0  8                     
G 6  21365467.224   113851707.6532       -480.428          42.000  
G 5  21365462.669   113851629.729        -480.587          46.000  
G20  21240881.788   113197006.2532       -480.715          32.000  
G 3  21365692.938   113852838.481        -480.643          46.000  
G 9  21320011.313   113612783.249        -480.410          33.000  
G 4  21365697.277   113852860.837        -480.590          45.000  
G18  21459187.453   114344157.387        -481.118          32.000  
G 1  21365700.823   113852881.288        -480.540          41.000  
> 2019  6 16  1 16 39.0000000  0  8                     
G 6  21365558.755   113852188.5142       -480.829          42.000  
G 5  21365554.323   113852110.592        -480.978          46.000  
G20  21240973.375   113197487.1072       -481.043          32.000  
G 3  21365784.581   113853319.340        -480.912          46.000  
G 9  21320102.844   113613264.115        -480.594          33.000  
G 4  21365788.796   113853341.701        -480.970          45.000  
G18  21459279.031   114344638.246        -481.486          32.000  
G 1  21365792.451   113853362.152        -480.963          41.000  
> 2019  6 16  1 16 40.0000000  0  8                     
G 6  21365650.357   113852669.3982       -480.994          42.000  
G 5  21365645.877   113852591.469        -481.018          46.000  
G20  21241064.904   113197967.9882       -480.870          32.000  
G 3  21365876.257   113853800.213        -480.854          46.000  
G 9  21320194.461   113613744.962        -480.997          32.000  
G 4  21365880.329   113853822.575        -480.907          45.000  
G18  21459370.611   114345119.096        -480.743          31.000  
G 1  21365883.992   113853843.015        -480.844          41.000  
> 2019  6 16  1 16 41.0000000  0  8                     
G 6  21365741.980   113853150.3262       -481.020          42.000  
G 5  21365737.419   113853072.398        -480.935          46.000  
G20  21241156.472   113198448.9132       -480.927          32.000  
G 3  21365967.784   113854281.138        -480.873          46.000  
G 9  21320286.131   113614225.880        -480.447          33.000  
G 4  21365971.904   113854303.505        -481.018          45.000  
G18  21459462.159   114345600.051        -481.045          31.000  
G 1  21365975.611   113854323.949        -480.785          41.000  
> 2019  6 16  1 16 42.0000000  0  8                     
G 6  21365833.524   113853631.1822       -480.931          42.000  
G 5  21365828.977   113853553.255        -480.902          46.000  
G20  21241247.915   113198929.7672       -481.035          32.000  
G 3  21366059.364   113854761.999        -480.872          46.000  
G 9  21320377.931   113614706.750        -480.404          32.000  
G 4  21366063.583   113854784.360        -480.862          45.000  
G18  21459553.786   114346080.894        -480.850          31.000  
G 1  21366067.254   113854804.805        -480.812          41.000  
> 2019  6 16  1 16 43.0000000  0  8                     
G 6  21365925.108   113854111.915        -480.751          42.000  
G 5  21365920.599   113854033.987        -480.677          46.000  
G20  21241339.469   113199410.517        -480.917          32.000  
G 3  21366150.975   113855242.737        -480.804          46.000  
G 9  21320469.501   113615187.486        -480.637          33.000  
G 4  21366155.211   113855265.095        -480.813          45.000  
G18  21459645.354   114346561.629        -480.802          32.000  
G 1  21366158.971   113855285.537        -480.715          41.000  
> 2019  6 16  1 16 44.0000000  0  8                     
G 6  21366016.669   113854592.559        -480.575          42.000  
G 5  21366012.159   113854514.635        -480.607          46.000  
G20  21241431.079   113199891.168        -480.685          31.000  
G 3  21366242.561   113855723.383        -480.663          46.000  
G 9  21320560.997   113615668.152        -480.784          32.000  
G 4  21366246.693   113855745.744        -480.679          45.000  
G18  21459737.024   114347042.273        -480.449          32.000  
G 1  21366250.478   113855766.184        -480.527          41.000  
> 2019  6 16  1 16 45.0000000  0  8                     
G 6  21366108.127   113855073.152        -480.852          42.000  
G 5  21366103.729   113854995.222        -480.718          46.000  
G20  21241522.708   113200371.678        -479.292          31.000  
G 3  21366334.100   113856203.968        -480.687          46.000  
G 9  21320652.558   113616148.699        -479.890          33.000  
G 4  21366338.171   113856226.322        -480.585          45.000  
G18  21459828.534   114347522.909        -481.625          31.000  
G 1  21366341.956   113856246.759        -480.378          41.000  
> 2019  6 16  1 16 46.0000000  0  8                     
G 6  21366199.694   113855553.678        -480.889          42.000  
G 5  21366195.313   113855475.749        -480.754          46.000  
G20  21241614.349   113200852.251        -480.589          30.000  
G 3  21366425.592   113856684.500        -480.966          46.000  
G 9  21320744.164   113616629.282        -481.163          32.000  
G 4  21366429.672   113856706.854        -480.819          45.000  
G18  21459919.992   114348003.348        -480.616          32.000  
G 1  21366433.432   113856784.8013       -480.663          41.000  
> 2019  6 16  1 16 47.0000000  0  8                     
G 6  21366291.182   113856034.337        -480.636          42.000  
G 5  21366286.837   113855956.403        -480.511          46.000  
G20  21241705.994   113201332.940        -480.865          31.000  
G 3  21366517.030   113857165.157        -480.612          47.000  
G 9  21320835.806   113617109.939        -480.685          32.000  
G 4  21366521.193   113857187.510        -480.508          45.000  
G18  21460011.627   114348484.028        -480.453          32.000  
G 1  21366525.038   113857266.4463       -480.248          41.000  
> 2019  6 16  1 16 48.0000000  0  8                     
G 6  21366382.720   113856514.941        -480.781          42.000  
G 5  21366378.375   113856437.013        -480.753          46.000  
G20  21241797.509   113201813.535        -480.882          31.000  
G 3  21366608.571   113857645.771        -480.907          46.000  
G 9  21320927.248   113617590.538        -481.001          32.000  
G 4  21366612.701   113857668.117        -480.692          45.000  
G18  21460103.243   114348964.610        -479.736          32.000  
G 1  21366616.607   113857747.0562       -480.509          41.000  
> 2019  6 16  1 16 49.0000000  0  8                     
G 6  21366474.382   113856995.658        -481.033          42.000  
G 5  21366469.755   113856917.713        -480.686          46.000  
G20  21241889.209   113202294.234        -480.911          32.000  
G 3  21366700.173   113858126.470        -480.870          46.000  
G 9  21321018.752   113618071.285        -481.631          32.000  
G 4  21366704.320   113858148.823        -480.723          45.000  
G18  21460194.798   114349445.319        -479.907          31.000  
G 1  21366708.237   113858227.2641       -480.568          41.000  
> 2019  6 16  1 16 50.0000000  0  8                     
G 6  21366565.930   113857476.396        -480.958          42.000  
G 5  21366561.345   113857398.453        -480.752          46.000  
G20  21241980.766   113202774.995        -481.242          31.000  
G 3  21366791.756   113858607.222        -480.919          46.000  
G 9  21321110.253   113618552.030        -481.412          33.000  
G 4  21366795.852   113858629.570        -480.753          45.000  
G18  21460286.484   114349926.101        -480.758          32.000  
G 1  21366799.870   113858708.019        -480.833          41.000  
> 2019  6 16  1 16 51.0000000  0  8                     
G 6  21366657.422   113857956.960        -480.652          42.000  
G 5  21366652.835   113857879.026        -480.551          46.000  
G20  21242072.225   113203255.555        -480.755          31.000  
G 3  21366883.319   113859087.776        -480.564          46.000  
G 9  21321201.827   113619032.565        -480.836          33.000  
G 4  21366887.585   113859110.132        -480.459          45.000  
G18  21460378.006   114350406.621        -479.851          32.000  
G 1  21366891.375   113859188.579        -480.565          41.000  
> 2019  6 16  1 16 52.0000000  0  8                     
G 6  21366748.963   113858437.567        -480.597          42.000  
G 5  21366744.434   113858359.639        -480.593          45.000  
G20  21242163.834   113203736.152        -480.709          31.000  
G 3  21366974.813   113859568.398        -480.729          46.000  
G 9  21321293.310   113619513.171        -480.927          33.000  
G 4  21366979.049   113859590.747        -480.610          45.000  
G18  21460469.639   114350887.249        -480.300          31.000  
G 1  21366982.815   113859669.190        -480.453          41.000  
> 2019  6 16  1 16 53.0000000  0  8                     
G 6  21366840.502   113858918.170        -480.625          42.000  
G 5  21366835.974   113858840.228        -480.479          46.000  
G20  21242255.445   113204216.805        -481.230          31.000  
G 3  21367066.336   113860048.983        -480.561          47.000  
G 9  21321384.667   113619993.791        -481.143          33.000  
G 4  21367070.701   113860071.334        -480.461          45.000  
G18  21460561.228   114351367.857        -480.277          32.000  
G 1  21367074.342   113860149.786        -480.579          41.000  
> 2019  6 16  1 16 54.0000000  0  8                     
G 6  21366932.055   113859398.821        -480.912          42.000  
G 5  21366927.558   113859320.882        -480.854          45.000  
G20  21242346.880   113204697.408        -480.932          32.000  
G 3  21367157.922   113860529.632        -480.850          46.000  
G 9  21321476.310   113620474.427        -481.270          33.000  
G 4  21367162.185   113860551.982        -480.751          45.000  
G18  21460652.913   114351848.527        -481.045          32.000  
G 1  21367165.923   113860630.433        -480.844          41.000  
> 2019  6 16  1 16 55.0000000  0  8                     
G 6  21367023.545   113859879.498        -480.569          42.000  
G 5  21367019.106   113859801.565        -480.525          45.000  
G20  21242438.371   113205178.108        -480.625          32.000  
G 3  21367249.343   113861010.314        -480.620          46.000  
G 9  21321567.899   113620955.127        -480.919          33.000  
G 4  21367253.603   113861032.668        -480.454          45.000  
G18  21460744.389   114352329.181        -480.510          32.000  
G 1  21367257.421   113861111.111        -480.479          41.000  
> 2019  6 16  1 16 56.0000000  0  8                     
G 6  21367115.191   113860360.203        -480.692          42.000  
G 5  21367110.630   113860282.269        -480.665          45.000  
G20  21242529.935   113205658.792        -480.847          32.000  
G 3  21367340.931   113861491.025        -480.702          46.000  
G 9  21321659.528   113621435.814        -480.996          33.000  
G 4  21367345.215   113861513.373        -480.594          45.000  
G18  21460835.925   114352809.889        -480.414          32.000  
G 1  21367349.048   113861591.820        -480.586          41.000  
> 2019  6 16  1 16 57.0000000  0  8                     
G 6  21367206.783   113860841.027        -480.693          42.000  
G 5  21367202.245   113860763.090        -480.724          45.000  
G20  21242621.443   113206139.621        -480.846          32.000  
G 3  21367432.534   113861971.842        -480.750          46.000  
G 9  21321751.144   113621916.621        -480.854          33.000  
G 4  21367437.002   113861994.197        -480.659          45.000  
G18  21460927.511   114353290.690        -480.394          32.000  
G 1  21367440.638   113862072.646        -480.747          41.000  
> 2019  6 16  1 16 58.0000000  0  8                     
G 6  21367298.488   113861321.729        -480.909          42.000  
G 5  21367293.960   113861243.792        -480.874          46.000  
G20  21242713.138   113206620.315        -480.969          31.000  
G 3  21367524.101   113862452.540        -480.859          46.000  
G 9  21321842.590   113622397.336        -481.265          33.000  
G 4  21367528.532   113862474.900        -480.817          45.000  
G18  21461019.044   114353771.404        -481.294          32.000  
G 1  21367532.185   113862553.348        -480.963          41.000  
> 2019  6 16  1 16 59.0000000  0  8                     
G 6  21367390.108   113861802.509        -480.804          42.000  
G 5  21367385.575   113861724.575        -480.834          45.000  
G20  21242804.794   113207101.117        -480.903          31.000  
G 3  21367615.613   113862933.322        -480.898          46.000  
G 9  21321934.244   113622878.113        -480.997          33.000  
G 4  21367620.201   113862955.676        -480.757          45.000  
G18  21461110.605   114354252.186        -480.782          32.000  
G 1  21367623.721   113863034.126        -480.819          41.000  
> 2019  6 16  1 17  0.0000000  0  8                     
G 6  21367481.684   113862283.302        -480.930          42.000  
G 5  21367477.271   113862205.372        -481.036          45.000  
G20  21242896.422   113207581.901        -481.465          31.000  
G 3  21367707.185   113863414.121        -480.901          45.000  
G 9  21322025.989   113623358.904        -481.151          33.000  
G 4  21367711.784   113863436.465        -480.946          44.000  
G18  21461202.274   114354732.991        -481.128          32.000  
G 1  21367715.357   113863514.919        -480.953          41.000  
> 2019  6 16  1 17  1.0000000  0  8                     
G 6  21367573.376   113862775.1703       -480.939          42.000  
G 5  21367568.869   113862686.229        -481.042          45.000  
G20  21242988.143   113208062.768        -480.971          31.000  
G 3  21367798.793   113863894.987        -480.985          45.000  
G 9  21322117.668   113623839.748        -480.741          33.000  
G 4  21367803.315   113863917.332        -480.957          44.000  
G18  21461293.695   114355213.887        -481.610          32.000  
G 1  21367806.837   113863995.769        -480.903          41.000  
> 2019  6 16  1 17  2.0000000  0  8                     
G 6  21367664.936   113863257.0863       -481.066          43.000  
G 5  21367660.431   113863167.141        -481.069          46.000  
G20  21243079.731   113208543.654        -480.558          31.000  
G 3  21367890.412   113864375.899        -480.980          45.000  
G 9  21322209.239   113624320.667        -480.903          33.000  
G 4  21367894.815   113864398.238        -481.045          45.000  
G18  21461385.259   114355694.810        -481.636          31.000  
G 1  21367898.505   113864476.695        -481.066          41.000  
> 2019  6 16  1 17  3.0000000  0  8                     
G 6  21367756.589   113863738.0202       -480.847          43.000  
G 5  21367751.892   113863648.079        -480.873          46.000  
G20  21243171.334   113209024.607        -480.334          31.000  
G 3  21367982.064   113864856.831        -480.808          46.000  
G 9  21322300.832   113624801.619        -480.481          33.000  
G 4  21367986.404   113864879.169        -480.822          45.000  
G18  21461476.772   114356175.745        -481.560          31.000  
G 1  21367990.207   113864957.625        -480.845          41.000  
> 2019  6 16  1 17  4.0000000  0  8                     
G 6  21367848.193   113864219.8313       -480.771          43.000  
G 5  21367843.425   113864128.884        -480.791          46.000  
G20  21243262.670   113209505.423        -480.905          32.000  
G 3  21368073.708   113865337.642        -480.795          45.000  
G 9  21322391.932   113625282.437        -481.007          33.000  
G 4  21368077.904   113865359.982        -480.807          45.000  
G18  21461568.389   114356656.522        -481.299          31.000  
G 1  21368081.817   113865438.437        -480.708          41.000  
> 2019  6 16  1 17  5.0000000  0  8                     
G 6  21367939.821   113864700.6963       -480.957          43.000  
G 5  21367935.025   113864609.757        -481.050          46.000  
G20  21243354.283   113209986.280        -480.717          32.000  
G 3  21368165.400   113865818.508        -481.075          46.000  
G 9  21322483.712   113625763.277        -481.097          33.000  
G 4  21368169.468   113865840.851        -480.946          45.000  
G18  21461660.040   114357137.418        -481.671          31.000  
G 1  21368173.405   113865919.311        -481.049          41.000  
> 2019  6 16  1 17  6.0000000  0  8                     
G 6  21368031.469   113865181.7372       -481.306          43.000  
G 5  21368026.679   113865090.794        -481.333          45.000  
G20  21243445.917   113210467.304        -481.078          32.000  
G 3  21368257.040   113866299.547        -481.246          45.000  
G 9  21322575.475   113626244.323        -481.094          33.000  
G 4  21368261.080   113866321.884        -481.180          44.000  
G18  21461751.617   114357618.469        -482.063          31.000  
G 1  21368264.826   113866400.344        -481.281          41.000  
> 2019  6 16  1 17  7.0000000  0  8                     
G 6  21368123.207   113865664.7163       -480.959          43.000  
G 5  21368118.311   113865571.774        -481.165          45.000  
G20  21243537.451   113210962.2893       -481.032          32.000  
G 3  21368348.719   113866780.521        -480.938          46.000  
G 9  21322667.127   113626725.319        -481.060          33.000  
G 4  21368352.649   113866802.876        -481.057          44.000  
G18  21461843.245   114358099.417        -481.112          32.000  
G 1  21368356.401   113866881.325        -481.020          41.000  
> 2019  6 16  1 17  8.0000000  0  8                     
G 6  21368214.858   113866145.6792       -480.979          43.000  
G 5  21368209.839   113866052.734        -481.027          45.000  
G20  21243629.237   113211443.2532       -480.859          32.000  
G 3  21368440.214   113867261.479        -480.880          46.000  
G 9  21322758.874   113627206.288        -481.040          33.000  
G 4  21368444.247   113867283.835        -481.003          44.000  
G18  21461934.851   114358580.363        -481.124          32.000  
G 1  21368448.047   113867362.276        -480.936          41.000  
> 2019  6 16  1 17  9.0000000  0  8                     
G 6  21368306.539   113866626.5202       -480.719          43.000  
G 5  21368301.487   113866533.567        -480.713          45.000  
G20  21243720.942   113211924.0962       -480.606          32.000  
G 3  21368531.833   113867742.314        -480.514          46.000  
G 9  21322850.580   113627687.099        -480.604          33.000  
G 4  21368535.798   113867764.669        -480.688          44.000  
G18  21462026.319   114359061.203        -480.842          31.000  
G 1  21368539.649   113867843.116        -480.835          41.000  
> 2019  6 16  1 17 10.0000000  0  8                     
G 6  21368398.157   113867107.3922       -480.967          43.000  
G 5  21368393.045   113867014.441        -480.889          45.000  
G20  21243812.570   113212404.9802       -480.870          32.000  
G 3  21368623.395   113868223.191        -480.735          46.000  
G 9  21322942.309   113628167.980        -480.935          32.000  
G 4  21368627.336   113868245.540        -480.894          44.000  
G18  21462117.877   114359542.063        -480.898          31.000  
G 1  21368631.221   113868323.990        -480.774          41.000  
> 2019  6 16  1 17 11.0000000  0  8                     
G 6  21368489.727   113867588.2532       -480.908          43.000  
G 5  21368484.534   113867495.302        -480.857          46.000  
G20  21243904.263   113212885.8312       -480.602          31.000  
G 3  21368714.928   113868704.055        -480.752          46.000  
G 9  21323034.162   113628648.831        -480.802          33.000  
G 4  21368718.847   113868726.402        -480.895          44.000  
G18  21462213.079                        -481.023          30.000  
G 1  21368722.864   113868804.865        -480.831          41.000  
> 2019  6 16  1 17 12.0000000  0  8                     
G 6  21368581.360   113868069.0902       -480.873          43.000  
G 5  21368576.208   113867976.137        -480.693          45.000  
G20  21243995.986   113213366.6612       -480.506          32.000  
G 3  21368806.586   113869184.886        -480.649          46.000  
G 9  21323125.967   113629129.679        -480.933          33.000  
G 4  21368810.493   113869207.244        -480.883          44.000  
G18  21462304.237   114360589.2833       -480.809          31.000  
G 1  21368814.545   113869285.690        -480.786          41.000  
> 2019  6 16  1 17 13.0000000  0  8                     
G 6  21368673.008   113868549.975        -481.058          43.000  
G 5  21368667.907   113868457.025        -480.970          45.000  
G20  21244087.645   113213847.520        -480.330          31.000  
G 3  21368898.202   113869665.774        -480.876          46.000  
G 9  21323217.735   113629610.547        -480.756          33.000  
G 4  21368902.199   113869688.132        -481.127          44.000  
G18  21462394.797   114361069.6911       -481.783          30.000  
G 1  21368906.153   113869766.580        -481.063          41.000  
> 2019  6 16  1 17 14.0000000  0  8                     
G 6  21368764.635   113869030.802        -480.851          43.000  
G 5  21368759.545   113868937.857        -480.887          45.000  
G20  21244179.306   113214328.372        -480.978          32.000  
G 3  21368989.874   113870146.610        -480.912          46.000  
G 9  21323309.417   113630091.380        -480.787          33.000  
G 4  21368993.706   113870168.962        -481.002          44.000  
G18  21462484.859   114361538.9883       -481.086          30.000  
G 1  21368997.628   113870247.409        -481.052          41.000  
> 2019  6 16  1 17 15.0000000  0  8                     
G 6  21368856.275   113869511.594        -480.693          43.000  
G 5  21368851.119   113869418.645        -480.846          45.000  
G20  21244271.044   113214809.145        -480.678          32.000  
G 3  21369081.408   113870627.399        -480.742          46.000  
G 9  21323401.137   113630572.173        -480.071          33.000  
G 4  21369085.263   113870649.754        -480.908          44.000  
G18  21462576.145   114362019.7732       -481.128          30.000  
G 1  21369089.192   113870728.207        -480.923          41.000  
> 2019  6 16  1 17 16.0000000  0  8                     
G 6  21368947.880   113869992.563        -481.097          43.000  
G 5  21368942.832   113869899.607        -481.090          45.000  
G20  21244362.567   113215290.128        -480.708          34.000  
G 3  21369173.008   113871108.366        -481.101          46.000  
G 9  21323492.825   113631053.148        -480.774          33.000  
G 4  21369176.898   113871130.722        -481.199          45.000  
G18  21462667.017   114362500.7162       -480.613          31.000  
G 1  21369180.762   113871209.174        -481.356          41.000  
> 2019  6 16  1 17 17.0000000  0  8                     
G 6  21369039.489   113870473.464        -480.797          43.000  
G 5  21369034.388   113870380.518        -480.908          45.000  
G20  21244454.291   113215771.040        -480.791          32.000  
G 3  21369264.590   113871589.272        -480.955          46.000  
G 9  21323584.583   113631534.042        -480.647          33.000  
G 4  21369268.401   113871611.619        -480.948          44.000  
G18  21462758.750   114362981.6492       -481.180          31.000  
G 1  21369272.481   113871690.083        -481.035          41.000  
> 2019  6 16  1 17 18.0000000  0  8                     
G 6  21369131.178   113870954.423        -480.894          43.000  
G 5  21369125.940   113870861.478        -480.986          45.000  
G20  21244545.980   113216251.997        -480.709          32.000  
G 3  21369356.086   113872070.235        -481.095          46.000  
G 9  21323676.336   113632015.008        -480.729          32.000  
G 4  21369359.987   113872092.583        -481.112          45.000  
G18  21462851.137   114363462.6122       -481.174          31.000  
G 1  21369364.155   113872171.032        -481.223          41.000  
> 2019  6 16  1 17 19.0000000  0  8                     
G 6  21369222.721   113871435.315        -480.828          42.000  
G 5  21369217.511   113871342.367        -480.868          44.000  
G20  21244637.589   113216732.893        -481.031          32.000  
G 3  21369447.733   113872551.138        -481.018          45.000  
G 9  21323767.857   113632495.900        -480.536          33.000  
G 4  21369451.677   113872573.475        -481.018          44.000  
G18  21462942.605   114363943.0101       -480.868          31.000  
G 1  21369455.775   113872651.934        -481.047          41.000  
> 2019  6 16  1 17 20.0000000  0  8                     
G 6  21369314.272   113871916.106        -480.741          42.000  
G 5  21369309.115   113871823.163        -480.718          45.000  
G20  21244729.131   113217213.669        -480.406          32.000  
G 3  21369539.311   113873031.919        -480.848          46.000  
G 9  21323859.354   113632976.654        -479.785          32.000  
G 4  21369543.218   113873054.257        -480.786          44.000  
G18  21463034.115   114364423.768        -480.310          31.000  
G 1  21369547.241   113873132.716        -480.912          41.000  
> 2019  6 16  1 17 21.0000000  0  8                     
G 6  21369405.896   113872396.910        -480.786          43.000  
G 5  21369400.784   113872303.968        -480.808          45.000  
G20  21244820.826   113217694.479        -480.183          31.000  
G 3  21369630.981   113873512.723        -480.952          46.000  
G 9  21323950.912   113633457.484        -480.116          32.000  
G 4  21369634.865   113873535.071        -480.848          44.000  
G18  21463125.689   114364904.586        -480.803          31.000  
G 1  21369638.722   113873613.522        -480.844          41.000  
> 2019  6 16  1 17 22.0000000  0  8                     
G 6  21369497.435   113872877.728        -480.789          43.000  
G 5  21369492.360   113872784.784        -480.822          45.000  
G20  21244912.482   113218175.333        -480.757          31.000  
G 3  21369722.613   113873993.546        -480.897          46.000  
G 9  21324042.446   113633938.297        -479.996          33.000  
G 4  21369726.492   113874015.888        -480.752          44.000  
G18  21463217.190   114365385.375        -480.415          30.000  
G 1  21369730.232   113874094.340        -480.828          41.000  
> 2019  6 16  1 17 23.0000000  0  8                     
G 6  21369588.880   113873358.551        -480.845          43.000  
G 5  21369583.929   113873265.603        -480.837          45.000  
G20  21245004.142   113218656.121        -480.665          31.000  
G 3  21369814.171   113874474.369        -480.928          46.000  
G 9  21324134.032   113634419.106        -480.417          33.000  
G 4  21369818.069   113874496.708        -480.721          44.000  
G18  21463308.606   114365866.235        -480.834          31.000  
G 1  21369821.818   113874575.156        -480.861          41.000  
> 2019  6 16  1 17 24.0000000  0  8                     
G 6  21369680.401   113873839.412        -480.916          42.000  
G 5  21369675.551   113873746.477        -480.994          45.000  
G20  21245095.803   113219136.966        -480.682          31.000  
G 3  21369905.701   113874955.234        -481.115          45.000  
G 9  21324225.696   113634899.951        -480.002          32.000  
G 4  21369909.667   113874977.576        -480.890          45.000  
G18  21463400.221   114366348.6073       -480.856          31.000  
G 1  21369913.378   113875056.025        -481.038          41.000  
> 2019  6 16  1 17 25.0000000  0  8                     
G 6  21369771.996   113874320.329        -481.011          42.000  
G 5  21369767.098   113874227.397        -481.063          45.000  
G20  21245187.353   113219617.880        -480.845          32.000  
G 3  21369997.210   113875436.148        -481.128          45.000  
G 9  21324317.323   113635380.876        -480.371          33.000  
G 4  21370001.353   113875458.494        -480.989          44.000  
G18  21463491.824   114366829.0261       -481.060          32.000  
G 1  21370005.038   113875536.943        -481.224          41.000  
> 2019  6 16  1 17 26.0000000  0  8                     
G 6  21369863.603   113874801.177        -480.815          42.000  
G 5  21369858.741   113874708.255        -480.913          45.000  
G20  21245279.028   113220098.781        -481.155          31.000  
G 3  21370088.768   113875917.004        -481.020          45.000  
G 9  21324409.077   113635861.750        -480.452          32.000  
G 4  21370093.047   113875939.345        -480.747          44.000  
G18  21463583.438   114367309.849        -480.151          31.000  
G 1  21370096.681   113876017.793        -480.928          41.000  
> 2019  6 16  1 17 27.0000000  0  8                     
G 6  21369955.121   113875281.923        -480.862          42.000  
G 5  21369950.382   113875188.985        -480.815          45.000  
G20  21245370.654   113220579.489        -480.765          31.000  
G 3  21370180.391   113876397.736        -480.886          46.000  
G 9  21324500.640   113636342.486        -480.625          32.000  
G 4  21370184.693   113876420.092        -480.784          45.000  
G18  21463674.908   114367790.607        -480.452          32.000  
G 1  21370188.239   113876498.529        -480.747          41.000  
> 2019  6 16  1 17 28.0000000  0  8                     
G 6  21370046.674   113875762.723        -480.889          42.000  
G 5  21370042.019   113875669.781        -480.797          45.000  
G20  21245462.241   113221060.300        -480.904          31.000  
G 3  21370271.935   113876878.537        -480.865          46.000  
G 9  21324592.247   113636823.295        -480.729          33.000  
G 4  21370276.411   113876900.894        -480.875          45.000  
G18  21463766.552   114368271.420        -481.110          32.000  
G 1  21370279.686   113876979.323        -480.664          41.000  
> 2019  6 16  1 17 29.0000000  0  8                     
G 6  21370138.237   113876243.417        -480.883          42.000  
G 5  21370133.609   113876150.481        -480.808          45.000  
G20  21245553.917   113221540.993        -480.751          31.000  
G 3  21370363.515   113877359.229        -480.847          46.000  
G 9  21324683.726   113637303.979        -480.520          33.000  
G 4  21370367.995   113877381.582        -480.846          45.000  
G18  21463858.073   114368752.140        -481.453          31.000  
G 1  21370371.263   113877460.016        -480.513          41.000  
> 2019  6 16  1 17 30.0000000  0  8                     
G 6  21370229.733   113876724.090        -480.792          42.000  
G 5  21370225.196   113876631.156        -480.746          45.000  
G20  21245645.385   113222021.679        -481.023          31.000  
G 3  21370455.043   113877839.898        -480.648          46.000  
G 9  21324775.251   113637784.651        -480.726          32.000  
G 4  21370459.500   113877862.247        -480.679          44.000  
G18  21463949.659   114369232.810        -481.201          31.000  
G 1  21370462.811   113877940.693        -480.582          41.000  
> 2019  6 16  1 17 31.0000000  0  8                     
G 6  21370321.247   113877204.669        -480.714          42.000  
G 5  21370316.759   113877111.735        -480.603          45.000  
G20  21245736.905   113222502.240        -480.660          31.000  
G 3  21370546.639   113878320.482        -480.624          45.000  
G 9  21324866.712   113638265.241        -480.638          32.000  
G 4  21370550.895   113878342.830        -480.637          44.000  
G18  21464041.221   114369713.350        -480.731          31.000  
G 1  21370554.431   113878421.268        -480.505          41.000  
> 2019  6 16  1 17 32.0000000  0  8                     
G 6  21370412.925   113877685.453        -481.007          42.000  
G 5  21370408.352   113877592.520        -480.972          45.000  
G20  21245828.615   113222983.034        -481.155          31.000  
G 3  21370638.169   113878801.272        -480.918          46.000  
G 9  21324958.173   113638746.013        -480.668          33.000  
G 4  21370642.387   113878823.619        -480.952          44.000  
G18  21464132.874   114370194.159        -481.481          32.000  
G 1  21370646.029   113878902.051        -480.808          41.000  
> 2019  6 16  1 17 33.0000000  0  8                     
G 6  21370504.436   113878166.163        -480.786          42.000  
G 5  21370499.943   113878073.229        -480.732          45.000  
G20  21245920.247   113223463.727        -480.882          32.000  
G 3  21370729.732   113879281.979        -480.684          45.000  
G 9  21325049.731   113639226.732        -480.422          33.000  
G 4  21370733.983   113879304.320        -480.597          44.000  
G18  21464224.485   114370674.859        -481.208          31.000  
G 1  21370737.611   113879382.767        -480.692          41.000  
> 2019  6 16  1 17 34.0000000  0  8                     
G 6  21370596.056   113878646.951        -481.096          42.000  
G 5  21370591.519   113878554.011        -480.873          45.000  
G20  21246011.912   113223944.523        -480.976          31.000  
G 3  21370821.319   113879762.763        -480.897          46.000  
G 9  21325141.369   113639707.514        -480.814          32.000  
G 4  21370825.688   113879785.115        -480.978          44.000  
G18  21464316.098   114371155.649        -481.123          31.000  
G 1  21370829.176   113879863.540        -480.735          41.000  
> 2019  6 16  1 17 35.0000000  0  8                     
G 6  21370687.595   113879127.752        -480.649          42.000  
G 5  21370683.152   113879034.826        -480.740          45.000  
G20  21246103.381   113224425.322        -480.755          31.000  
G 3  21370912.908   113880243.570        -480.741          46.000  
G 9  21325232.996   113640188.335        -480.912          33.000  
G 4  21370917.297   113880265.919        -480.796          45.000  
G18  21464407.653   114371636.476        -481.058          31.000  
G 1  21370920.634   113880344.353        -480.530          41.000  
> 2019  6 16  1 17 36.0000000  0  8                     
G 6  21370779.094   113879608.498        -480.516          42.000  
G 5  21370774.775   113879515.561        -480.566          45.000  
G20  21246195.102   113224906.081        -480.768          31.000  
G 3  21371004.515   113880724.316        -480.642          46.000  
G 9  21325324.630   113640669.075        -480.634          33.000  
G 4  21371008.868   113880746.654        -480.490          44.000  
G18  21464499.255   114372117.202        -480.458          31.000  
G 1  21371012.144   113880825.088        -480.341          41.000  
> 2019  6 16  1 17 37.0000000  0  8                     
G 6  21370870.656   113880089.205        -480.681          42.000  
G 5  21370866.281   113879996.264        -480.630          45.000  
G20  21246286.641   113225386.786        -480.634          32.000  
G 3  21371096.106   113881205.025        -480.641          45.000  
G 9  21325416.089   113641149.779        -480.861          33.000  
G 4  21371100.516   113881227.360        -480.687          44.000  
G18  21464594.053   114372622.3753       -480.643          30.000  
G 1  21371103.634   113881305.800        -480.511          41.000  
> 2019  6 16  1 17 38.0000000  0  8                     
G 6  21370962.239   113880569.718        -480.675          42.000  
G 5  21370957.985   113880476.765        -480.548          45.000  
G20  21246378.030   113225867.290        -480.859          31.000  
G 3  21371187.583   113881685.527        -480.577          45.000  
G 9  21325507.668   113641630.297        -480.922          33.000  
G 4  21371191.876   113881707.864        -480.568          44.000  
G18  21464689.058   114373102.9302       -480.862          31.000  
G 1  21371195.191   113881786.309        -480.629          41.000  
> 2019  6 16  1 17 39.0000000  0  8                     
G 6  21371053.749   113881050.182        -480.479          42.000  
G 5  21371049.472   113880957.239        -480.405          45.000  
G20  21246469.545   113226347.743        -480.635          31.000  
G 3  21371279.113   113882165.990        -480.352          46.000  
G 9  21325599.030   113642110.761        -480.907          32.000  
G 4  21371283.312   113882188.332        -480.332          44.000  
G18  21464775.723   114373583.3792       -480.543          31.000  
G 1  21371286.810   113882266.775        -480.278          41.000  
> 2019  6 16  1 17 40.0000000  0  8                     
G 6  21371145.440   113881530.778        -480.786          42.000  
G 5  21371140.916   113881437.828        -480.580          45.000  
G20  21246561.148   113226828.345        -480.604          32.000  
G 3  21371370.641   113882646.575        -480.571          46.000  
G 9  21325690.602   113642591.357        -480.859          33.000  
G 4  21371374.720   113882668.915        -480.475          44.000  
G18  21464866.940   114374063.9682       -480.693          31.000  
G 1  21371378.343   113882747.368        -480.444          41.000  
> 2019  6 16  1 17 41.0000000  0  8                     
G 6  21371237.049   113882028.2653       -480.548          42.000  
G 5  21371232.411   113881918.324        -480.443          45.000  
G20  21246652.755   113227308.843        -480.560          31.000  
G 3  21371462.288   113883127.074        -480.402          46.000  
G 9  21325782.186                        -479.728          32.000  
G 4  21371466.175   113883149.414        -480.339          44.000  
G18  21464958.004   114374544.4522       -480.249          32.000  
G 1  21371469.897   113883227.875        -480.441          41.000  
> 2019  6 16  1 17 42.0000000  0  8                     
G 6  21371328.653   113882508.7222       -480.724          43.000  
G 5  21371324.001   113882398.781        -480.664          45.000  
G20  21246744.362   113227789.300        -480.891          31.000  
G 3  21371553.897   113883607.531        -480.646          46.000  
G 9  21325873.733   113643642.2703       -480.388          32.000  
G 4  21371557.700   113883629.867        -480.620          44.000  
G18  21465049.024   114375024.9202       -480.778          32.000  
G 1  21371561.379   113883708.326        -480.675          41.000  
> 2019  6 16  1 17 43.0000000  0  8                     
G 6  21371420.166   113882989.168        -480.552          43.000  
G 5  21371415.445   113882879.220        -480.483          45.000  
G20  21246835.974   113228269.744        -480.753          31.000  
G 3  21371645.425   113884087.972        -480.514          46.000  
G 9  21325965.252   113644122.701        -479.891          32.000  
G 4  21371649.180   113884110.314        -480.530          44.000  
G18  21465140.369   114375504.8831       -480.997          31.000  
G 1  21371652.858   113884188.764        -480.525          41.000  
> 2019  6 16  1 17 44.0000000  0  8                     
G 6  21371511.655   113883469.698        -480.576          42.000  
G 5  21371506.996   113883359.750        -480.530          45.000  
G20  21246927.535   113228750.266        -480.505          31.000  
G 3  21371736.974   113884568.504        -480.463          45.000  
G 9  21326056.829   113644603.251        -480.305          32.000  
G 4  21371740.670   113884590.836        -480.508          44.000  
G18  21465231.862   114375973.8963       -480.293          31.000  
G 1  21371744.466   113884669.286        -480.507          41.000  
> 2019  6 16  1 17 45.0000000  0  8                     
G 6  21371603.133   113883950.196        -480.538          42.000  
G 5  21371598.618   113883840.246        -480.371          45.000  
G20  21247019.052   113229230.772        -480.566          32.000  
G 3  21371828.443   113885048.997        -480.421          46.000  
G 9  21326148.223   113645083.742        -480.306          32.000  
G 4  21371832.068   113885071.339        -480.469          44.000  
G18  21465323.175   114376454.3452       -479.551          31.000  
G 1  21371836.028   113885149.787        -480.325          41.000  
> 2019  6 16  1 17 46.0000000  0  8                     
G 6  21371694.601   113884430.605        -480.369          42.000  
G 5  21371690.035   113884320.655        -480.422          45.000  
G20  21247110.592   113229711.178        -480.485          31.000  
G 3  21371919.965   113885529.406        -480.326          46.000  
G 9  21326239.734   113645564.191        -481.078          32.000  
G 4  21371923.562   113885551.756        -480.471          44.000  
G18  21465414.654   114376934.7752       -479.791          31.000  
G 1  21371927.614   113885630.194        -480.214          41.000  
> 2019  6 16  1 17 47.0000000  0  8                     
G 6  21371786.233   113884911.028        -480.132          42.000  
G 5  21371781.438   113884801.079        -480.275          45.000  
G20  21247202.036   113230191.630        -480.927          31.000  
G 3  21372011.492   113886009.838        -480.229          46.000  
G 9  21326331.288   113646044.601        -480.498          32.000  
G 4  21372014.964   113886032.178        -480.170          44.000  
G18  21465506.206   114377416.1943       -479.855          31.000  
G 1  21372019.127   113886110.621        -480.327          41.000  
> 2019  6 16  1 17 48.0000000  0  8                     
G 6  21371877.805   113885391.556        -480.605          42.000  
G 5  21371872.929   113885281.606        -480.648          45.000  
G20  21247293.621   113230672.163        -481.039          31.000  
G 3  21372103.040   113886490.362        -480.657          46.000  
G 9  21326422.948   113646525.141        -481.299          32.000  
G 4  21372106.577   113886512.713        -480.643          44.000  
G18  21465597.639   114377896.7242       -479.906          31.000  
G 1  21372110.617   113886591.163        -480.831          41.000  
> 2019  6 16  1 17 49.0000000  0  8                     
G 6  21371969.298   113885872.081        -480.636          42.000  
G 5  21371964.422   113885762.132        -480.627          45.000  
G20  21247385.257   113231152.676        -480.901          31.000  
G 3  21372194.585   113886970.884        -480.514          46.000  
G 9  21326514.517   113647005.661        -480.913          32.000  
G 4  21372198.098   113886993.230        -480.553          44.000  
G18  21465689.161   114378376.7091       -479.418          31.000  
G 1  21372202.093   113887071.686        -480.713          41.000  
> 2019  6 16  1 17 50.0000000  0  8                     
G 6  21372060.809   113886352.508        -480.198          42.000  
G 5  21372055.985   113886242.564        -480.250          45.000  
G20  21247476.815   113231633.101        -480.708          32.000  
G 3  21372286.100   113887451.314        -480.220          46.000  
G 9  21326605.958   113647486.093        -480.367          32.000  
G 4  21372289.549   113887473.662        -480.173          44.000  
G18  21465780.732   114378857.164        -479.342          32.000  
G 1  21372293.642   113887552.110        -480.283          41.000  
> 2019  6 16  1 17 51.0000000  0  8                     
G 6  21372152.405   113886832.876        -480.238          43.000  
G 5  21372147.430   113886722.918        -480.326          45.000  
G20  21247568.284   113232113.442        -480.451          32.000  
G 3  21372377.687   113887931.674        -480.276          46.000  
G 9  21326697.249   113647966.482        -481.038          32.000  
G 4  21372381.178   113887954.026        -480.295          44.000  
G18  21465872.179   114379338.9863       -478.301          31.000  
G 1  21372385.129   113888032.481        -480.436          41.000  
> 2019  6 16  1 17 52.0000000  0  8                     
G 6  21372243.869   113887313.170        -480.371          42.000  
G 5  21372238.993   113887203.221        -480.260          45.000  
G20  21247659.712   113232593.782        -480.760          31.000  
G 3  21372469.220   113888411.982        -480.405          46.000  
G 9  21326788.760   113648446.757        -480.902          32.000  
G 4  21372472.612   113888434.328        -480.439          44.000  
G18  21465963.642   114379819.3352       -480.400          31.000  
G 1  21372476.745   113888512.782        -480.505          41.000  
> 2019  6 16  1 17 53.0000000  0  8                     
G 6  21372335.428   113887793.566        -480.162          43.000  
G 5  21372330.418   113887683.622        -480.215          45.000  
G20  21247751.324   113233074.168        -480.862          31.000  
G 3  21372560.720   113888892.375        -480.149          46.000  
G 9  21326880.160   113648927.160        -480.636          33.000  
G 4  21372564.089   113888914.726        -480.297          44.000  
G18  21466055.029   114380299.7532       -480.675          30.000  
G 1  21372568.235   113888993.188        -480.513          41.000  
> 2019  6 16  1 17 54.0000000  0  8                     
G 6  21372426.935   113888273.963        -480.377          43.000  
G 5  21372421.876   113888164.016        -480.443          45.000  
G20  21247842.895   113233554.555        -480.510          31.000  
G 3  21372652.241   113889372.773        -480.488          46.000  
G 9  21326971.593   113649407.563        -480.854          33.000  
G 4  21372655.592   113889395.124        -480.536          44.000  
G18  21466146.515   114380780.1632       -481.073          31.000  
G 1  21372659.810   113889473.579        -480.625          41.000  
> 2019  6 16  1 17 55.0000000  0  8                     
G 6  21372518.561   113888754.343        -480.236          42.000  
G 5  21372513.342   113888644.403        -480.287          45.000  
G20  21247934.562   113234034.924        -480.387          31.000  
G 3  21372743.767   113889853.154        -480.349          46.000  
G 9  21327063.017   113649887.945        -481.024          33.000  
G 4  21372747.264   113889875.503        -480.431          44.000  
G18  21466238.035   114381260.0501       -480.869          32.000  
G 1  21372751.304   113889953.958        -480.516          41.000  
> 2019  6 16  1 17 56.0000000  0  8                     
G 6  21372610.122   113889234.805        -480.181          42.000  
G 5  21372604.846   113889124.866        -480.316          45.000  
G20  21248026.243   113234515.383        -480.331          31.000  
G 3  21372835.290   113890333.618        -480.327          46.000  
G 9  21327154.617   113650368.385        -480.647          33.000  
G 4  21372838.908   113890355.974        -480.453          44.000  
G18  21466329.521   114381740.517        -480.826          32.000  
G 1  21372842.651   113890434.427        -480.536          41.000  
> 2019  6 16  1 17 57.0000000  0  8                     
G 6  21372701.559   113889715.304        -480.298          42.000  
G 5  21372696.360   113889605.372        -480.469          45.000  
G20  21248117.848   113234995.899        -480.667          32.000  
G 3  21372926.916   113890814.122        -480.461          46.000  
G 9  21327246.200   113650848.912        -481.167          33.000  
G 4  21372930.349   113890836.470        -480.555          44.000  
G18  21466421.008   114382221.013        -480.798          32.000  
G 1  21372934.244   113890914.923        -480.631          41.000  
> 2019  6 16  1 17 58.0000000  0  8                     
G 6  21372793.065   113890195.864        -480.563          42.000  
G 5  21372788.003   113890085.919        -480.549          45.000  
G20  21248209.528   113235476.463        -480.919          32.000  
G 3  21373018.526   113891294.676        -480.674          46.000  
G 9  21327337.626   113651329.467        -481.511          32.000  
G 4  21373021.956   113891317.021        -480.687          44.000  
G18  21466512.531   114382701.574        -481.110          32.000  
G 1  21373025.807   113891395.476        -480.763          41.000  
> 2019  6 16  1 17 59.0000000  0  8                     
G 6  21372884.535   113890676.539        -480.543          42.000  
G 5  21372879.619   113890566.596        -480.561          45.000  
G20  21248301.120   113235957.124        -480.754          32.000  
G 3  21373110.060   113891775.352        -480.647          46.000  
G 9  21327429.213   113651810.137        -480.999          32.000  
G 4  21373113.432   113891797.700        -480.623          44.000  
G18  21466604.117   114383182.280        -481.744          32.000  
G 1  21373117.454   113891876.158        -480.820          41.000  
> 2019  6 16  1 18  0.0000000  0  8                     
G 6  21372976.123   113891157.359        -480.613          42.000  
G 5  21372971.241   113891047.430        -480.741          45.000  
G20  21248392.762   113236437.966        -480.963          32.000  
G 3  21373201.611   113892256.185        -480.801          46.000  
G 9  21327520.840   113652290.938        -480.565          32.000  
G 4  21373205.015   113892278.522        -480.675          44.000  
G18  21466695.691   114383663.109        -481.522          32.000  
G 1  21373209.028   113892356.987        -480.881          41.000  
> 2019  6 16  1 18  1.0000000  0  8                     
G 6  21373067.730   113891638.193        -480.746          43.000  
G 5  21373062.763   113891528.259        -480.717          45.000  
G20  21248484.424   113236918.797        -480.827          31.000  
G 3  21373293.199   113892737.016        -480.789          46.000  
G 9  21327612.467   113652771.784        -480.695          33.000  
G 4  21373296.563   113892759.354        -480.842          44.000  
G18  21466787.382   114384143.905        -480.975          32.000  
G 1  21373300.676   113892837.824        -480.922          41.000  
> 2019  6 16  1 18  2.0000000  0  8                     
G 6  21373159.172   113892118.831        -480.336          43.000  
G 5  21373154.240   113892008.898        -480.450          45.000  
G20  21248575.854   113237399.412        -480.291          32.000  
G 3  21373384.645   113893217.648        -480.437          46.000  
G 9  21327703.944   113653252.428        -480.667          33.000  
G 4  21373388.213   113893239.990        -480.527          44.000  
G18  21466878.895   114384624.553        -480.762          32.000  
G 1  21373392.235   113893318.447        -480.432          41.000  
> 2019  6 16  1 18  3.0000000  0  8                     
G 6  21373250.656   113892599.442        -480.477          42.000  
G 5  21373245.777   113892489.498        -480.629          45.000  
G20  21248667.575   113237880.024        -480.361          32.000  
G 3  21373476.224   113893698.258        -480.698          46.000  
G 9  21327795.583   113653733.027        -480.332          33.000  
G 4  21373479.837   113893720.602        -480.635          44.000  
G18  21466970.461   114385105.175        -481.130          32.000  
G 1  21373483.755   113893799.048        -480.499          42.000  
> 2019  6 16  1 18  4.0000000  0  8                     
G 6  21373342.125   113893080.065        -480.490          42.000  
G 5  21373337.338   113892970.129        -480.538          45.000  
G20  21248758.945   113238360.658        -480.411          32.000  
G 3  21373567.719   113894178.885        -480.586          46.000  
G 9  21327887.098   113654213.660        -480.488          33.000  
G 4  21373571.520   113894201.232        -480.649          44.000  
G18  21467062.071   114385585.808        -480.999          32.000  
G 1  21373575.247   113894279.681        -480.602          42.000  
> 2019  6 16  1 18  5.0000000  0  8                     
G 6  21373433.693   113893560.610        -480.416          42.000  
G 5  21373428.910   113893450.673        -480.476          45.000  
G20  21248850.396   113238841.203        -480.258          32.000  
G 3  21373659.210   113894659.430        -480.560          46.000  
G 9  21327978.669   113654694.219        -480.759          33.000  
G 4  21373663.115   113894681.784        -480.585          44.000  
G18  21467153.627   114386066.296        -480.161          32.000  
G 1  21373666.877   113894760.227        -480.369          42.000  
> 2019  6 16  1 18  6.0000000  0  8                     
G 6  21373525.224   113894041.232        -480.508          42.000  
G 5  21373520.470   113893931.305        -480.651          45.000  
G20  21248941.838   113239321.845        -480.586          32.000  
G 3  21373750.765   113895140.057        -480.634          46.000  
G 9  21328070.143   113655174.858        -480.834          33.000  
G 4  21373754.789   113895162.405        -480.715          44.000  
G18  21467245.148   114386546.972        -480.881          32.000  
G 1  21373758.437   113895240.854        -480.505          42.000  
> 2019  6 16  1 18  7.0000000  0  8                     
G 6  21373616.790   113894521.860        -480.422          42.000  
G 5  21373611.946   113894411.932        -480.641          45.000  
G20  21249033.316   113239802.458        -480.561          32.000  
G 3  21373842.324   113895620.699        -480.756          45.000  
G 9  21328161.680   113655655.481        -480.665          33.000  
G 4  21373846.346   113895643.048        -480.782          44.000  
G18  21467336.795   114387027.608        -480.895          31.000  
G 1  21373850.072   113895721.484        -480.482          42.000  
> 2019  6 16  1 18  8.0000000  0  8                     
G 6  21373708.368   113895002.547        -480.643          42.000  
G 5  21373703.499   113894892.616        -480.726          45.000  
G20  21249124.778   113240283.121        -480.341          32.000  
G 3  21373933.809   113896101.372        -480.864          46.000  
G 9  21328253.246   113656136.159        -480.876          33.000  
G 4  21373937.972   113896123.725        -480.750          44.000  
G18  21467428.510   114387508.307        -481.794          31.000  
G 1  21373941.676   113896202.171        -480.631          42.000  
> 2019  6 16  1 18  9.0000000  0  8                     
G 6  21373799.897   113895483.249        -480.540          42.000  
G 5  21373794.985   113895373.314        -480.665          45.000  
G20  21249216.318   113240763.847        -480.659          32.000  
G 3  21374025.386   113896582.073        -480.702          46.000  
G 9  21328344.856   113656616.862        -480.796          33.000  
G 4  21374029.520   113896604.427        -480.778          44.000  
G18  21467520.086   114387988.937        -480.339          31.000  
G 1  21374033.223   113896682.866        -480.482          42.000  
> 2019  6 16  1 18 10.0000000  0  8                     
G 6  21373891.508   113895963.871        -480.347          42.000  
G 5  21373886.603   113895853.945        -480.488          45.000  
G20  21249307.819   113241244.477        -480.516          32.000  
G 3  21374117.036   113897062.702        -480.587          46.000  
G 9  21328436.222   113657097.488        -480.897          32.000  
G 4  21374121.130   113897085.050        -480.493          44.000  
G18  21467611.555   114388469.593        -480.851          30.000  
G 1  21374124.885   113897163.501        -480.386          42.000  
> 2019  6 16  1 18 11.0000000  0  8                     
G 6  21373982.996   113896444.415        -480.442          42.000  
G 5  21373978.130   113896334.484        -480.455          45.000  
G20  21249399.281   113241725.034        -480.716          32.000  
G 3  21374208.578   113897543.247        -480.493          46.000  
G 9  21328527.808   113657578.022        -480.365          32.000  
G 4  21374212.758   113897565.594        -480.696          44.000  
G18  21467703.114   114388950.118        -480.468          31.000  
G 1  21374216.314   113897644.021        -480.294          42.000  
> 2019  6 16  1 18 12.0000000  0  8                     
G 6  21374074.568   113896925.097        -480.654          42.000  
G 5  21374069.722   113896815.168        -480.703          45.000  
G20  21249490.867   113242205.702        -480.681          32.000  
G 3  21374300.181   113898023.926        -480.773          46.000  
G 9  21328619.433   113658058.699        -480.530          32.000  
G 4  21374304.388   113898046.277        -480.831          44.000  
G18  21467794.736   114389430.831        -481.023          32.000  
G 1  21374307.884   113898124.712        -480.555          42.000  
> 2019  6 16  1 18 13.0000000  0  8                     
G 6  21374166.067   113897405.734        -480.471          43.000  
G 5  21374161.285   113897295.810        -480.527          45.000  
G20  21249582.414   113242686.343        -480.506          32.000  
G 3  21374391.712   113898504.563        -480.619          45.000  
G 9  21328711.072   113658539.332        -480.303          32.000  
G 4  21374396.012   113898526.916        -480.610          44.000  
G18  21467886.230   114389911.449        -480.585          32.000  
G 1  21374399.421   113898605.352        -480.377          41.000  
> 2019  6 16  1 18 14.0000000  0  8                     
G 6  21374257.543   113897886.414        -480.696          43.000  
G 5  21374252.824   113897776.472        -480.594          45.000  
G20  21249673.924   113243167.009        -480.461          32.000  
G 3  21374483.267   113898985.234        -480.706          45.000  
G 9  21328802.671   113659020.010        -480.564          32.000  
G 4  21374487.434   113899007.586        -480.721          44.000  
G18  21467977.702   114390392.083        -480.023          32.000  
G 1  21374490.939   113899086.022        -480.452          41.000  
> 2019  6 16  1 18 15.0000000  0  8                     
G 6  21374349.156   113898367.013        -480.570          42.000  
G 5  21374344.519   113898257.080        -480.657          44.000  
G20  21249765.485   113243647.635        -480.365          31.000  
G 3  21374574.814   113899465.837        -480.752          45.000  
G 9  21328894.233   113659500.633        -480.413          32.000  
G 4  21374579.027   113899488.184        -480.729          44.000  
G18  21468069.203   114390872.643        -480.066          31.000  
G 1  21374582.444   113899566.618        -480.417          41.000  
> 2019  6 16  1 18 16.0000000  0  8                     
G 6  21374440.648   113898847.513        -480.387          42.000  
G 5  21374435.993   113898737.592        -480.563          45.000  
G20  21249856.974   113244128.110        -480.576          31.000  
G 3  21374666.326   113899946.346        -480.627          46.000  
G 9  21328985.751   113659981.126        -480.293          32.000  
G 4  21374670.461   113899968.692        -480.505          44.000  
G18  21468160.772   114391353.247        -480.686          31.000  
G 1  21374673.974   113900047.137        -480.457          41.000  
> 2019  6 16  1 18 17.0000000  0  8                     
G 6  21374532.217   113899328.107        -480.591          42.000  
G 5  21374527.572   113899218.172        -480.630          45.000  
G20  21249948.628   113244608.707        -480.772          31.000  
G 3  21374757.919   113900426.930        -480.721          46.000  
G 9  21329077.274   113660461.710        -480.034          32.000  
G 4  21374761.932   113900449.276        -480.627          44.000  
G18  21468252.328   114391833.810        -480.411          31.000  
G 1  21374765.503   113900527.725        -480.702          41.000  
> 2019  6 16  1 18 18.0000000  0  8                     
G 6  21374623.701   113899808.626        -480.568          42.000  
G 5  21374619.184   113899698.693        -480.490          45.000  
G20  21250040.059   113245089.223        -480.460          31.000  
G 3  21374849.411   113900907.449        -480.670          45.000  
G 9  21329169.041   113660942.196        -479.966          32.000  
G 4  21374853.460   113900929.798        -480.543          44.000  
G18  21468343.991   114392314.346        -480.488          31.000  
G 1  21374857.012   113901008.238        -480.635          41.000  
> 2019  6 16  1 18 19.0000000  0  8                     
G 6  21374715.273   113900289.232        -480.869          42.000  
G 5  21374710.844   113900179.285        -480.702          45.000  
G20  21250131.717   113245569.810        -480.565          31.000  
G 3  21374940.940   113901388.046        -480.737          46.000  
G 9  21329260.673   113661422.796        -480.107          33.000  
G 4  21374945.020   113901410.397        -480.649          44.000  
G18  21468435.627   114392794.920        -480.824          31.000  
G 1  21374948.491   113901488.837        -480.736          41.000  
> 2019  6 16  1 18 20.0000000  0  8                     
G 6  21374806.865   113900769.813        -480.863          42.000  
G 5  21374802.327   113900659.867        -480.724          44.000  
G20  21250223.258   113246050.384        -480.577          32.000  
G 3  21375032.449   113901868.632        -480.746          46.000  
G 9  21329352.280   113661903.404        -480.363          33.000  
G 4  21375036.608   113901890.969        -480.565          44.000  
G18  21468527.105   114393275.541        -480.168          31.000  
G 1  21375040.083   113901969.422        -480.807          41.000  
> 2019  6 16  1 18 21.0000000  0  8                     
G 6  21374898.471   113901250.380        -480.737          42.000  
G 5  21374893.929   113901140.437        -480.499          45.000  
G20  21250314.880   113246530.945        -480.086          33.000  
G 3  21375123.977   113902349.194        -480.508          46.000  
G 9  21329443.888   113662383.938        -479.794          33.000  
G 4  21375128.110   113902371.539        -480.410          44.000  
G18  21468618.471   114393756.086        -480.685          31.000  
G 1  21375131.692   113902449.991        -480.757          41.000  
> 2019  6 16  1 18 22.0000000  0  8                     
G 6  21374990.122   113901730.909        -480.802          42.000  
G 5  21374985.475   113901620.969        -480.724          45.000  
G20  21250406.366   113247011.496        -480.602          32.000  
G 3  21375215.551   113902829.725        -480.687          45.000  
G 9  21329535.452   113662864.469        -480.126          33.000  
G 4  21375219.621   113902852.064        -480.588          44.000  
G18  21468709.952   114394236.627        -480.319          32.000  
G 1  21375223.229   113902930.526        -480.881          41.000  
> 2019  6 16  1 18 23.0000000  0  8                     
G 6  21375081.632   113902211.319        -480.765          42.000  
G 5  21375076.916   113902101.374        -480.632          45.000  
G20  21250497.695   113247491.881        -480.479          32.000  
G 3  21375307.087   113903310.132        -480.581          45.000  
G 9  21329627.134   113663344.868        -479.906          33.000  
G 4  21375311.163   113903332.479        -480.509          44.000  
G18  21468801.483   114394717.014        -480.677          32.000  
G 1  21375314.664   113903410.926        -480.663          41.000  
> 2019  6 16  1 18 24.0000000  0  8                     
G 6  21375173.206   113902691.695        -480.560          42.000  
G 5  21375168.363   113902581.756        -480.465          45.000  
G20  21250589.197   113247972.266        -480.224          32.000  
G 3  21375398.571   113903790.511        -480.435          45.000  
G 9  21329718.755   113663825.239        -479.669          33.000  
G 4  21375402.756   113903812.846        -480.325          44.000  
G18  21468892.982   114395197.404        -480.367          32.000  
G 1  21375406.078   113903891.304        -480.607          41.000  
> 2019  6 16  1 18 25.0000000  0  8                     
G 6  21375264.696   113903172.171        -480.851          42.000  
G 5  21375259.897   113903062.224        -480.624          45.000  
G20  21250680.854   113248452.721        -480.036          32.000  
G 3  21375490.078   113904270.976        -480.536          46.000  
G 9  21329810.186   113664305.717        -480.024          33.000  
G 4  21375494.322   113904293.327        -480.552          44.000  
G18  21468984.448   114395677.881        -481.016          32.000  
G 1  21375497.494   113904371.775        -480.729          41.000  
> 2019  6 16  1 18 26.0000000  0  8                     
G 6  21375356.141   113903652.684        -481.044          42.000  
G 5  21375351.505   113903542.728        -480.752          45.000  
G20  21250772.428   113248933.256        -480.871          31.000  
G 3  21375581.650   113904751.484        -480.676          45.000  
G 9  21329901.818   113664786.245        -480.548          32.000  
G 4  21375585.897   113904773.833        -480.638          44.000  
G18  21469075.938   114396158.388        -480.183          31.000  
G 1  21375589.064   113904852.292        -480.800          41.000  
> 2019  6 16  1 18 27.0000000  0  8                     
G 6  21375447.638   113904133.273        -481.064          42.000  
G 5  21375443.025   113904023.322        -480.924          45.000  
G20  21250863.993   113249413.846        -480.831          31.000  
G 3  21375673.182   113905232.084        -481.001          46.000  
G 9  21329993.417   113665266.843        -480.879          32.000  
G 4  21375677.415   113905254.433        -480.848          44.000  
G18  21469167.419   114396638.961        -480.686          31.000  
G 1  21375680.667   113905332.880        -480.991          41.000  
> 2019  6 16  1 18 28.0000000  0  8                     
G 6  21375539.150   113904613.942        -480.800          42.000  
G 5  21375534.506   113904503.996        -480.695          45.000  
G20  21250955.503   113249894.525        -480.928          32.000  
G 3  21375764.762   113905712.746        -480.601          45.000  
G 9  21330085.103   113665747.520        -480.839          32.000  
G 4  21375768.933   113905735.094        -480.570          44.000  
G18  21469258.914   114397119.612        -479.504          31.000  
G 1  21375772.261   113905813.541        -480.599          41.000  
> 2019  6 16  1 18 29.0000000  0  8                     
G 6  21375630.783   113905094.624        -480.688          42.000  
G 5  21375626.181   113904984.684        -480.614          45.000  
G20  21251047.133   113250375.202        -480.884          32.000  
G 3  21375856.346   113906193.445        -480.657          46.000  
G 9  21330176.622   113666228.203        -480.569          32.000  
G 4  21375860.355   113906215.790        -480.618          44.000  
G18  21469350.511   114397600.338        -480.730          32.000  
G 1  21375863.927   113906294.235        -480.598          41.000  
> 2019  6 16  1 18 30.0000000  0  8                     
G 6  21375722.276   113905575.230        -480.685          42.000  
G 5  21375717.695   113905465.289        -480.620          45.000  
G20  21251138.686   113250855.818        -480.442          32.000  
G 3  21375947.863   113906674.039        -480.576          46.000  
G 9  21330268.230   113666708.823        -480.730          32.000  
G 4  21375951.860   113906696.389        -480.620          44.000  
G18  21469442.115   114398080.938        -480.081          31.000  
G 1  21375955.556   113906774.832        -480.520          41.000  
> 2019  6 16  1 18 31.0000000  0  8                     
G 6  21375813.841   113906055.823        -480.985          42.000  
G 5  21375809.234   113905945.875        -480.797          45.000  
G20  21251230.047   113251336.389        -480.636          32.000  
G 3  21376039.389   113907154.630        -480.737          45.000  
G 9  21330359.722   113667189.400        -480.637          32.000  
G 4  21376043.360   113907176.974        -480.742          44.000  
G18  21469533.710   114398561.514        -480.465          31.000  
G 1  21376047.038   113907255.419        -480.734          41.000  
> 2019  6 16  1 18 32.0000000  0  8                     
G 6  21375905.495   113906536.452        -480.864          42.000  
G 5  21375900.779   113906426.508        -480.830          45.000  
G20  21251321.610   113251817.020        -480.636          32.000  
G 3  21376130.952   113907635.259        -480.791          46.000  
G 9  21330451.347   113667670.043        -480.907          33.000  
G 4  21376134.898   113907657.609        -480.770          44.000  
G18  21469625.304   114399042.136        -480.228          32.000  
G 1  21376138.440   113907736.050        -480.658          41.000  
> 2019  6 16  1 18 33.0000000  0  8                     
G 6  21375996.969   113907017.113        -480.803          42.000  
G 5  21375992.412   113906907.173        -480.730          45.000  
G20  21251413.229   113252297.684        -480.652          32.000  
G 3  21376222.487   113908115.924        -480.721          46.000  
G 9  21330542.954   113668150.703        -480.852          33.000  
G 4  21376226.611   113908138.266        -480.686          44.000  
G18  21469716.888   114399522.820        -480.671          32.000  
G 1  21376229.957   113908216.704        -480.520          41.000  
> 2019  6 16  1 18 34.0000000  0  8                     
G 6  21376088.473   113907497.834        -480.878          42.000  
G 5  21376083.978   113907387.888        -480.815          45.000  
G20  21251504.712   113252778.399        -480.809          32.000  
G 3  21376314.115   113908596.645        -480.824          45.000  
G 9  21330634.465   113668631.425        -480.969          33.000  
G 4  21376318.206   113908618.991        -480.819          44.000  
G18  21469808.461   114400003.501        -480.111          32.000  
G 1  21376321.475   113908697.431        -480.651          41.000  
> 2019  6 16  1 18 35.0000000  0  8                     
G 6  21376180.106   113907978.576        -480.579          42.000  
G 5  21376175.435   113907868.634        -480.592          45.000  
G20  21251596.375   113253259.164        -480.792          32.000  
G 3  21376405.633   113909077.389        -480.627          46.000  
G 9  21330726.086   113669112.165        -480.670          33.000  
G 4  21376409.653   113909099.739        -480.667          44.000  
G18  21469900.016   114400484.248        -480.284          31.000  
G 1  21376413.057   113909178.185        -480.643          41.000  
> 2019  6 16  1 18 36.0000000  0  8                     
G 6  21376271.652   113908459.330        -480.569          42.000  
G 5  21376266.995   113908349.396        -480.587          45.000  
G20  21251687.931   113253739.922        -480.507          31.000  
G 3  21376497.208   113909558.159        -480.756          46.000  
G 9  21330817.551   113669592.931        -480.811          32.000  
G 4  21376501.331   113909580.505        -480.725          44.000  
G18  21469991.632   114400965.029        -479.971          32.000  
G 1  21376504.732   113909658.941        -480.638          41.000  
> 2019  6 16  1 18 37.0000000  0  8                     
G 6  21376363.296   113908940.121        -480.924          42.000  
G 5  21376358.598   113908830.179        -481.006          45.000  
G20  21251779.505   113254220.701        -480.980          32.000  
G 3  21376588.834   113910038.943        -481.028          45.000  
G 9  21330909.060   113670073.711        -480.979          33.000  
G 4  21376593.033   113910061.289        -481.096          44.000  
G18  21470083.082   114401445.845        -481.157          32.000  
G 1  21376596.322   113910139.729        -480.981          41.000  
> 2019  6 16  1 18 38.0000000  0  8                     
G 6  21376454.902   113909447.9833       -481.027          42.000  
G 5  21376450.168   113909311.038        -480.955          45.000  
G20  21251870.975   113254701.532        -480.700          31.000  
G 3  21376680.491   113910519.792        -481.001          45.000  
G 9  21331000.332   113670554.557        -480.853          33.000  
G 4  21376684.677   113910542.134        -480.994          44.000  
G18  21470174.680   114401926.655        -480.786          31.000  
G 1  21376687.998   113910620.584        -481.024          41.000  
> 2019  6 16  1 18 39.0000000  0  8                     
G 6  21376546.526   113909929.8272       -480.916          42.000  
G 5  21376541.672   113909791.881        -480.867          45.000  
G20  21251962.500   113255182.410        -480.979          32.000  
G 3  21376772.104   113911000.641        -480.874          46.000  
G 9  21331091.930   113671035.391        -480.767          33.000  
G 4  21376776.289   113911022.990        -480.903          44.000  
G18  21470266.201   114402407.529        -481.008          31.000  
G 1  21376779.552   113911101.437        -480.994          41.000  
> 2019  6 16  1 18 40.0000000  0  8                     
G 6  21376638.048   113910410.6103       -480.586          43.000  
G 5  21376633.306   113910272.675        -480.643          45.000  
G20  21252053.729   113255663.196        -480.741          31.000  
G 3  21376863.645   113911481.432        -480.768          46.000  
G 9  21331182.854   113671516.159        -480.144          32.000  
G 4  21376867.870   113911503.782        -480.852          44.000  
G18  21470357.908   114402888.302        -480.467          31.000  
G 1  21376871.033   113911582.224        -480.870          41.000  
> 2019  6 16  1 18 41.0000000  0  8                     
G 6  21376729.598   113910891.3612       -480.623          42.000  
G 5  21376724.958   113910753.416        -480.702          45.000  
G20  21252145.450   113256143.900        -480.052          31.000  
G 3  21376955.178   113911962.177        -480.735          46.000  
G 9  21331274.493   113671996.941        -480.638          32.000  
G 4  21376959.311   113911984.522        -480.703          44.000  
G18  21470449.492   114403369.016        -479.980          31.000  
G 1  21376962.624   113912062.966        -480.712          41.000  
> 2019  6 16  1 18 42.0000000  0  8                     
G 6  21376821.141   113911372.0662       -480.760          42.000  
G 5  21376816.461   113911234.116        -480.656          45.000  
G20  21252236.964   113256624.623        -480.456          31.000  
G 3  21377046.753   113912442.877        -480.768          46.000  
G 9  21331366.109   113672477.646        -480.846          32.000  
G 4  21377050.736   113912465.224        -480.710          44.000  
G18  21470540.924   114403849.729        -480.234          31.000  
G 1  21377054.221   113912543.673        -480.857          41.000  
> 2019  6 16  1 18 43.0000000  0  8                     
G 6  21376912.722   113911852.872        -480.822          42.000  
G 5  21376908.018   113911714.924        -480.776          45.000  
G20  21252328.596   113257105.448        -480.909          32.000  
G 3  21377138.288   113912923.683        -480.835          46.000  
G 9  21331457.885   113672958.460        -480.829          33.000  
G 4  21377142.274   113912946.028        -480.724          44.000  
G18  21470632.445   114404330.545        -480.676          32.000  
G 1  21377145.838   113913024.478        -480.906          41.000  
> 2019  6 16  1 18 44.0000000  0  8                     
G 6  21377004.343   113912333.638        -480.807          42.000  
G 5  21376999.613   113912195.692        -480.737          45.000  
G20  21252420.304   113257586.217        -480.795          31.000  
G 3  21377229.848   113913404.449        -480.742          46.000  
G 9  21331549.532   113673439.214        -480.811          32.000  
G 4  21377233.962   113913426.801        -480.779          44.000  
G18  21470723.979   114404811.305        -480.433          32.000  
G 1  21377237.381   113913505.242        -480.745          41.000  
> 2019  6 16  1 18 45.0000000  0  8                     
G 6  21377095.906   113912814.389        -480.808          42.000  
G 5  21377091.233   113912676.440        -480.713          45.000  
G20  21252511.930   113258066.954        -480.563          31.000  
G 3  21377321.422   113913885.199        -480.790          46.000  
G 9  21331641.164   113673919.973        -481.060          32.000  
G 4  21377325.642   113913907.550        -480.803          44.000  
G18  21470815.586   114405292.064        -480.660          32.000  
G 1  21377328.961   113913985.992        -480.796          41.000  
> 2019  6 16  1 18 46.0000000  0  8                     
G 6  21377187.540   113913295.048        -480.663          42.000  
G 5  21377182.814   113913157.099        -480.626          45.000  
G20  21252603.687   113258547.603        -480.524          31.000  
G 3  21377412.935   113914365.856        -480.693          46.000  
G 9  21331732.934   113674400.650        -481.281          33.000  
G 4  21377417.288   113914388.209        -480.612          44.000  
G18  21470907.128   114405772.737        -480.886          31.000  
G 1  21377420.618   113914466.654        -480.651          41.000  
> 2019  6 16  1 18 47.0000000  0  8                     
G 6  21377279.165   113913775.842        -480.778          42.000  
G 5  21377274.416   113913637.898        -480.792          45.000  
G20  21252695.139   113259028.418        -480.750          31.000  
G 3  21377504.600   113914846.652        -480.825          46.000  
G 9  21331824.747   113674881.442        -481.218          33.000  
G 4  21377508.757   113914868.999        -480.835          44.000  
G18  21470998.721   114406253.551        -481.252          31.000  
G 1  21377512.223   113914947.451        -480.879          41.000  
> 2019  6 16  1 18 48.0000000  0  8                     
G 6  21377370.775   113914256.710        -480.767          42.000  
G 5  21377366.064   113914118.764        -480.717          45.000  
G20  21252786.808   113259509.293        -481.054          31.000  
G 3  21377596.166   113915327.521        -480.720          46.000  
G 9  21331916.424   113675362.327        -481.367          33.000  
G 4  21377600.213   113915349.867        -480.735          44.000  
G18  21471090.317   114406734.438        -481.451          30.000  
G 1  21377603.759   113915428.314        -480.787          41.000  
> 2019  6 16  1 18 49.0000000  0  8                     
G 6  21377462.224   113914737.512        -480.726          42.000  
G 5  21377457.723   113914599.565        -480.718          45.000  
G20  21252878.382   113259990.077        -480.724          31.000  
G 3  21377687.764   113915808.323        -480.649          46.000  
G 9  21332007.994   113675843.122        -481.405          33.000  
G 4  21377691.727   113915830.668        -480.651          44.000  
G18  21471181.809   114407215.185        -480.073          31.000  
G 1  21377695.362   113915909.105        -480.527          41.000  
> 2019  6 16  1 18 50.0000000  0  8                     
G 6  21377553.768   113915218.306        -480.901          42.000  
G 5  21377549.314   113915080.362        -480.905          45.000  
G20  21252969.991   113260470.886        -481.042          31.000  
G 3  21377779.339   113916289.117        -480.834          46.000  
G 9  21332099.707   113676323.904        -481.410          33.000  
G 4  21377783.322   113916311.463        -480.815          44.000  
G18  21471273.399   114407695.963        -480.416          31.000  
G 1  21377786.895   113916389.909        -480.803          41.000  
> 2019  6 16  1 18 51.0000000  0  8                     
G 6  21377645.440   113915699.107        -480.693          42.000  
G 5  21377640.833   113915561.176        -480.800          45.000  
G20  21253061.496   113260951.731        -481.278          32.000  
G 3  21377870.907   113916769.929        -480.792          46.000  
G 9  21332191.416   113676804.730        -481.259          33.000  
G 4  21377874.941   113916792.270        -480.630          44.000  
G18  21471364.930   114408176.814        -481.044          31.000  
G 1  21377878.557   113916870.715        -480.620          41.000  
> 2019  6 16  1 18 52.0000000  0  8                     
G 6  21377737.177   113916180.082        -480.830          42.000  
G 5  21377732.468   113916042.148        -481.080          45.000  
G20  21253153.135   113261432.688        -481.371          32.000  
G 3  21377962.577   113917250.909        -481.101          46.000  
G 9  21332282.941   113677285.685        -481.401          32.000  
G 4  21377966.546   113917273.248        -480.979          44.000  
G18  21471456.581   114408657.797        -481.417          31.000  
G 1  21377970.179   113917351.695        -480.996          41.000  
> 2019  6 16  1 18 53.0000000  0  8                     
G 6  21377828.841   113916661.004        -480.891          42.000  
G 5  21377824.026   113916523.060        -480.974          45.000  
G20  21253244.779   113261913.583        -481.203          32.000  
G 3  21378054.266   113917731.827        -481.112          46.000  
G 9  21332374.503   113677766.627        -481.404          33.000  
G 4  21378058.289   113917754.168        -481.034          44.000  
G18  21471548.170   114409138.706        -481.182          32.000  
G 1  21378061.893   113917832.613        -480.923          41.000  
> 2019  6 16  1 21 38.0000000  0  8                     
G 1  21448828.162   114289735.193        -521.642          37.000  
G 4  21448818.510   114289702.8381       -521.405          45.000  
G 2  21448823.428   114289717.107        -521.508          44.000  
G 6  21448594.712   114288512.698        -521.525          45.000  
G11  21613812.117   115156733.283        -521.620          32.000  
G 3  21448818.924   114289690.598        -521.317          45.000  
G22  21503069.359   114574785.600        -521.292          33.000  
G12  21392574.850   113994133.0681       -521.171          31.000  
> 2019  6 16  1 21 39.0000000  0  8                     
G 1  21448927.366   114290256.492        -521.097          37.000  
G 4  21448917.805   114290224.138        -520.983          45.000  
G 2  21448922.647   114290238.408        -521.041          43.000  
G 6  21448693.970   114289034.000        -521.056          45.000  
G11  21613911.402   115157254.586        -521.375          32.000  
G 3  21448918.230   114290211.898        -521.007          44.000  
G22  21503168.611   114575306.896        -520.802          32.000  
G12  21392674.099   113994654.399        -521.052          31.000  
> 2019  6 16  1 21 40.0000000  0  8                     
G 1  21449026.502   114290777.761        -521.321          37.000  
G 4  21449017.118   114290745.413        -521.202          45.000  
G 2  21449022.004   114290759.685        -521.388          43.000  
G 6  21448793.357   114289555.276        -521.256          44.000  
G11  21614010.711   115157775.860        -522.089          32.000  
G 3  21449017.598   114290733.181        -521.278          44.000  
G22  21503267.884   114575828.197        -521.185          32.000  
G12  21392773.377   113995175.682        -521.731          30.000  
> 2019  6 16  1 21 41.0000000  0  8                     
G 1  21449125.695   114291299.072        -521.691          37.000  
G 4  21449116.413   114291266.723        -521.514          45.000  
G 2  21449121.313   114291280.995        -521.594          43.000  
G 6  21448892.739   114290076.589        -521.659          44.000  
G11  21614110.003   115158297.142        -521.679          32.000  
G 3  21449116.978   114291254.492        -521.638          44.000  
G22  21503367.108   114576349.479        -521.643          32.000  
G12  21392872.507   113995696.960        -521.644          30.000  
> 2019  6 16  1 21 42.0000000  0  8                     
G 1  21449224.769   114291820.487        -521.508          37.000  
G 4  21449215.689   114291788.134        -521.240          45.000  
G 2  21449220.757   114291802.407        -521.265          43.000  
G 6  21448991.945   114290597.996        -521.279          44.000  
G11  21614209.403   115158818.559        -521.248          32.000  
G 3  21449216.262   114291775.897        -521.309          44.000  
G22  21503466.404   114576870.892        -520.769          32.000  
G12  21392971.923   113996218.390        -521.215          30.000  
> 2019  6 16  1 21 43.0000000  0  8                     
G 1  21449323.940   114292341.779        -521.481          37.000  
G 4  21449314.899   114292309.427        -521.364          45.000  
G 2  21449320.076   114292323.699        -521.371          43.000  
G 6  21449091.320   114291119.297        -521.459          45.000  
G11  21614308.807   115159339.864        -521.260          31.000  
G 3  21449315.573   114292297.202        -521.418          44.000  
G22  21503565.618   114577392.188        -521.385          32.000  
G12  21393071.188   113996739.655        -521.229          31.000  
> 2019  6 16  1 21 44.0000000  0  8                     
G 1  21449422.948   114292863.082        -521.445          37.000  
G 4  21449414.307   114292830.749        -521.283          45.000  
G 2  21449419.360   114292845.017        -521.313          43.000  
G 6  21449190.647   114291640.602        -521.266          45.000  
G11  21614408.131   115159861.166        -520.828          32.000  
G 3  21449414.925   114292818.512        -521.211          44.000  
G22  21503664.894   114577913.505        -521.324          32.000  
G12  21393170.498   113997261.001        -521.415          31.000  
> 2019  6 16  1 21 45.0000000  0  8                     
G 1  21449522.126   114293384.370        -521.414          38.000  
G 4  21449513.629   114293352.038        -521.454          45.000  
G 2  21449518.648   114293366.309        -521.459          43.000  
G 6  21449289.923   114292161.894        -521.383          45.000  
G11  21614507.458   115160382.437        -520.639          32.000  
G 3  21449514.187   114293339.802        -521.350          44.000  
G22  21503764.130   114578434.800        -521.416          32.000  
G12  21393269.829   113997782.300        -521.943          31.000  
> 2019  6 16  1 21 46.0000000  0  8                     
G 1  21449621.388   114293905.644        -520.997          37.000  
G 4  21449612.962   114293873.310        -521.169          45.000  
G 2  21449617.927   114293887.581        -521.163          43.000  
G 6  21449389.195   114292683.168        -521.180          45.000  
G11  21614606.722   115160903.726        -520.844          32.000  
G 3  21449613.453   114293861.074        -521.169          44.000  
G22  21503863.313   114578956.057        -521.104          32.000  
G12  21393369.114   113998303.568        -521.473          31.000  
> 2019  6 16  1 21 47.0000000  0  8                     
G 1  21449720.811   114294426.958        -521.421          37.000  
G 4  21449712.225   114294394.603        -521.443          45.000  
G 2  21449717.162   114294408.879        -521.553          43.000  
G 6  21449488.547   114293204.463        -521.506          45.000  
G11  21614705.990   115161425.013        -521.001          32.000  
G 3  21449712.823   114294382.366        -521.500          44.000  
G22  21503962.534   114579477.357        -521.523          32.000  
G12  21393468.489   113998824.868        -522.146          31.000  
> 2019  6 16  1 21 47.0000000  0  8                     
G 6  21393745.517   114000272.908        -480.442          39.000  
G 5  21393741.657   114000253.000        -480.151          45.000  
G20  21269146.456   113345504.488        -480.282          30.000  
G 3  21393971.787   114001461.691        -480.103          47.000  
G 9  21348284.905   113761385.4781       -480.082          31.000  
G 4  21393973.597   114001484.9701       -479.879          45.000  
G18  21487468.631   114492827.5393       -478.723          32.000  
G 1  21393981.252   114001513.580        -480.029          38.000  
> 2019  6 16  1 21 48.0000000  0  8                     
G 6  21393836.958   114000752.843        -480.508          39.000  
G 5  21393833.074   114000732.944        -480.361          45.000  
G20  21269237.865   113345984.430        -480.770          30.000  
G 3  21394063.158   114001941.629        -480.287          47.000  
G 9  21348376.271   113761865.432        -480.488          31.000  
G 4  21394065.106   114001964.907        -480.209          45.000  
G18  21487560.166   114493307.5122       -479.877          32.000  
G 1  21394072.672   114001993.505        -480.071          38.000  
> 2019  6 16  1 21 49.0000000  0  8                     
G 6  21393928.404   114001232.850        -480.510          38.000  
G 5  21393924.424   114001212.934        -480.107          45.000  
G20  21269329.379   113346464.424        -480.331          30.000  
G 3  21394154.607   114002421.624        -480.062          47.000  
G 9  21348467.715   113762345.415        -480.116          31.000  
G 4  21394156.522   114002444.902        -479.922          45.000  
G18  21487651.580   114493787.484        -479.008          32.000  
G 1  21394164.020   114002473.503        -479.874          38.000  
> 2019  6 16  1 21 50.0000000  0  8                     
G 6  21394019.770   114001712.915        -480.590          39.000  
G 5  21394015.875   114001693.004        -480.189          45.000  
G20  21269420.899   113346944.489        -480.357          31.000  
G 3  21394246.129   114002901.692        -480.077          47.000  
G 9  21348559.175   113762825.478        -479.702          31.000  
G 4  21394248.002   114002924.976        -480.016          45.000  
G18  21487742.964   114494267.575        -479.619          32.000  
G 1  21394255.394   114002953.578        -480.120          38.000  
> 2019  6 16  1 21 51.0000000  0  8                     
G 6  21394111.188   114002192.992        -480.406          38.000  
G 5  21394107.280   114002173.091        -480.272          45.000  
G20  21269512.322   113347424.593        -480.191          31.000  
G 3  21394337.594   114003381.777        -480.203          47.000  
G 9  21348650.576   113763305.581        -480.325          31.000  
G 4  21394339.412   114003405.062        -480.140          45.000  
G18  21487834.262   114494747.626        -479.202          32.000  
G 1  21394346.704   114003433.659        -479.960          38.000  
> 2019  6 16  1 21 52.0000000  0  8                     
G 6  21394202.739   114002673.124        -480.417          38.000  
G 5  21394198.819   114002653.227        -480.325          45.000  
G20  21269603.748   113347904.748        -481.040          30.000  
G 3  21394429.042   114003861.916        -480.341          47.000  
G 9  21348741.898   113763785.702        -480.369          31.000  
G 4  21394430.798   114003885.190        -480.233          46.000  
G18  21487925.821   114495231.8233       -480.459          32.000  
G 1  21394438.147   114003913.785        -480.079          38.000  
> 2019  6 16  1 21 53.0000000  0  8                     
G 6  21394294.190   114003153.234        -480.164          38.000  
G 5  21394290.333   114003133.337        -480.193          45.000  
G20  21269695.091   113348384.816        -480.270          31.000  
G 3  21394520.481   114004342.028        -480.205          47.000  
G 9  21348833.348   113764265.836        -480.729          31.000  
G 4  21394522.248   114004365.313        -480.206          46.000  
G18  21488017.287   114495711.9102       -480.012          32.000  
G 1  21394529.625   114004393.909        -480.083          38.000  
> 2019  6 16  1 21 54.0000000  0  8                     
G 6  21394385.631   114003633.423        -480.355          38.000  
G 5  21394381.834   114003613.528        -480.315          45.000  
G20  21269786.460   113348865.010        -480.525          31.000  
G 3  21394612.004   114004822.224        -480.381          47.000  
G 9  21348924.875   113764746.016        -480.431          31.000  
G 4  21394613.776   114004845.504        -480.414          46.000  
G18  21488108.819   114496192.0752       -479.562          32.000  
G 1  21394621.179   114004874.096        -480.181          38.000  
> 2019  6 16  1 21 55.0000000  0  8                     
G 6  21394477.126   114004113.699        -480.338          38.000  
G 5  21394473.407   114004093.811        -480.424          45.000  
G20  21269877.870   113349345.301        -480.469          31.000  
G 3  21394703.568   114005302.508        -480.583          47.000  
G 9  21349016.347   113765226.309        -481.039          31.000  
G 4  21394705.401   114005325.784        -480.592          45.000  
G18  21488200.355   114496672.362        -479.817          32.000  
G 1  21394712.832   114005354.384        -480.479          38.000  
> 2019  6 16  1 21 56.0000000  0  8                     
G 6  21394568.627   114004594.030        -480.153          38.000  
G 5  21394564.894   114004574.137        -480.342          44.000  
G20  21269969.337   113349825.614        -480.223          31.000  
G 3  21394795.024   114005782.831        -480.391          47.000  
G 9  21349107.875   113765706.624        -480.687          31.000  
G 4  21394796.834   114005806.114        -480.414          45.000  
G18  21488291.847   114497152.707        -480.688          32.000  
G 1  21394804.313   114005834.718        -480.443          38.000  
> 2019  6 16  1 21 57.0000000  0  8                     
G 6  21394660.041   114005074.268        -480.375          38.000  
G 5  21394656.394   114005054.366        -480.247          44.000  
G20  21270060.767   113350305.843        -479.849          31.000  
G 3  21394886.557   114006263.059        -480.260          47.000  
G 9  21349199.435   113766186.834        -479.783          31.000  
G 4  21394888.170   114006286.339        -480.339          46.000  
G18  21488383.355   114497632.921        -480.000          32.000  
G 1  21394895.753   114006314.948        -480.381          39.000  
> 2019  6 16  1 21 58.0000000  0  8                     
G 6  21394751.543   114005554.446        -480.081          38.000  
G 5  21394747.845   114005534.551        -480.055          45.000  
G20  21270152.165   113350786.019        -479.664          31.000  
G 3  21394977.909   114006743.247        -480.132          47.000  
G 9  21349290.942   113766667.041        -480.198          31.000  
G 4  21394979.649   114006766.528        -480.084          46.000  
G18  21488474.793   114498113.132        -480.017          32.000  
G 1  21394987.160   114006795.139        -480.352          39.000  
> 2019  6 16  1 22 26.0000000  0  8                     
G 6  21397313.187   114019003.494        -480.649          39.000  
G 5  21397309.279   114018983.604        -480.414          45.000  
G20  21272713.501   113364235.087        -480.053          31.000  
G 3  21397540.269   114020192.303        -480.291          48.000  
G 9  21351852.068   113780116.055        -479.595          32.000  
G 4  21397541.081   114020215.579        -480.338          47.000  
G18  21491036.159   114511562.196        -480.579          32.000  
G 1  21397549.563   114020244.206        -480.518          38.000  
> 2019  6 16  1 22 27.0000000  0  8                     
G 6  21397404.649   114019483.866        -480.687          39.000  
G 5  21397400.734   114019463.975        -480.513          45.000  
G20  21272804.958   113364715.470        -480.454          30.000  
G 3  21397631.823   114020672.675        -480.474          48.000  
G 9  21351943.529   113780596.429        -479.818          31.000  
G 4  21397632.574   114020695.954        -480.492          47.000  
G18  21491127.696   114512042.565        -480.092          31.000  
G 1  21397641.058   114020724.577        -480.703          38.000  
> 2019  6 16  1 22 28.0000000  0  8                     
G 6  21397496.146   114019964.114        -480.515          39.000  
G 5  21397492.224   114019944.217        -480.232          44.000  
G20  21272896.378   113365195.697        -479.770          30.000  
G 3  21397723.294   114021152.915        -480.199          48.000  
G 9  21352034.900   113781076.673        -479.807          31.000  
G 4  21397724.009   114021176.195        -480.289          47.000  
G18  21491219.306   114512539.2863       -479.366          31.000  
G 1  21397732.437   114021204.809        -480.334          38.000  
> 2019  6 16  1 22 29.0000000  0  8                     
G 6  21397587.599   114020444.360        -480.674          39.000  
G 5  21397583.693   114020424.466        -480.366          45.000  
G20  21272987.792   113365675.966        -480.195          31.000  
G 3  21397814.748   114021633.165        -480.356          48.000  
G 9  21352126.383   113781556.938        -479.844          31.000  
G 4  21397815.452   114021656.445        -480.353          47.000  
G18  21491310.713   114513019.5382       -479.817          32.000  
G 1  21397823.938   114021685.070        -480.490          38.000  
> 2019  6 16  1 22 30.0000000  0  8                     
G 6  21397679.135   114020924.602        -480.297          39.000  
G 5  21397675.154   114020904.721        -480.304          45.000  
G20  21273079.158   113366156.210        -480.343          31.000  
G 3  21397906.200   114022113.422        -480.281          48.000  
G 9  21352217.830   113782037.204        -479.961          31.000  
G 4  21397906.868   114022136.704        -480.305          46.000  
G18  21491402.204   114513499.8072       -480.343          32.000  
G 1  21397915.392   114022165.323        -480.488          38.000  
> 2019  6 16  1 22 31.0000000  0  8                     
G 6  21397770.673   114021404.855        -480.333          39.000  
G 5  21397766.615   114021384.964        -480.350          45.000  
G20  21273170.675   113366636.431        -479.733          30.000  
G 3  21397997.709   114022593.671        -480.420          48.000  
G 9  21352309.354   113782517.413        -480.012          31.000  
G 4  21397998.248   114022616.952        -480.411          47.000  
G18  21491493.585   114513979.5461       -480.238          32.000  
G 1  21398006.905   114022645.569        -480.564          38.000  
> 2019  6 16  1 22 32.0000000  0  8                     
G 6  21397862.114   114021885.079        -480.332          38.000  
G 5  21397858.073   114021865.187        -480.266          45.000  
G20  21273262.248   113367116.685        -480.240          30.000  
G 3  21398089.158   114023073.890        -480.255          48.000  
G 9  21352400.882   113782997.654        -480.057          31.000  
G 4  21398089.823   114023097.172        -480.286          48.000  
G18  21491585.092   114514459.757        -480.015          32.000  
G 1  21398098.314   114023125.778        -480.276          38.000  
> 2019  6 16  1 22 33.0000000  0  8                     
G 6  21397953.482   114022365.348        -480.349          38.000  
G 5  21397949.654   114022345.453        -480.376          45.000  
G20  21273353.669   113367596.948        -479.965          30.000  
G 3  21398180.549   114023554.158        -480.336          48.000  
G 9  21352492.276   113783477.904        -479.713          31.000  
G 4  21398181.453   114023577.454        -480.334          47.000  
G18  21491676.605   114514942.5393       -480.084          32.000  
G 1  21398189.708   114023606.050        -480.400          38.000  
> 2019  6 16  1 22 34.0000000  0  8                     
G 6  21398044.982   114022845.624        -480.244          39.000  
G 5  21398041.244   114022825.737        -480.319          45.000  
G20  21273445.159   113368077.225        -480.051          31.000  
G 3  21398271.925   114024034.444        -480.455          48.000  
G 9  21352583.681   113783958.235        -480.297          31.000  
G 4  21398273.163   114024057.720        -480.394          47.000  
G18  21491768.041   114515422.8122       -480.034          32.000  
G 1  21398281.192   114024086.335        -480.547          38.000  
> 2019  6 16  1 22 35.0000000  0  8                     
G 6  21398136.535   114023325.913        -480.173          38.000  
G 5  21398132.827   114023306.037        -480.620          44.000  
G20  21273536.658   113368557.503        -479.984          31.000  
G 3  21398363.351   114024514.711        -480.416          48.000  
G 9  21352675.073   113784438.471        -479.576          31.000  
G 4  21398364.523   114024537.981        -480.126          47.000  
G18  21491859.544   114515903.1212       -480.656          32.000  
G 1  21398372.686   114024566.616        -480.157          39.000  
> 2019  6 16  1 22 36.0000000  0  8                     
G 6  21398228.122   114023806.117        -480.333          38.000  
G 5  21398224.387   114023786.261        -480.405          45.000  
G20  21273628.080   113369037.723        -479.786          31.000  
G 3  21398454.795   114024994.922        -480.292          47.000  
G 9  21352766.479   113784918.728        -479.681          31.000  
G 4  21398456.030   114025018.214        -480.276          47.000  
G18  21491951.087   114516383.3242       -480.139          31.000  
G 1  21398464.088   114025046.801        -480.360          38.000  
> 2019  6 16  1 22 37.0000000  0  8                     
G 6  21398319.637   114024286.301        -480.345          39.000  
G 5  21398316.033   114024266.448        -480.283          46.000  
G20  21273719.573   113369517.921        -480.133          31.000  
G 3  21398546.327   114025475.124        -480.413          48.000  
G 9  21352857.832   113785398.944        -480.222          31.000  
G 4  21398547.449   114025498.414        -480.316          47.000  
G18  21492042.667   114516866.4703       -479.208          32.000  
G 1  21398555.457   114025527.002        -480.277          38.000  
> 2019  6 16  1 22 38.0000000  0  8                     
G 6  21398411.227   114024766.553        -480.217          39.000  
G 5  21398407.640   114024746.694        -480.087          46.000  
G20  21273811.130   113369998.157        -479.987          31.000  
G 3  21398637.820   114025955.370        -480.150          48.000  
G 9  21352949.316   113785879.169        -479.712          32.000  
G 4  21398639.111   114025978.672        -480.140          47.000  
G18  21492134.276   114517346.7392       -479.606          33.000  
G 1  21398646.896   114026007.250        -480.033          38.000  
> 2019  6 16  1 22 39.0000000  0  8                     
G 6  21398502.698   114025246.753        -480.223          39.000  
G 5  21398499.301   114025226.912        -480.229          46.000  
G20  21273902.567   113370478.385        -480.139          31.000  
G 3  21398729.269   114026435.585        -480.298          48.000  
G 9  21353040.918   113786359.357        -479.913          31.000  
G 4  21398730.640   114026458.882        -480.244          46.000  
G18  21492225.812   114517826.9522       -479.874          33.000  
G 1  21398738.266   114026487.462        -480.232          38.000  
> 2019  6 16  1 22 40.0000000  0  8                     
G 6  21398594.212   114025726.929        -480.226          39.000  
G 5  21398590.857   114025707.075        -480.237          46.000  
G20  21273994.084   113370958.553        -480.139          31.000  
G 3  21398820.721   114026915.751        -480.319          48.000  
G 9  21353132.392   113786839.521        -479.746          32.000  
G 4  21398822.330   114026939.048        -480.183          47.000  
G18  21492317.367   114518307.1212       -480.066          33.000  
G 1  21398829.673   114026967.631        -480.168          38.000  
> 2019  6 16  1 22 41.0000000  0  8                     
G 6  21398685.655   114026207.035        -480.248          39.000  
G 5  21398682.367   114026187.176        -480.232          46.000  
G20  21274085.648   113371438.641        -479.903          31.000  
G 3  21398912.214   114027395.856        -480.363          48.000  
G 9  21353223.900   113787319.662        -479.974          31.000  
G 4  21398913.917   114027419.156        -480.299          47.000  
G18  21492408.809   114518787.2282       -479.822          33.000  
G 1  21398920.896   114027447.729        -480.155          38.000  
> 2019  6 16  1 22 42.0000000  0  8                     
G 6  21398777.121   114026687.057        -480.339          39.000  
G 5  21398773.794   114026667.195        -480.103          46.000  
G20  21274177.124   113371918.679        -480.152          31.000  
G 3  21399003.618   114027875.871        -480.148          48.000  
G 9  21353315.264   113787799.645        -479.427          31.000  
G 4  21399005.467   114027899.174        -480.145          47.000  
G18  21492500.414   114519267.2622       -480.124          33.000  
G 1  21399012.297   114027927.748        -480.112          38.000  
> 2019  6 16  1 22 43.0000000  0  8                     
G 6  21398868.518   114027167.134        -480.348          39.000  
G 5  21398865.287   114027147.277        -480.265          46.000  
G20  21274268.471   113372398.743        -480.041          31.000  
G 3  21399095.030   114028355.947        -480.255          48.000  
G 9  21353406.671   113788279.725        -479.781          32.000  
G 4  21399096.987   114028379.242        -480.109          47.000  
G18  21492591.990   114519746.8111       -479.832          33.000  
G 1  21399103.723   114028407.830        -480.142          38.000  
> 2019  6 16  1 22 44.0000000  0  8                     
G 6  21398959.961   114027647.208        -480.173          39.000  
G 5  21398956.664   114027627.353        -480.107          46.000  
G20  21274359.997   113372878.841        -480.537          30.000  
G 3  21399186.492   114028836.023        -480.100          48.000  
G 9  21353498.056   113788759.811        -480.275          31.000  
G 4  21399188.412   114028859.320        -480.081          47.000  
G18  21492683.496   114520233.4003       -479.609          32.000  
G 1  21399195.184   114028887.910        -480.172          38.000  
> 2019  6 16  1 22 45.0000000  0  8                     
G 6  21399051.438   114028127.367        -480.153          39.000  
G 5  21399048.065   114028107.498        -480.072          46.000  
G20  21274451.448   113373358.963        -479.873          30.000  
G 3  21399277.978   114029316.175        -480.153          48.000  
G 9  21353589.482   113789239.960        -480.350          31.000  
G 4  21399279.865   114029339.472        -480.039          47.000  
G18  21492775.161   114520713.5882       -480.933          33.000  
G 1  21399286.686   114029368.071        -480.315          38.000  
> 2019  6 16  1 22 46.0000000  0  8                     
G 6  21399143.041   114028607.537        -480.430          39.000  
G 5  21399139.598   114028587.661        -480.193          46.000  
G20  21274542.991   113373839.128        -480.338          30.000  
G 3  21399369.426   114029796.337        -480.308          48.000  
G 9  21353680.821   113789720.127        -480.352          32.000  
G 4  21399371.419   114029819.631        -480.214          46.000  
G18  21492866.797   114521193.7202       -480.350          32.000  
G 1  21399378.110   114029848.213        -480.062          38.000  
> 2019  6 16  1 22 47.0000000  0  8                     
G 6  21399234.536   114029087.649        -480.063          39.000  
G 5  21399231.009   114029067.782        -479.984          45.000  
G20  21274634.425   113374319.253        -479.877          30.000  
G 3  21399460.941   114030276.459        -480.100          48.000  
G 9  21353772.261   113790200.254        -480.201          31.000  
G 4  21399462.831   114030299.755        -480.015          46.000  
G18  21492958.237   114521673.9012       -480.975          32.000  
G 1  21399469.598   114030328.335        -479.790          38.000  
> 2019  6 16  1 22 48.0000000  0  8                     
G 6  21399326.051   114029567.759        -480.153          39.000  
G 5  21399322.469   114029547.883        -480.057          46.000  
G20  21274725.893   113374799.369        -480.184          31.000  
G 3  21399552.398   114030756.560        -480.095          48.000  
G 9  21353863.729   113790680.353        -480.228          31.000  
G 4  21399554.241   114030779.857        -480.011          47.000  
G18  21493049.738   114522153.9632       -480.475          33.000  
G 1  21399561.088   114030808.453        -480.020          38.000  
> 2019  6 16  1 22 49.0000000  0  8                     
G 6  21399417.447   114030047.789        -480.029          39.000  
G 5  21399413.969   114030027.916        -479.910          46.000  
G20  21274817.389   113375279.395        -479.844          30.000  
G 3  21399643.833   114031236.592        -479.972          48.000  
G 9  21353955.258   113791160.399        -480.308          31.000  
G 4  21399645.678   114031259.888        -479.919          47.000  
G18  21493141.200   114522633.5641       -481.710          32.000  
G 1  21399652.583   114031288.482        -479.918          38.000  
> 2019  6 16  1 22 50.0000000  0  8                     
G 6  21399508.836   114030527.842        -480.068          38.000  
G 5  21399505.308   114030507.975        -480.127          46.000  
G20  21274908.802   113375759.437        -479.896          30.000  
G 3  21399735.328   114031716.657        -480.132          48.000  
G 9  21354046.750   113791640.458        -480.549          31.000  
G 4  21399737.105   114031739.950        -480.087          47.000  
G18  21493232.711   114523113.571        -480.726          32.000  
G 1  21399744.162   114031768.548        -479.962          38.000  
> 2019  6 16  1 22 51.0000000  0  8                     
G 6  21399600.172   114031007.891        -479.822          38.000  
G 5  21399596.753   114030988.032        -479.945          46.000  
G20  21275000.263   113376239.497        -479.980          30.000  
G 3  21399826.790   114032196.717        -479.945          48.000  
G 9  21354138.219   113792120.534        -480.498          31.000  
G 4  21399828.594   114032220.009        -479.939          47.000  
G18  21493324.269   114523593.642        -480.331          32.000  
G 1  21399835.827   114032248.610        -479.812          38.000  
> 2019  6 16  1 22 52.0000000  0  8                     
G 6  21399691.569   114031487.978        -479.490          38.000  
G 5  21399688.088   114031468.129        -479.822          46.000  
G20  21275091.766   113376719.579        -479.567          30.000  
G 3  21399918.216   114032676.808        -479.794          48.000  
G 9  21354229.568   113792600.616        -480.227          31.000  
G 4  21399920.053   114032700.100        -479.843          47.000  
G18  21493415.792   114524073.734        -480.219          32.000  
G 1  21399927.325   114032728.688        -479.617          38.000  
> 2019  6 16  1 22 53.0000000  0  8                     
G 6  21399783.022   114031968.040        -479.844          38.000  
G 5  21399779.455   114031948.194        -480.184          46.000  
G20  21275183.203   113377199.660        -480.173          30.000  
G 3  21400009.636   114033156.875        -480.177          48.000  
G 9  21354320.908   113793080.693        -481.102          31.000  
G 4  21400011.474   114033180.172        -480.201          47.000  
G18  21493507.269   114524562.2933       -480.371          32.000  
G 1  21400018.738   114033208.773        -480.190          38.000  
> 2019  6 16  1 22 54.0000000  0  8                     
G 6  21399874.425   114032448.096        -479.692          39.000  
G 5  21399870.991   114032428.253        -480.111          46.000  
G20  21275274.737   113377679.713        -479.888          31.000  
G 3  21400101.068   114033636.935        -480.083          48.000  
G 9  21354412.246   113793560.733        -480.564          31.000  
G 4  21400102.819   114033660.232        -480.187          47.000  
G18  21493598.718   114525042.3562       -480.337          32.000  
G 1  21400110.226   114033688.823        -479.921          38.000  
> 2019  6 16  1 22 55.0000000  0  8                     
G 6  21399965.692   114032928.230        -479.719          39.000  
G 5  21399962.408   114032908.384        -480.022          46.000  
G20  21275366.269   113378159.852        -479.981          30.000  
G 3  21400192.478   114034117.064        -480.007          48.000  
G 9  21354503.704   113794040.873        -480.510          31.000  
G 4  21400194.251   114034140.360        -480.103          47.000  
G18  21493690.161   114525521.9631       -479.954          32.000  
G 1  21400201.629   114034168.955        -479.886          38.000  
