     3.02           OBSERVATION DATA    G: GPS              RINEX VERSION / TYPE
RTKCONV 2.4.3                           20200430 005955 UTC PGM / RUN BY / DATE 
log: D:\FastData\IF_Test\0429-C7สตั้\2020-04-29-zhanghan-u  COMMENT             
format: u-blox                                              COMMENT             
                                                            MARKER NAME         
                                                            MARKER NUMBER       
                                                            MARKER TYPE         
                                                            OBSERVER / AGENCY   
                                                            REC # / TYPE / VERS 
                                                            ANT # / TYPE        
        0.0000        0.0000        0.0000                  APPROX POSITION XYZ 
        0.0000        0.0000        0.0000                  ANTENNA: DELTA H/E/N
G    4 C1C L1C D1C S1C                                      SYS / # / OBS TYPES 
  2019     6    16     1    13   10.0000000     GPS         TIME OF FIRST OBS   
  2019     6    16     1    18   16.0000000     GPS         TIME OF LAST OBS    
G                                                           SYS / PHASE SHIFT   
  0                                                         GLONASS SLOT / FRQ #
 C1C    0.000 C1P    0.000 C2C    0.000 C2P    0.000        GLONASS COD/PHS/BIS 
                                                            END OF HEADER       
> 2019  6 16  1 13 10.0000000  0  8                     
G 1  21398389.616   114024681.168        -521.498          38.000  
G 4  21398379.877   114024653.821        -521.398          46.000  
G 2  21398384.528   114024637.090        -521.602          44.000  
G 6  21398155.073   114023456.654        -521.630          45.000  
G11  21563374.487   114891717.206        -521.292          32.000  
G 3  21398380.708   114024603.563        -521.553          44.000  
G22  21452629.859   114309631.566        -521.211          32.000  
G12  21342131.025   113728951.096        -522.126          30.000  
> 2019  6 16  1 13 11.0000000  0  8                     
G 1  21398488.903   114025202.631        -521.388          38.000  
G 4  21398479.202   114025175.268        -521.289          46.000  
G 2  21398483.876   114025158.537        -521.454          45.000  
G 6  21398254.336   114023978.106        -521.508          45.000  
G11  21563473.754   114892238.646        -521.000          32.000  
G 3  21398479.986   114025125.015        -521.528          44.000  
G22  21452729.106   114310153.028        -521.361          32.000  
G12  21342230.333   113729472.537        -521.233          30.000  
> 2019  6 16  1 13 12.0000000  0  8                     
G 1  21398588.316   114025724.113        -521.632          38.000  
G 4  21398578.604   114025696.753        -521.487          46.000  
G 2  21398583.127   114025680.015        -521.672          43.000  
G 6  21398353.779   114024499.576        -521.626          45.000  
G11  21563573.105   114892760.157        -521.487          31.000  
G 3  21398579.324   114025646.483        -521.588          44.000  
G22  21452828.477   114310674.497        -521.484          33.000  
G12  21342329.648   113729994.012        -521.678          31.000  
> 2019  6 16  1 13 13.0000000  0  8                     
G 1  21398687.750   114026245.620        -521.787          38.000  
G 4  21398677.954   114026218.262        -521.462          47.000  
G 2  21398682.430   114026201.524        -521.641          44.000  
G 6  21398453.162   114025021.087        -521.620          45.000  
G11  21563672.522   114893281.633        -521.268          32.000  
G 3  21398678.657   114026167.991        -521.569          44.000  
G22  21452927.774   114311195.968        -521.230          33.000  
G12  21342428.980   113730515.519        -521.454          31.000  
> 2019  6 16  1 13 14.0000000  0  8                     
G 1  21398787.064   114026767.163        -521.824          38.000  
G 4  21398777.392   114026739.808        -521.519          47.000  
G 2  21398781.786   114026723.071        -521.642          44.000  
G 6  21398552.594   114025542.636        -521.600          45.000  
G11  21563771.971   114893803.177        -521.251          31.000  
G 3  21398777.952   114026689.541        -521.555          44.000  
G22  21453027.157   114311717.557        -521.851          32.000  
G12  21342528.163   113731037.060        -521.230          31.000  
> 2019  6 16  1 13 15.0000000  0  8                     
G 1  21398886.318   114027288.579        -521.805          38.000  
G 4  21398876.615   114027261.215        -521.572          47.000  
G 2  21398881.019   114027244.475        -521.501          44.000  
G 6  21398651.896   114026064.040        -521.554          45.000  
G11  21563871.338   114894324.588        -521.057          31.000  
G 3  21398877.215   114027210.941        -521.401          44.000  
G22  21453126.479   114312238.917        -521.156          31.000  
G12  21342627.422   113731558.482        -521.815          31.000  
> 2019  6 16  1 13 16.0000000  0  8                     
G 1  21398985.438   114027810.092        -521.863          38.000  
G 4  21398975.835   114027782.744        -521.614          46.000  
G 2  21398980.375   114027766.014        -521.782          44.000  
G 6  21398751.233   114026585.564        -521.542          45.000  
G11  21563970.689   114894846.135        -521.708          31.000  
G 3  21398976.563   114027732.484        -521.555          44.000  
G22  21453225.914   114312760.457        -520.977          32.000  
G12  21342726.788   113732079.987        -521.506          31.000  
> 2019  6 16  1 13 17.0000000  0  8                     
G 1  21399084.835   114028331.596        -521.923          37.000  
G 4  21399075.242   114028304.233        -521.599          46.000  
G 2  21399079.676   114028287.492        -521.603          44.000  
G 6  21398850.458   114027107.041        -521.481          45.000  
G11  21564069.931   114895367.625        -521.022          31.000  
G 3  21399075.782   114028253.966        -521.600          44.000  
G22  21453325.288   114313281.970        -521.454          32.000  
G12  21342826.222   113732601.484        -521.918          31.000  
> 2019  6 16  1 13 18.0000000  0  8                     
G 1  21399184.401   114028853.126        -521.582          37.000  
G 4  21399174.615   114028825.756        -521.400          46.000  
G 2  21399179.042   114028809.027        -521.470          44.000  
G 6  21398949.772   114027628.565        -521.293          45.000  
G11  21564169.236   114895889.129        -520.912          32.000  
G 3  21399175.010   114028775.490        -521.365          45.000  
G22  21453424.512   114313803.483        -521.562          32.000  
G12  21342925.591   113733123.013        -521.052          31.000  
> 2019  6 16  1 13 19.0000000  0  8                     
G 1  21399283.652   114029374.606        -521.646          37.000  
G 4  21399273.926   114029347.256        -521.667          46.000  
G 2  21399278.405   114029330.532        -521.572          44.000  
G 6  21399049.177   114028150.067        -521.390          45.000  
G11  21564268.502   114896410.635        -520.950          31.000  
G 3  21399274.345   114029296.991        -521.533          45.000  
G22  21453523.802   114314324.991        -521.641          31.000  
G12  21343024.963   113733644.511        -521.428          31.000  
> 2019  6 16  1 13 20.0000000  0  8                     
G 1  21399382.816   114029896.148        -521.832          37.000  
G 4  21399373.180   114029868.791        -521.746          46.000  
G 2  21399377.763   114029852.059        -521.578          44.000  
G 6  21399148.546   114028671.608        -521.487          45.000  
G11  21564367.932   114896932.223        -522.749          31.000  
G 3  21399373.718   114029818.528        -521.622          45.000  
G22  21453623.024   114314846.540        -521.843          32.000  
G12  21343124.235   113734166.029        -521.456          31.000  
> 2019  6 16  1 13 21.0000000  0  8                     
G 1  21399482.248   114030417.638        -521.803          38.000  
G 4  21399472.430   114030390.277        -521.705          47.000  
G 2  21399477.059   114030373.544        -521.573          44.000  
G 6  21399248.010   114029193.092        -521.543          45.000  
G11  21564467.089   114897453.678        -521.805          32.000  
G 3  21399473.018   114030340.005        -521.591          45.000  
G22  21453722.393   114315368.017        -521.689          32.000  
G12  21343223.585   113734687.502        -521.575          31.000  
> 2019  6 16  1 13 22.0000000  0  8                     
G 1  21399581.528   114030939.080        -521.561          38.000  
G 4  21399571.677   114030911.733        -521.534          46.000  
G 2  21399576.351   114030894.998        -521.377          44.000  
G 6  21399347.287   114029714.545        -521.342          45.000  
G11  21564566.405   114897975.127        -521.892          32.000  
G 3  21399572.375   114030861.454        -521.354          45.000  
G22  21453821.874   114315889.487        -521.548          32.000  
G12  21343322.957   113735208.951        -521.095          31.000  
> 2019  6 16  1 13 23.0000000  0  8                     
G 1  21399680.716   114031460.550        -521.498          37.000  
G 4  21399671.058   114031433.209        -521.654          46.000  
G 2  21399675.670   114031416.468        -521.576          44.000  
G 6  21399446.651   114030236.018        -521.370          45.000  
G11  21564665.637   114898496.593        -521.965          32.000  
G 3  21399671.845   114031382.928        -521.464          45.000  
G22  21453921.235   114316410.973        -521.934          32.000  
G12  21343422.388   113735730.446        -521.279          31.000  
> 2019  6 16  1 13 24.0000000  0  8                     
G 1  21399780.016   114031981.999        -521.780          37.000  
G 4  21399770.396   114031954.651        -521.630          46.000  
G 2  21399774.980   114031937.919        -521.542          44.000  
G 6  21399545.988   114030757.453        -521.442          45.000  
G11  21564764.881   114899018.072        -522.279          31.000  
G 3  21399771.238   114031904.377        -521.495          45.000  
G22  21454020.597   114316932.393        -521.788          33.000  
G12  21343521.735   113736251.886        -521.260          31.000  
> 2019  6 16  1 13 25.0000000  0  8                     
G 1  21399879.264   114032503.558        -521.527          37.000  
G 4  21399869.776   114032476.226        -521.781          46.000  
G 2  21399874.414   114032459.491        -521.547          44.000  
G 6  21399645.484   114031279.041        -521.677          45.000  
G11  21564864.057   114899539.618        -521.747          31.000  
G 3  21399870.636   114032425.952        -521.610          45.000  
G22  21454119.796   114317453.960        -521.912          32.000  
G12  21343621.063   113736773.457        -521.310          31.000  
> 2019  6 16  1 13 26.0000000  0  8                     
G 1  21399978.526   114033025.265        -521.621          37.000  
G 4  21399969.138   114032997.934        -521.831          46.000  
G 2  21399973.827   114032981.205        -521.791          43.000  
G 6  21399744.812   114031800.754        -521.747          45.000  
G11  21564963.377   114900061.357        -522.288          32.000  
G 3  21399970.046   114032947.661        -521.851          45.000  
G22  21454219.206   114317975.712        -521.957          33.000  
G12  21343720.376   113737295.173        -521.835          31.000  
> 2019  6 16  1 13 27.0000000  0  8                     
G 1  21400077.701   114033546.950        -521.683          37.000  
G 4  21400068.501   114033519.609        -521.722          46.000  
G 2  21400073.219   114033502.876        -521.549          44.000  
G 6  21399844.252   114032322.428        -521.794          45.000  
G11  21565062.726   114900583.028        -522.024          32.000  
G 3  21400069.509   114033469.344        -521.740          45.000  
G22  21454318.529   114318497.359        -522.144          32.000  
G12  21343819.665   113737816.822        -521.360          30.000  
> 2019  6 16  1 13 28.0000000  0  8                     
G 1  21400177.083   114034068.520        -521.350          37.000  
G 4  21400167.758   114034041.183        -521.500          46.000  
G 2  21400172.584   114034024.446        -521.376          44.000  
G 6  21399943.450   114032843.999        -521.425          45.000  
G11  21565161.987   114901104.595        -521.980          32.000  
G 3  21400168.887   114033990.914        -521.528          45.000  
G22  21454417.792   114319018.940        -521.803          32.000  
G12  21343919.077   113738338.421        -521.746          30.000  
> 2019  6 16  1 13 29.0000000  0  8                     
G 1  21400276.509   114034590.122        -521.384          37.000  
G 4  21400267.125   114034562.781        -521.483          46.000  
G 2  21400271.884   114034546.046        -521.420          44.000  
G 6  21400042.855   114033365.603        -521.434          45.000  
G11  21565261.276   114901626.194        -521.913          32.000  
G 3  21400268.214   114034512.518        -521.611          45.000  
G22  21454517.219   114319540.553        -521.692          32.000  
G12  21344018.470   113738860.036        -521.608          31.000  
> 2019  6 16  1 13 30.0000000  0  8                     
G 1  21400375.746   114035111.634        -521.034          37.000  
G 4  21400366.523   114035084.295        -521.217          46.000  
G 2  21400371.151   114035067.561        -521.150          44.000  
G 6  21400142.203   114033887.117        -521.218          45.000  
G11  21565360.593   114902147.712        -521.653          32.000  
G 3  21400367.589   114035034.036        -521.344          45.000  
G22  21454616.539   114320062.050        -521.311          32.000  
G12  21344117.785   113739381.544        -521.339          31.000  
> 2019  6 16  1 13 31.0000000  0  8                     
G 1  21400475.086   114035633.088        -521.429          37.000  
G 4  21400465.794   114035605.738        -521.356          46.000  
G 2  21400470.327   114035589.006        -521.406          44.000  
G 6  21400241.596   114034408.563        -521.366          45.000  
G11  21565459.901   114902669.150        -521.985          32.000  
G 3  21400466.910   114035555.475        -521.416          45.000  
G22  21454715.814   114320583.505        -521.398          33.000  
G12  21344217.173   113739902.990        -521.656          31.000  
> 2019  6 16  1 13 32.0000000  0  8                     
G 1  21400574.468   114036154.468        -521.401          37.000  
G 4  21400565.106   114036127.118        -521.366          46.000  
G 2  21400569.679   114036110.396        -521.388          44.000  
G 6  21400340.987   114034929.942        -521.423          45.000  
G11  21565559.283   114903190.543        -521.901          32.000  
G 3  21400566.240   114036076.858        -521.526          45.000  
G22  21454815.111   114321104.873        -521.459          32.000  
G12  21344316.539   113740424.362        -521.373          31.000  
> 2019  6 16  1 13 33.0000000  0  8                     
G 1  21400673.770   114036675.829        -521.445          37.000  
G 4  21400664.229   114036648.480        -521.425          46.000  
G 2  21400669.005   114036631.758        -521.467          44.000  
G 6  21400440.294   114035451.310        -521.506          45.000  
G11  21565658.515   114903711.905        -521.971          31.000  
G 3  21400665.580   114036598.221        -521.538          45.000  
G22  21454914.405   114321626.234        -521.423          32.000  
G12  21344415.948   113740945.716        -521.747          31.000  
> 2019  6 16  1 13 34.0000000  0  8                     
G 1  21400772.929   114037197.208        -521.434          37.000  
G 4  21400763.602   114037169.854        -521.099          46.000  
G 2  21400768.250   114037153.129        -521.238          44.000  
G 6  21400539.571   114035972.683        -521.263          45.000  
G11  21565757.697   114904233.270        -521.329          32.000  
G 3  21400764.954   114037119.592        -521.160          44.000  
G22  21455013.788   114322147.643        -522.146          31.000  
G12  21344515.404   113741467.102        -521.538          31.000  
> 2019  6 16  1 13 35.0000000  0  8                     
G 1  21400872.227   114037718.609        -521.608          37.000  
G 4  21400862.879   114037691.247        -521.169          45.000  
G 2  21400867.621   114037674.522        -521.227          44.000  
G 6  21400638.919   114036494.073        -521.351          45.000  
G11  21565857.058   114904754.642        -520.599          31.000  
G 3  21400864.303   114037640.986        -521.335          45.000  
G22  21455113.019   114322669.022        -521.666          32.000  
G12  21344614.719   113741988.505        -521.641          31.000  
> 2019  6 16  1 13 36.0000000  0  8                     
G 1  21400971.581   114038240.015        -521.584          37.000  
G 4  21400962.227   114038212.667        -521.344          46.000  
G 2  21400966.909   114038195.950        -521.456          44.000  
G 6  21400738.191   114037015.497        -521.542          44.000  
G11  21565956.369   114905276.103        -522.017          31.000  
G 3  21400963.569   114038162.405        -521.447          45.000  
G22  21455212.331   114323190.445        -521.339          32.000  
G12  21344714.162   113742509.931        -521.467          31.000  
> 2019  6 16  1 13 37.0000000  0  8                     
G 1  21401070.807   114038761.496        -521.597          37.000  
G 4  21401061.504   114038734.134        -521.133          45.000  
G 2  21401066.282   114038717.421        -521.326          44.000  
G 6  21400837.434   114037536.960        -521.353          45.000  
G11  21566055.675   114905797.565        -521.473          31.000  
G 3  21401062.866   114038683.873        -521.230          44.000  
G22  21455311.562   114323711.906        -521.572          31.000  
G12  21344813.408   113743031.397        -521.332          31.000  
> 2019  6 16  1 13 38.0000000  0  8                     
G 1  21401170.195   114039283.001        -521.838          37.000  
G 4  21401160.878   114039255.644        -521.469          46.000  
G 2  21401165.665   114039238.924        -521.597          44.000  
G 6  21400936.699   114038058.466        -521.542          45.000  
G11  21566154.936   114906319.016        -520.673          31.000  
G 3  21401162.320   114039205.382        -521.606          45.000  
G22  21455410.880   114324233.421        -521.996          32.000  
G12  21344912.779   113743552.896        -521.628          31.000  
> 2019  6 16  1 13 39.0000000  0  8                     
G 1  21401269.532   114039804.478        -521.926          37.000  
G 4  21401260.200   114039777.116        -521.465          45.000  
G 2  21401265.025   114039760.400        -521.595          44.000  
G 6  21401036.105   114038579.945        -521.534          45.000  
G11  21566254.356   114906840.529        -521.826          32.000  
G 3  21401261.631   114039726.855        -521.521          44.000  
G22  21455510.205   114324754.904        -521.710          32.000  
G12  21345012.005   113744074.392        -522.286          31.000  
> 2019  6 16  1 13 40.0000000  0  8                     
G 1  21401368.676   114040325.868        -521.672          37.000  
G 4  21401359.502   114040298.521        -521.462          45.000  
G 2  21401364.332   114040281.800        -521.514          44.000  
G 6  21401135.511   114039101.352        -521.567          45.000  
G11  21566353.523   114907361.918        -521.241          32.000  
G 3  21401360.975   114040248.255        -521.482          44.000  
G22  21455609.484   114325276.307        -522.032          33.000  
G12  21345111.319   113744595.760        -521.558          31.000  
> 2019  6 16  1 13 41.0000000  0  8                     
G 1  21401467.789   114040847.290        -521.411          38.000  
G 4  21401458.815   114040819.938        -521.180          45.000  
G 2  21401463.619   114040803.219        -521.279          44.000  
G 6  21401234.797   114039622.758        -521.217          44.000  
G11  21566452.778   114907883.356        -521.338          32.000  
G 3  21401460.370   114040769.677        -521.183          44.000  
G22  21455708.674   114325797.715        -521.707          32.000  
G12  21345210.781   113745117.166        -520.540          31.000  
> 2019  6 16  1 13 42.0000000  0  8                     
G 1  21401567.126   114041368.667        -521.719          37.000  
G 4  21401558.138   114041341.290        -521.132          45.000  
G 2  21401562.935   114041324.576        -521.285          44.000  
G 6  21401334.038   114040144.124        -521.327          44.000  
G11  21566552.032   114908404.722        -521.299          32.000  
G 3  21401559.683   114041291.030        -521.257          45.000  
G22  21455808.034   114326319.090        -521.810          33.000  
G12  21345310.284   113745638.541        -521.375          31.000  
> 2019  6 16  1 13 43.0000000  0  8                     
G 1  21401666.371   114041890.028        -521.718          37.000  
G 4  21401657.488   114041862.682        -521.558          45.000  
G 2  21401662.239   114041845.952        -521.455          43.000  
G 6  21401433.334   114040665.506        -521.636          44.000  
G11  21566651.305   114908926.088        -521.733          31.000  
G 3  21401659.012   114041812.425        -521.667          44.000  
G22  21455907.311   114326840.447        -521.407          32.000  
G12  21345409.581   113746159.992        -523.243          31.000  
> 2019  6 16  1 13 44.0000000  0  8                     
G 1  21401765.599   114042411.469        -521.654          37.000  
G 4  21401756.844   114042384.112        -521.469          45.000  
G 2  21401761.511   114042367.386        -521.387          44.000  
G 6  21401532.510   114041186.937        -521.483          45.000  
G11  21566750.593   114909447.548        -521.992          31.000  
G 3  21401758.343   114042333.844        -521.396          44.000  
G22  21456006.672   114327361.881        -521.713          32.000  
G12  21345508.699   113746681.334        -521.616          30.000  
> 2019  6 16  1 13 45.0000000  0  8                     
G 1  21401864.903   114042932.937        -521.698          37.000  
G 4  21401856.138   114042905.589        -521.604          45.000  
G 2  21401860.845   114042956.8753       -521.724          44.000  
G 6  21401631.903   114041708.413        -521.508          44.000  
G11  21566849.840   114909969.112        -524.089          31.000  
G 3  21401857.659   114042855.335        -521.571          44.000  
G22  21456106.042   114327883.237        -519.229          31.000  
G12  21345608.113   113747202.790        -520.269          30.000  
> 2019  6 16  1 13 46.0000000  0  8                     
G 1  21401964.236   114043454.403        -521.549          37.000  
G 4  21401955.526   114043427.050        -521.531          45.000  
G 2  21401960.139   114043479.3223       -521.405          44.000  
G 6  21401731.166   114042229.880        -521.538          44.000  
G11  21566949.078   114910501.4623       -522.161          30.000  
G 3  21401956.974   114043376.787        -521.533          44.000  
G22  21456205.634   114328404.837        -521.542          31.000  
G12  21345707.595   113747724.304        -522.048          30.000  
> 2019  6 16  1 13 47.0000000  0  8                     
G 1  21402063.593   114043975.862        -521.523          37.000  
G 4  21402054.865   114043948.512        -521.462          45.000  
G 2  21402059.498   114044000.7812       -521.323          44.000  
G 6  21401830.462   114042751.340        -521.461          44.000  
G11  21567048.381   114911022.8902       -521.133          31.000  
G 3  21402056.189   114043898.244        -521.403          44.000  
G22  21456304.862   114328926.290        -521.404          32.000  
G12  21345806.911   113748245.782        -521.852          31.000  
> 2019  6 16  1 13 48.0000000  0  8                     
G 1  21402163.014   114044497.297        -521.257          37.000  
G 4  21402154.223   114044469.955        -521.581          45.000  
G 2  21402158.905   114044522.2272       -521.423          44.000  
G 6  21401929.805   114043272.773        -521.487          44.000  
G11  21567147.693   114911544.3172       -520.442          31.000  
G 3  21402155.492   114044419.685        -521.422          44.000  
G22  21456404.271   114329447.711        -521.515          32.000  
G12  21345906.265   113748767.247        -522.241          31.000  
> 2019  6 16  1 13 49.0000000  0  8                     
G 1  21402262.443   114045018.780        -521.051          37.000  
G 4  21402253.487   114044991.436        -521.279          45.000  
G 2  21402258.282   114045045.7003       -521.228          44.000  
G 6  21402029.082   114043794.260        -521.332          45.000  
G11  21567246.996   114912065.825        -520.981          31.000  
G 3  21402254.710   114044941.160        -521.206          45.000  
G22  21456503.567   114329969.200        -521.433          33.000  
G12  21346005.630   113749436.2003       -521.792          31.000  
> 2019  6 16  1 13 50.0000000  0  8                     
G 1  21402361.941   114045540.127        -521.213          37.000  
G 4  21402352.901   114045512.779        -521.279          46.000  
G 2  21402357.578   114045567.0322       -521.156          44.000  
G 6  21402128.397   114044315.594        -521.204          45.000  
G11  21567346.295   114912589.1513       -520.629          31.000  
G 3  21402354.021   114045462.490        -521.023          45.000  
G22  21456602.844   114330490.538        -521.471          33.000  
G12  21346105.006   113749957.5292       -521.611          31.000  
> 2019  6 16  1 13 51.0000000  0  8                     
G 1  21402461.241   114046061.465        -520.868          37.000  
G 4  21402452.273   114046034.136        -521.212          45.000  
G 2  21402456.898   114046088.3782       -521.074          44.000  
G 6  21402227.710   114044836.953        -521.240          45.000  
G11  21567445.549   114913110.5152       -520.819          32.000  
G 3  21402453.318   114045983.858        -520.957          44.000  
G22  21456702.262   114331011.901        -521.350          33.000  
G12  21346204.478   113750478.8912       -521.688          31.000  
> 2019  6 16  1 13 52.0000000  0  8                     
G 1  21402560.537   114046582.892        -521.315          37.000  
G 4  21402551.611   114046555.551        -521.655          45.000  
G 2  21402556.284   114046609.8192       -521.610          43.000  
G 6  21402327.126   114045358.373        -521.606          44.000  
G11  21567544.847   114913631.9302       -521.262          32.000  
G 3  21402552.631   114046505.278        -521.409          44.000  
G22  21456801.682   114331533.295        -521.251          32.000  
G12  21346303.769   113751000.3432       -521.936          31.000  
> 2019  6 16  1 13 53.0000000  0  8                     
G 1  21402659.916   114047104.434        -521.294          37.000  
G 4  21402650.924   114047077.097        -521.785          45.000  
G 2  21402655.610   114047131.3592       -521.844          44.000  
G 6  21402426.428   114045879.921        -521.752          44.000  
G11  21567644.114   114914153.4882       -521.262          32.000  
G 3  21402651.923   114047026.829        -521.582          44.000  
G22  21456901.078   114332054.847        -521.217          33.000  
G12  21346403.043   113751521.8782       -521.727          31.000  
> 2019  6 16  1 13 54.0000000  0  8                     
G 1  21402759.582   114047626.002        -521.329          37.000  
G 4  21402750.200   114047598.657        -521.763          45.000  
G 2  21402754.973   114047652.9172       -521.699          44.000  
G 6  21402525.785   114046401.480        -521.694          44.000  
G11  21567743.556   114914675.0342       -521.243          31.000  
G 3  21402751.165   114047548.383        -521.581          44.000  
G22  21457000.372   114332576.396        -521.165          32.000  
G12  21346502.358   113752043.4182       -521.869          30.000  
> 2019  6 16  1 13 55.0000000  0  8                     
G 1  21402858.879   114048147.490        -521.333          37.000  
G 4  21402849.520   114048120.156        -521.602          45.000  
G 2  21402854.308   114048174.441        -522.017          44.000  
G 6  21402625.114   114046922.992        -521.713          44.000  
G11  21567842.948   114915196.532        -520.995          31.000  
G 3  21402850.527   114048069.901        -521.841          44.000  
G22  21457099.707   114333097.892        -521.201          32.000  
G12  21346601.719   113752564.4041       -521.235          30.000  
> 2019  6 16  1 13 56.0000000  0  8                     
G 1  21402958.317   114048669.113        -521.190          37.000  
G 4  21402948.878   114048641.782        -521.659          45.000  
G 2  21402953.620   114048696.036        -521.512          44.000  
G 6  21402724.381   114047444.591        -521.438          45.000  
G11  21567942.373   114915721.1773       -521.185          30.000  
G 3  21402949.891   114048591.499        -521.605          44.000  
G22  21457199.111   114333619.506        -521.143          32.000  
G12  21346701.142   113753086.005        -521.187          31.000  
> 2019  6 16  1 13 57.0000000  0  8                     
G 1  21403057.684   114049190.634        -521.118          37.000  
G 4  21403048.217   114049163.307        -521.659          45.000  
G 2  21403052.873   114049217.564        -521.580          43.000  
G 6  21402823.756   114047966.115        -521.538          45.000  
G11  21568041.692   114916242.6732       -521.217          30.000  
G 3  21403049.259   114049113.022        -521.534          44.000  
G22  21457298.519   114334141.012        -521.135          32.000  
G12  21346800.504   113753607.555        -521.478          31.000  
> 2019  6 16  1 13 58.0000000  0  8                     
G 1  21403157.180   114049712.092        -521.290          37.000  
G 4  21403147.503   114049684.747        -521.600          46.000  
G 2  21403152.168   114049739.021        -521.636          44.000  
G 6  21402923.138   114048487.561        -521.448          45.000  
G11  21568140.970   114916764.1202       -520.803          31.000  
G 3  21403148.537   114049634.478        -521.570          44.000  
G22  21457397.900   114334662.468        -521.147          32.000  
G12  21346899.950   113754128.979        -521.384          31.000  
> 2019  6 16  1 13 59.0000000  0  8                     
G 1  21403256.457   114050233.535        -521.744          37.000  
G 4  21403246.742   114050206.175        -521.631          45.000  
G 2  21403251.385   114050260.449        -521.659          44.000  
G 6  21403022.462   114049008.998        -521.519          44.000  
G11  21568240.241   114917285.5882       -521.332          32.000  
G 3  21403247.769   114050155.913        -521.685          44.000  
G22  21457497.159   114335183.920        -521.025          31.000  
G12  21346999.204   113754650.408        -521.680          31.000  
> 2019  6 16  1 14  0.0000000  0  8                     
G 1  21403355.743   114050755.004        -521.577          37.000  
G 4  21403345.988   114050727.652        -521.470          46.000  
G 2  21403350.740   114050781.929        -521.583          44.000  
G 6  21403121.715   114049530.475        -521.454          44.000  
G11  21568339.571   114917807.0372       -521.516          32.000  
G 3  21403347.040   114050677.398        -521.747          44.000  
G22  21457596.484   114335705.398        -520.887          32.000  
G12  21347098.523   113755171.889        -521.274          31.000  
> 2019  6 16  1 14  1.0000000  0  8                     
G 1  21403455.152   114051276.473        -521.226          37.000  
G 4  21403445.282   114051249.146        -521.664          45.000  
G 2  21403450.065   114051303.418        -521.594          44.000  
G 6  21403221.153   114050051.966        -521.682          45.000  
G11  21568438.755   114918328.516        -521.304          31.000  
G 3  21403446.285   114051198.884        -522.184          44.000  
G22  21457695.783   114336226.895        -521.475          32.000  
G12  21347197.841   113755693.366        -521.694          31.000  
> 2019  6 16  1 14  2.0000000  0  8                     
G 1  21403554.178   114051798.009        -521.472          38.000  
G 4  21403544.759   114051770.690        -521.512          45.000  
G 2  21403549.453   114051824.946        -521.517          44.000  
G 6  21403320.326   114050573.523        -521.600          44.000  
G11  21568538.042   114918850.081        -521.309          31.000  
G 3  21403545.620   114051720.416        -521.815          44.000  
G22  21457795.233   114336748.436        -521.442          32.000  
G12  21347297.320   113756214.939        -521.409          31.000  
> 2019  6 16  1 14  3.0000000  0  8                     
G 1  21403653.286   114052319.574        -521.940          38.000  
G 4  21403644.130   114052292.206        -521.511          46.000  
G 2  21403648.742   114052346.468        -521.393          44.000  
G 6  21403419.707   114051095.032        -521.603          44.000  
G11  21568637.298   114919371.601        -521.831          32.000  
G 3  21403644.967   114052241.946        -521.926          44.000  
G22  21457894.622   114337269.944        -521.547          32.000  
G12  21347396.654   113756736.473        -521.879          30.000  
> 2019  6 16  1 14  4.0000000  0  8                     
G 1  21403752.775   114052841.061        -521.411          37.000  
G 4  21403743.492   114052813.725        -521.353          46.000  
G 2  21403748.082   114052867.989        -521.550          44.000  
G 6  21403519.075   114051616.551        -521.659          44.000  
G11  21568736.745   114919893.125        -521.727          32.000  
G 3  21403744.287   114052763.473        -521.820          44.000  
G22  21457993.966   114337791.489        -521.886          31.000  
G12  21347495.914   113757257.980        -521.578          30.000  
> 2019  6 16  1 14  5.0000000  0  8                     
G 1  21403852.058   114053362.567        -521.555          37.000  
G 4  21403842.847   114053335.213        -521.503          45.000  
G 2  21403847.450   114053389.493        -521.835          44.000  
G 6  21403618.477   114052138.048        -521.786          45.000  
G11  21568835.959   114920414.650        -521.985          31.000  
G 3  21403843.703   114053284.981        -521.841          45.000  
G22  21458093.246   114338312.998        -521.814          32.000  
G12  21347595.149   113757779.478        -521.707          31.000  
> 2019  6 16  1 14  6.0000000  0  8                     
G 1  21403951.432   114053884.080        -521.366          37.000  
G 4  21403942.048   114053856.703        -521.134          46.000  
G 2  21403946.730   114053910.977        -521.323          44.000  
G 6  21403717.655   114052659.544        -521.454          44.000  
G11  21568935.274   114920936.093        -521.133          32.000  
G 3  21403943.051   114053806.474        -521.694          44.000  
G22  21458192.483   114338834.491        -521.354          31.000  
G12  21347694.452   113758300.975        -521.442          31.000  
> 2019  6 16  1 14  7.0000000  0  8                     
G 1  21404050.932   114054405.616        -521.427          37.000  
G 4  21404041.433   114054378.236        -521.421          45.000  
G 2  21404045.993   114054432.516        -521.554          44.000  
G 6  21403816.941   114053181.078        -521.466          44.000  
G11  21569034.779   114921457.650        -521.377          31.000  
G 3  21404042.441   114054328.007        -521.627          44.000  
G22  21458291.917   114339356.017        -521.615          32.000  
G12  21347793.850   113758822.482        -520.894          31.000  
> 2019  6 16  1 14  8.0000000  0  8                     
G 1  21404150.272   114054927.008        -521.125          38.000  
G 4  21404140.838   114054899.675        -521.632          46.000  
G 2  21404145.304   114054953.925        -521.443          44.000  
G 6  21403916.370   114053702.494        -521.581          44.000  
G11  21569134.166   114921979.078        -521.696          31.000  
G 3  21404141.839   114054849.414        -521.696          44.000  
G22  21458391.215   114339877.403        -521.311          31.000  
G12  21347893.101   113759343.893        -520.938          30.000  
> 2019  6 16  1 14  9.0000000  0  8                     
G 1  21404249.791   114055448.454        -521.549          38.000  
G 4  21404240.224   114055421.086        -521.753          46.000  
G 2  21404244.548   114055475.338        -521.733          44.000  
G 6  21404015.659   114054223.912        -521.711          44.000  
G11  21569233.501   114922500.525        -522.780          30.000  
G 3  21404241.108   114055370.833        -521.862          44.000  
G22  21458490.552   114340398.831        -521.538          32.000  
G12  21347992.453   113759865.339        -521.920          30.000  
> 2019  6 16  1 14 10.0000000  0  8                     
G 1  21404349.189   114055969.924        -521.304          38.000  
G 4  21404339.596   114055942.579        -521.725          46.000  
G 2  21404343.855   114055996.827        -521.459          43.000  
G 6  21404114.902   114054745.397        -521.602          44.000  
G11  21569332.867   114923022.008        -522.406          31.000  
G 3  21404340.467   114055892.314        -521.575          44.000  
G22  21458589.891   114340920.299        -521.228          32.000  
G12  21348091.872   113760386.810        -521.558          31.000  
> 2019  6 16  1 14 11.0000000  0  8                     
G 1  21404448.655   114056491.406        -521.305          38.000  
G 4  21404438.934   114056464.051        -521.608          45.000  
G 2  21404443.213   114056518.282        -521.289          43.000  
G 6  21404214.281   114055266.858        -521.495          44.000  
G11  21569432.234   114923543.459        -522.128          31.000  
G 3  21404439.809   114056413.785        -521.390          44.000  
G22  21458689.156   114341441.780        -521.300          32.000  
G12  21348191.235   113760908.284        -521.508          31.000  
> 2019  6 16  1 14 12.0000000  0  8                     
G 1  21404548.168   114057012.810        -521.399          38.000  
G 4  21404538.132   114056985.460        -521.689          45.000  
G 2  21404542.531   114057039.702        -521.569          44.000  
G 6  21404313.493   114055788.265        -521.423          44.000  
G11  21569531.623   114924064.841        -521.509          31.000  
G 3  21404539.154   114056935.193        -521.404          44.000  
G22  21458788.481   114341963.182        -521.411          32.000  
G12  21348290.618   113761429.690        -521.223          31.000  
> 2019  6 16  1 14 13.0000000  0  8                     
G 1  21404647.440   114057534.169        -521.317          38.000  
G 4  21404637.500   114057506.807        -521.360          45.000  
G 2  21404641.745   114057561.064        -521.296          44.000  
G 6  21404412.746   114056309.620        -521.304          44.000  
G11  21569630.928   114924586.222        -521.575          31.000  
G 3  21404638.438   114057456.548        -521.244          44.000  
G22  21458887.830   114342484.541        -521.257          32.000  
G12  21348389.899   113761951.051        -521.243          31.000  
> 2019  6 16  1 14 14.0000000  0  8                     
G 1  21404746.742   114058055.493        -521.505          38.000  
G 4  21404736.852   114058028.144        -521.479          46.000  
G 2  21404741.001   114058082.397        -521.429          44.000  
G 6  21404511.952   114056830.953        -521.353          44.000  
G11  21569730.222   114925107.534        -521.721          31.000  
G 3  21404737.702   114057977.876        -521.245          44.000  
G22  21458987.096   114343005.899        -521.580          32.000  
G12  21348489.232   113762472.385        -521.200          30.000  
> 2019  6 16  1 14 15.0000000  0  8                     
G 1  21404846.122   114058576.863        -521.222          38.000  
G 4  21404836.165   114058549.507        -521.483          45.000  
G 2  21404840.281   114058603.765        -521.572          44.000  
G 6  21404611.254   114057352.324        -521.411          44.000  
G11  21569829.440   114925628.901        -522.136          31.000  
G 3  21404836.911   114058499.244        -521.307          44.000  
G22  21459086.583   114343527.259        -521.396          32.000  
G12  21348588.588   113762993.764        -521.621          30.000  
> 2019  6 16  1 14 16.0000000  0  8                     
G 1  21404945.410   114059098.252        -521.365          38.000  
G 4  21404935.422   114059070.904        -521.582          45.000  
G 2  21404939.535   114059125.141        -521.444          44.000  
G 6  21404710.569   114057873.721        -521.456          44.000  
G11  21569928.714   114926150.298        -522.216          32.000  
G 3  21404936.201   114059020.639        -521.387          44.000  
G22  21459186.070   114344048.639        -521.486          32.000  
G12  21348688.020   113763515.135        -521.023          31.000  
> 2019  6 16  1 14 17.0000000  0  8                     
G 1  21405044.636   114059619.786        -521.698          38.000  
G 4  21405034.771   114059592.417        -521.661          45.000  
G 2  21405038.907   114059646.674        -521.683          43.000  
G 6  21404809.884   114058395.231        -521.576          44.000  
G11  21570028.024   114926671.799        -521.669          32.000  
G 3  21405035.483   114059542.152        -521.520          44.000  
G22  21459285.498   114344570.151        -521.866          33.000  
G12  21348787.346   113764036.659        -521.395          31.000  
> 2019  6 16  1 14 18.0000000  0  8                     
G 1  21405144.042   114060141.294        -521.771          37.000  
G 4  21405134.089   114060113.935        -521.611          46.000  
G 2  21405138.303   114060168.183        -521.664          43.000  
G 6  21404909.183   114058916.750        -521.560          44.000  
G11  21570127.491   114927193.365        -522.042          32.000  
G 3  21405134.778   114060063.672        -521.586          44.000  
G22  21459384.871   114345091.678        -521.775          32.000  
G12  21348886.787   113764558.163        -521.305          31.000  
> 2019  6 16  1 14 19.0000000  0  8                     
G 1  21405243.477   114060662.775        -521.471          37.000  
G 4  21405233.366   114060635.399        -521.328          45.000  
G 2  21405237.686   114060689.662        -521.482          43.000  
G 6  21405008.518   114059438.226        -521.382          44.000  
G11  21570226.869   114927714.810        -521.628          32.000  
G 3  21405234.118   114060585.146        -521.451          44.000  
G22  21459484.275   114345613.150        -521.356          32.000  
G12  21348986.077   113765079.634        -521.199          31.000  
> 2019  6 16  1 14 20.0000000  0  8                     
G 1  21405342.824   114061184.086        -521.567          38.000  
G 4  21405332.581   114061156.718        -521.310          45.000  
G 2  21405336.994   114061210.976        -521.262          43.000  
G 6  21405107.853   114059959.549        -521.434          44.000  
G11  21570326.188   114928236.160        -521.923          31.000  
G 3  21405333.427   114061106.461        -521.312          44.000  
G22  21459583.596   114346134.474        -521.421          32.000  
G12  21349085.355   113765600.968        -521.545          30.000  
> 2019  6 16  1 14 21.0000000  0  8                     
G 1  21405442.042   114061705.479        -521.488          38.000  
G 4  21405431.864   114061678.099        -521.289          45.000  
G 2  21405436.288   114061732.355        -521.459          44.000  
G 6  21405207.203   114060480.935        -521.569          44.000  
G11  21570425.507   114928757.520        -521.793          31.000  
G 3  21405432.737   114061627.849        -521.555          44.000  
G22  21459682.968   114346655.866        -521.821          32.000  
G12  21349184.660   113766122.348        -521.434          31.000  
> 2019  6 16  1 14 22.0000000  0  8                     
G 1  21405541.482   114062226.974        -521.223          38.000  
G 4  21405531.169   114062199.626        -521.493          45.000  
G 2  21405535.650   114062253.891        -521.702          43.000  
G 6  21405306.637   114061065.4433       -521.416          44.000  
G11  21570524.888   114929279.339        -526.834          31.000  
G 3  21405532.059   114062149.363        -521.421          44.000  
G22  21459782.083   114347177.290        -519.913          32.000  
G12  21349284.086   113766643.874        -521.425          30.000  
> 2019  6 16  1 14 23.0000000  0  8                     
G 1  21405640.772   114062748.522        -521.669          38.000  
G 4  21405630.463   114062721.151        -521.562          45.000  
G 2  21405635.010   114062775.412        -521.628          44.000  
G 6  21405405.948   114061586.9823       -521.641          45.000  
G11  21570620.665   114929796.5793       -522.063          31.000  
G 3  21405631.397   114062670.900        -521.641          44.000  
G22  21459881.320   114347698.895        -521.575          31.000  
G12  21349383.449   113767165.393        -521.293          30.000  
> 2019  6 16  1 14 24.0000000  0  8                     
G 1  21405740.087   114063269.984        -521.639          38.000  
G 4  21405729.711   114063242.616        -521.405          45.000  
G 2  21405734.306   114063296.868        -521.259          43.000  
G 6  21405505.099   114062108.4362       -521.401          44.000  
G11  21570724.182   114930318.0692       -522.396          31.000  
G 3  21405730.767   114063192.350        -521.432          44.000  
G22  21459980.633   114348220.245        -519.551          32.000  
G12  21349482.852   113767686.838        -521.021          31.000  
> 2019  6 16  1 14 25.0000000  0  8                     
G 1  21405839.443   114063864.9323       -521.675          38.000  
G 4  21405829.091   114063810.5603       -521.558          45.000  
G 2  21405833.637   114063834.3133       -521.415          43.000  
G 6  21405604.549   114062630.8833       -521.536          44.000  
G11  21570824.380   114930866.4593       -521.361          30.000  
G 3  21405830.141   114063815.8023       -521.560          44.000  
G22  21460079.827   114348899.8083       -521.775          33.000  
G12  21349582.213   113768230.7973       -521.630          31.000  
> 2019  6 16  1 14 26.0000000  0  8                     
G 1  21405938.866   114064387.3702       -521.533          38.000  
G 4  21405928.442   114064332.9972       -521.368          45.000  
G 2  21405932.953   114064356.7692       -521.464          43.000  
G 6  21405703.990   114063153.3362       -521.483          44.000  
G11  21570924.563   114931392.9113       -521.454          31.000  
G 3  21405929.488   114064338.2532       -521.439          44.000  
G22  21460179.100   114349422.2772       -521.844          33.000  
G12  21349681.585   113768753.2462       -521.530          31.000  
> 2019  6 16  1 14 27.0000000  0  8                     
G 1  21406037.921   114064908.7542       -521.407          38.000  
G 4  21406027.688   114064854.3902       -521.340          45.000  
G 2  21406032.226   114064878.1432       -521.284          43.000  
G 6  21405803.380   114063674.7192       -521.366          44.000  
G11  21571021.714   114931914.2632       -521.255          32.000  
G 3  21406028.695   114064859.6332       -521.395          44.000  
G22  21460278.555   114349943.6642       -521.870          32.000  
G12  21349780.998   113769274.6032       -521.021          31.000  
> 2019  6 16  1 14 28.0000000  0  8                     
G 1  21406137.151   114065430.1602       -521.440          38.000  
G 4  21406126.881   114065375.7882       -521.279          45.000  
G 2  21406131.633   114065399.5522       -521.243          43.000  
G 6  21405902.664   114064196.1172       -521.460          44.000  
G11  21571122.256   114932435.7002       -521.835          31.000  
G 3  21406128.035   114065381.0412       -521.460          44.000  
G22  21460377.776   114350465.0672       -521.967          33.000  
G12  21349880.471   113769796.0382       -521.482          31.000  
> 2019  6 16  1 14 29.0000000  0  8                     
G 1  21406236.497   114065951.5583       -521.526          38.000  
G 4  21406226.225   114065897.1703       -521.084          45.000  
G 2  21406230.869   114065921.9433       -521.218          43.000  
G 6  21406001.855   114064718.5093       -521.254          44.000  
G11  21571220.567   114932949.0503       -521.061          31.000  
G 3  21406227.338   114065903.4203       -521.211          44.000  
G22  21460477.160   114350988.4573       -521.570          33.000  
G12  21349979.844   113770320.4373       -521.479          31.000  
> 2019  6 16  1 14 30.0000000  0  8                     
G 1  21406335.840   114066473.9002       -521.787          38.000  
G 4  21406325.690   114066420.5142       -521.334          45.000  
G 2  21406330.190   114066444.2832       -521.359          43.000  
G 6  21406101.192   114065240.8442       -521.447          44.000  
G11  21571320.385   114933473.3992       -520.908          31.000  
G 3  21406326.645   114066425.7562       -521.327          44.000  
G22  21460576.477   114351509.7882       -521.807          33.000  
G12  21350079.255   113770842.7552       -521.484          31.000  
> 2019  6 16  1 14 31.0000000  0  8                     
G 1  21406435.108   114066995.2443       -521.619          38.000  
G 4  21406424.945   114066941.8603       -521.351          45.000  
G 2  21406429.495   114066965.6303       -521.411          43.000  
G 6  21406200.555   114065762.1903       -521.387          44.000  
G11  21571419.915   114933995.7803       -521.335          31.000  
G 3  21406425.923   114066947.1043       -521.310          44.000  
G22  21460675.748   114352032.1653       -521.984          33.000  
G12  21350178.679   113771366.1163       -521.799          31.000  
> 2019  6 16  1 14 32.0000000  0  8                     
G 1  21406534.485   114067516.6702       -521.609          37.000  
G 4  21406524.285   114067463.2992       -521.514          45.000  
G 2  21406528.731   114067487.0582       -521.492          43.000  
G 6  21406299.911   114066283.6202       -521.482          44.000  
G11  21571519.232   114934517.1942       -521.577          31.000  
G 3  21406525.229   114067468.5472       -521.545          44.000  
G22  21460775.133   114352553.5722       -521.689          32.000  
G12  21350277.896   113771887.5352       -521.342          30.000  
> 2019  6 16  1 14 33.0000000  0  8                     
G 1  21406633.851   114068038.0892       -521.404          37.000  
G 4  21406623.667   114067984.7102       -521.311          45.000  
G 2  21406628.027   114068008.4782       -521.243          43.000  
G 6  21406399.195   114066805.0292       -521.176          44.000  
G11  21571618.547   114935038.6352       -521.520          31.000  
G 3  21406624.601   114067989.9482       -521.151          44.000  
G22  21460874.479   114353074.9952       -521.281          32.000  
G12  21350377.285   113772408.9362       -521.418          30.000  
> 2019  6 16  1 14 34.0000000  0  8                     
G 1  21406733.285   114068559.4632       -521.656          37.000  
G 4  21406723.075   114068506.0912       -521.425          45.000  
G 2  21406727.428   114068529.8462       -521.367          44.000  
G 6  21406498.434   114067326.3982       -521.233          44.000  
G11  21571717.778   114935560.0082       -521.427          31.000  
G 3  21406723.879   114068511.3272       -521.290          44.000  
G22  21460973.666   114353596.3272       -521.290          32.000  
G12  21350476.634   113772930.3482       -521.757          31.000  
> 2019  6 16  1 14 35.0000000  0  8                     
G 1  21406832.442   114069080.8112       -521.492          38.000  
G 4  21406822.295   114069027.4442       -521.423          45.000  
G 2  21406826.760   114069051.1972       -521.418          43.000  
G 6  21406597.689   114067847.7632       -521.425          44.000  
G11  21571817.093   114936081.3632       -521.436          31.000  
G 3  21406823.092   114069032.6832       -521.384          44.000  
G22  21461072.862   114354117.6732       -521.334          33.000  
G12  21350575.929   113773451.6972       -521.565          31.000  
> 2019  6 16  1 14 36.0000000  0  8                     
G 1  21406931.638   114069602.2232       -521.598          38.000  
G 4  21406921.714   114069548.8562       -521.443          45.000  
G 2  21406926.072   114069572.6162       -521.488          43.000  
G 6  21406696.966   114068369.1782       -521.469          44.000  
G11  21571914.625   114936595.7613       -521.267          30.000  
G 3  21406922.373   114069554.0902       -521.362          44.000  
G22  21461172.183   114354639.1062       -521.437          33.000  
G12  21350675.266   113773973.1292       -521.896          31.000  
> 2019  6 16  1 14 37.0000000  0  8                     
G 1  21407030.911   114070123.1061       -521.705          37.000  
G 4  21407021.058   114070069.7221       -521.323          45.000  
G 2  21407025.390   114070093.986        -521.367          43.000  
G 6  21406796.361   114068890.550        -521.368          44.000  
G11  21572014.966   114937117.1142       -520.748          31.000  
G 3  21407021.641   114070075.465        -521.367          44.000  
G22  21461271.594   114355160.484        -521.356          33.000  
G12  21350774.508   113774493.9581       -520.991          31.000  
> 2019  6 16  1 14 38.0000000  0  8                     
G 1  21407130.228   114070644.420        -521.366          38.000  
G 4  21407120.319   114070591.041        -521.316          45.000  
G 2  21407124.702   114070615.299        -521.278          43.000  
G 6  21406895.737   114069415.8703       -521.263          44.000  
G11  21572114.171   114937638.4492       -521.029          31.000  
G 3  21407120.920   114070596.780        -521.208          44.000  
G22  21461370.964   114355681.827        -521.896          32.000  
G12  21350873.883   113775015.298        -521.643          31.000  
> 2019  6 16  1 14 39.0000000  0  8                     
G 1  21407229.367   114071165.691        -521.487          38.000  
G 4  21407219.536   114071112.337        -521.462          45.000  
G 2  21407223.999   114071136.592        -521.425          44.000  
G 6  21406995.012   114069937.1512       -521.318          44.000  
G11  21572213.102   114938159.7542       -521.720          31.000  
G 3  21407220.273   114071118.082        -521.418          44.000  
G22  21461470.190   114356203.072        -521.049          32.000  
G12  21350973.295   113775536.614        -521.782          31.000  
> 2019  6 16  1 14 40.0000000  0  8                     
G 1  21407328.663   114071687.078        -521.484          38.000  
G 4  21407318.751   114071633.707        -521.356          45.000  
G 2  21407323.190   114071657.975        -521.547          44.000  
G 6  21407094.322   114070459.5333       -521.465          45.000  
G11  21572305.697                        -522.836          31.000  
G 3  21407319.559   114071639.457        -521.315          44.000  
G22  21461569.181   114356726.3923       -521.097          31.000  
G12  21351072.608   113776057.964        -521.522          31.000  
> 2019  6 16  1 14 41.0000000  0  8                     
G 1  21407427.985   114072208.439        -521.494          38.000  
G 4  21407418.060   114072155.074        -521.261          45.000  
G 2  21407422.588   114072179.336        -521.339          44.000  
G 6  21407193.599   114070980.8943       -521.254          44.000  
G11  21572406.730   114939181.9963       -521.617          32.000  
G 3  21407418.878   114072160.824        -521.460          44.000  
G22  21461668.385   114357247.8252       -521.151          32.000  
G12  21351171.947   113776579.304        -521.307          31.000  
> 2019  6 16  1 14 42.0000000  0  8                     
G 1  21407527.256   114072729.840        -521.616          38.000  
G 4  21407517.378   114072676.463        -521.489          45.000  
G 2  21407521.951   114072700.718        -521.482          43.000  
G 6  21407292.944   114071502.2862       -521.437          44.000  
G11  21572509.957   114939703.4912       -523.449          31.000  
G 3  21407518.174   114072682.203        -521.531          44.000  
G22  21461767.668   114357769.2132       -521.674          32.000  
G12  21351271.465   113777100.699        -521.143          31.000  
> 2019  6 16  1 14 43.0000000  0  8                     
G 1  21407626.509   114073255.7513       -521.265          38.000  
G 4  21407616.758   114073204.3803       -521.329          45.000  
G 2  21407621.200   114073228.1463       -521.367          43.000  
G 6  21407392.134   114072024.6993       -521.271          44.000  
G11  21572611.320   114940256.7903       -521.431          31.000  
G 3  21407617.657   114073209.6203       -521.360          44.000  
G22  21461866.961   114358291.6103       -521.316          32.000  
G12  21351370.774   113777630.1253       -521.279          31.000  
> 2019  6 16  1 14 44.0000000  0  8                     
G 1  21407726.063   114073779.0582       -520.923          37.000  
G 4  21407716.028   114073726.7052       -521.300          45.000  
G 2  21407720.560   114073750.4582       -521.293          43.000  
G 6  21407491.468   114072546.0112       -521.288          44.000  
G11  21572711.301   114940782.1012       -521.294          32.000  
G 3  21407716.888   114073730.9352       -521.342          44.000  
G22  21461966.381   114358813.9342       -521.466          32.000  
G12  21351470.193   113778152.4352       -521.218          32.000  
> 2019  6 16  1 14 45.0000000  0  8                     
G 1  21407825.289   114074300.3882       -521.117          37.000  
G 4  21407815.257   114074248.0442       -521.490          45.000  
G 2  21407819.912   114074271.8052       -521.396          43.000  
G 6  21407590.814   114073067.3652       -521.458          44.000  
G11  21572810.386   114941303.4352       -521.395          31.000  
G 3  21407816.051   114074252.2672       -521.420          44.000  
G22  21462065.801   114359335.2782       -521.471          33.000  
G12  21351569.604   113778673.7662       -521.078          31.000  
> 2019  6 16  1 14 46.0000000  0  8                     
G 1  21407924.409   114074821.8122       -521.226          37.000  
G 4  21407914.529   114074769.4652       -521.400          45.000  
G 2  21407919.246   114074793.2332       -521.412          43.000  
G 6  21407689.972   114073588.7932       -521.591          45.000  
G11  21572909.593   114941824.8462       -520.991          32.000  
G 3  21407915.366   114074773.7022       -521.398          44.000  
G22  21462165.306   114359856.7102       -521.346          32.000  
G12  21351669.054   113779195.2122       -521.565          31.000  
> 2019  6 16  1 14 47.0000000  0  8                     
G 1  21408023.758   114075343.2553       -521.106          37.000  
G 4  21408013.879   114075291.9133       -521.396          45.000  
G 2  21408018.598   114075316.6763       -521.359          43.000  
G 6  21407789.328   114074111.2323       -521.410          45.000  
G11  21573009.237   114942348.2903       -520.966          32.000  
G 3  21408014.571   114075295.1363       -521.244          44.000  
G22  21462264.701   114360382.1833       -521.549          32.000  
G12  21351768.254   113779718.6533       -521.449          32.000  
> 2019  6 16  1 14 48.0000000  0  8                     
G 1  21408123.125   114075865.6722       -521.237          38.000  
G 4  21408113.219   114075813.3332       -521.522          45.000  
G 2  21408117.970   114075839.0882       -521.436          43.000  
G 6  21407888.844   114074634.6582       -521.501          45.000  
G11  21573105.167                        -521.741          31.000  
G 3  21408113.882   114075817.5802       -521.593          44.000  
G22  21462364.025   114360903.5952       -521.292          32.000  
G12  21351867.578   113780241.0582       -521.296          31.000  
> 2019  6 16  1 14 49.0000000  0  8                     
G 1  21408222.213   114076386.1443       -521.039          38.000  
G 4  21408212.570   114076335.8223       -521.509          45.000  
G 2  21408217.274   114076360.5733       -521.405          44.000  
G 6  21407988.158   114075156.1463       -521.482          44.000  
G11  21573203.735   114943370.1922       -521.306          31.000  
G 3  21408213.135   114076339.0603       -521.608          44.000  
G22  21462463.314   114361425.0783       -521.376          32.000  
G12  21351966.936   113780762.5723       -521.633          31.000  
> 2019  6 16  1 14 50.0000000  0  8                     
G 1  21408321.323   114076907.5962       -521.240          38.000  
G 4  21408311.906   114076857.2812       -521.616          45.000  
G 2  21408316.522   114076882.0252       -521.477          44.000  
G 6  21408087.416   114075677.5972       -521.542          44.000  
G11  21573305.366   114943891.6502       -521.416          31.000  
G 3  21408312.472   114076860.5092       -521.570          44.000  
G22  21462562.679   114361946.5022       -521.182          32.000  
G12  21352066.169   113781284.0192       -520.822          31.000  
> 2019  6 16  1 14 51.0000000  0  8                     
G 1  21408420.667   114077429.0452       -521.123          37.000  
G 4  21408411.298   114077378.7132       -521.425          46.000  
G 2  21408415.856   114077403.4632       -521.349          44.000  
G 6  21408186.771   114076199.0282       -521.406          44.000  
G11  21573404.174   114944413.0762       -521.229          31.000  
G 3  21408411.833   114077381.9492       -521.484          44.000  
G22  21462662.044   114362467.9352       -521.208          32.000  
G12  21352165.290   113781805.4602       -520.908          31.000  
> 2019  6 16  1 14 52.0000000  0  8                     
G 1  21408520.027   114077950.4012       -521.373          37.000  
G 4  21408510.757   114077900.0802       -521.646          46.000  
G 2  21408515.218   114077924.8262       -521.554          43.000  
G 6  21408286.114   114076720.3952       -521.594          44.000  
G11  21573504.067   114944948.4553       -521.565          30.000  
G 3  21408511.092   114077903.3172       -521.666          44.000  
G22  21462761.360   114362989.2902       -521.263          32.000  
G12  21352264.593   113782326.8042       -521.057          31.000  
> 2019  6 16  1 14 53.0000000  0  8                     
G 1  21408619.250   114078471.7662       -521.156          37.000  
G 4  21408610.087   114078421.4432       -521.465          46.000  
G 2  21408614.548   114078446.1942       -521.415          43.000  
G 6  21408385.259   114077241.7562       -521.387          45.000  
G11  21573603.762   114945469.8882       -522.393          31.000  
G 3  21408610.364   114078424.6702       -521.392          44.000  
G22  21462860.618   114363510.6692       -521.384          33.000  
G12  21352363.961   113782848.1232       -520.292          31.000  
> 2019  6 16  1 14 54.0000000  0  8                     
G 1  21408718.528   114078993.1762       -521.450          37.000  
G 4  21408709.405   114078942.8492       -521.603          45.000  
G 2  21408713.834   114078967.6012       -521.581          43.000  
G 6  21408484.641   114077763.1672       -521.575          44.000  
G11  21573703.890   114945991.2812       -522.275          31.000  
G 3  21408709.611   114078946.0802       -521.667          44.000  
G22  21462959.991   114364032.0952       -521.584          33.000  
G12  21352463.313   113783369.5832       -521.305          32.000  
> 2019  6 16  1 14 55.0000000  0  8                     
G 1  21408817.925   114079514.1671       -521.254          37.000  
G 4  21408808.725   114079463.8321       -521.390          45.000  
G 2  21408813.097   114079489.090        -521.466          43.000  
G 6  21408583.924   114078284.650        -521.465          44.000  
G11  21573803.317   114946520.7453       -522.090          32.000  
G 3  21408808.922   114079467.564        -521.483          44.000  
G22  21463059.361   114364553.592        -521.862          34.000  
G12  21352562.590   113783891.067        -520.980          31.000  
> 2019  6 16  1 14 56.0000000  0  8                     
G 1  21408917.241   114080035.700        -521.329          37.000  
G 4  21408908.088   114079985.376        -521.614          45.000  
G 2  21408912.456   114080010.627        -521.632          44.000  
G 6  21408683.247   114078806.195        -521.552          44.000  
G11  21573902.613   114947042.2672       -521.669          32.000  
G 3  21408908.253   114079989.112        -521.609          44.000  
G22  21463158.782   114365075.114        -521.323          33.000  
G12  21352662.015   113784412.604        -521.483          31.000  
> 2019  6 16  1 14 57.0000000  0  8                     
G 1  21409016.552   114080557.290        -521.415          37.000  
G 4  21409007.461   114080506.967        -521.603          45.000  
G 2  21409011.798   114080532.215        -521.616          44.000  
G 6  21408782.552   114079327.777        -521.492          44.000  
G11  21574001.670   114947563.8382       -521.604          32.000  
G 3  21409007.617   114080510.691        -521.599          44.000  
G22  21463258.300   114365596.699        -521.348          33.000  
G12  21352761.355   113784934.196        -521.428          31.000  
> 2019  6 16  1 14 58.0000000  0  8                     
G 1  21409115.968   114081078.886        -521.465          37.000  
G 4  21409106.772   114081028.559        -521.619          45.000  
G 2  21409111.088   114081053.811        -521.544          43.000  
G 6  21408881.991   114079849.377        -521.573          44.000  
G11  21574100.876   114948085.4472       -521.437          32.000  
G 3  21409106.969   114081032.288        -521.658          44.000  
G22  21463357.563   114366118.285        -521.361          33.000  
G12  21352860.718   113785455.768        -521.229          31.000  
> 2019  6 16  1 14 59.0000000  0  8                     
G 1  21409215.274   114081600.354        -521.503          38.000  
G 4  21409206.041   114081550.022        -521.433          45.000  
G 2  21409210.471   114081575.282        -521.530          43.000  
G 6  21408981.326   114080370.844        -521.545          44.000  
G11  21574200.123   114948606.9272       -521.737          32.000  
G 3  21409206.168   114081553.753        -521.516          44.000  
G22  21463456.782   114366639.775        -521.354          33.000  
G12  21352960.005   113785977.258        -521.497          31.000  
> 2019  6 16  1 15  0.0000000  0  8                     
G 1  21409314.431   114082121.789        -521.720          38.000  
G 4  21409305.316   114082071.446        -521.417          45.000  
G 2  21409309.869   114082096.710        -521.589          43.000  
G 6  21409080.640   114080892.269        -521.597          44.000  
G11  21574299.314   114949128.3652       -521.521          31.000  
G 3  21409305.440   114082075.181        -521.512          44.000  
G22  21463556.075   114367161.188        -521.218          32.000  
G12  21353059.398   113786498.670        -521.097          30.000  
> 2019  6 16  1 15  1.0000000  0  8                     
G 1  21409413.870   114082643.241        -521.423          38.000  
G 4  21409404.563   114082592.897        -521.328          45.000  
G 2  21409409.140   114082618.153        -521.346          43.000  
G 6  21409180.034   114081413.721        -521.420          44.000  
G11  21574398.539   114949648.8163       -521.587          31.000  
G 3  21409404.753   114082596.627        -521.320          44.000  
G22  21463655.323   114367682.614        -520.959          32.000  
G12  21353158.727   113787020.129        -521.427          30.000  
> 2019  6 16  1 15  2.0000000  0  8                     
G 1  21409513.385   114083164.765        -521.587          37.000  
G 4  21409503.862   114083114.407        -521.344          45.000  
G 2  21409508.454   114083139.663        -521.396          43.000  
G 6  21409279.378   114081935.232        -521.425          44.000  
G11  21574497.782   114950170.3252       -521.407          32.000  
G 3  21409504.174   114083118.146        -521.455          44.000  
G22  21463754.654   114368204.150        -521.597          31.000  
G12  21353258.117   113787541.635        -521.564          31.000  
> 2019  6 16  1 15  3.0000000  0  8                     
G 1  21409612.713   114083686.328        -521.757          37.000  
G 4  21409603.269   114083635.982        -521.643          45.000  
G 2  21409607.794   114083661.227        -521.603          43.000  
G 6  21409378.699   114082456.797        -521.641          44.000  
G11  21574597.043   114950691.9042       -521.832          32.000  
G 3  21409603.431   114083639.717        -521.642          44.000  
G22  21463854.081   114368725.703        -521.451          32.000  
G12  21353357.553   113788063.194        -521.339          31.000  
> 2019  6 16  1 15  4.0000000  0  8                     
G 1  21409711.994   114084207.936        -521.654          38.000  
G 4  21409702.643   114084157.587        -521.439          45.000  
G 2  21409707.208   114084182.842        -521.360          44.000  
G 6  21409478.099   114082978.409        -521.611          45.000  
G11  21574696.410   114951213.4852       -521.227          31.000  
G 3  21409702.783   114084161.323        -521.409          44.000  
G22  21463953.203   114369247.332        -521.851          32.000  
G12  21353456.934   113788584.818        -521.456          31.000  
> 2019  6 16  1 15  5.0000000  0  8                     
G 1  21409811.341   114084729.427        -521.847          37.000  
G 4  21409801.928   114084679.068        -521.451          45.000  
G 2  21409806.448   114084704.332        -521.575          43.000  
G 6  21409577.481   114083499.896        -521.595          45.000  
G11  21574795.677   114951734.9822       -521.401          31.000  
G 3  21409802.099   114084682.812        -521.552          44.000  
G22  21464052.618   114369768.824        -521.516          32.000  
G12  21353556.308   113789106.311        -521.843          31.000  
> 2019  6 16  1 15  6.0000000  0  8                     
G 1  21409910.624   114085250.884        -521.643          37.000  
G 4  21409901.302   114085200.531        -521.385          45.000  
G 2  21409905.755   114085225.789        -521.417          43.000  
G 6  21409676.773   114084021.358        -521.470          44.000  
G11  21574894.940   114952257.4033       -520.874          32.000  
G 3  21409901.463   114085204.268        -521.302          44.000  
G22  21464151.898   114370290.273        -521.274          32.000  
G12  21353655.647   113789627.797        -522.063          30.000  
> 2019  6 16  1 15  7.0000000  0  8                     
G 1  21410009.896   114085772.389        -521.718          38.000  
G 4  21410000.667   114085722.053        -521.603          45.000  
G 2  21410005.170   114085747.305        -521.593          44.000  
G 6  21409776.152   114084542.875        -521.639          44.000  
G11  21574994.168   114952778.9272       -520.936          32.000  
G 3  21410000.785   114085725.787        -521.566          44.000  
G22  21464251.203   114370811.811        -521.838          32.000  
G12  21353754.978   113790149.307        -521.881          30.000  
> 2019  6 16  1 15  8.0000000  0  8                     
G 1  21410109.146   114086293.969        -521.879          38.000  
G 4  21410099.989   114086243.615        -521.741          45.000  
G 2  21410104.431   114086268.875        -521.711          44.000  
G 6  21409875.508   114085064.444        -521.863          44.000  
G11  21575093.525   114953300.4792       -521.233          32.000  
G 3  21410100.140   114086247.362        -521.829          44.000  
G22  21464350.666   114371333.374        -521.721          32.000  
G12  21353854.341   113790670.881        -522.224          30.000  
> 2019  6 16  1 15  9.0000000  0  8                     
G 1  21410208.609   114086815.527        -521.725          37.000  
G 4  21410199.248   114086765.148        -521.517          45.000  
G 2  21410203.861   114086790.429        -521.597          44.000  
G 6  21409974.865   114085585.984        -521.714          45.000  
G11  21575192.881   114953822.0332       -520.696          32.000  
G 3  21410199.451   114086768.892        -521.689          44.000  
G22  21464450.140   114371854.915        -521.780          33.000  
G12  21353953.731   113791192.447        -522.441          31.000  
> 2019  6 16  1 15 10.0000000  0  8                     
G 1  21410308.003   114087336.957        -521.472          37.000  
G 4  21410298.540   114087286.615        -521.605          45.000  
G 2  21410303.265   114087311.881        -521.495          44.000  
G 6  21410074.215   114086107.438        -521.511          44.000  
G11  21575292.123   114954343.5142       -521.151          32.000  
G 3  21410298.668   114087290.358        -521.527          44.000  
G22  21464549.464   114372376.363        -521.604          32.000  
G12  21354052.935   113791713.870        -521.620          30.000  
> 2019  6 16  1 15 11.0000000  0  8                     
G 1  21410407.342   114087858.367        -521.510          37.000  
G 4  21410397.808   114087808.007        -521.592          45.000  
G 2  21410402.628   114087833.280        -521.501          43.000  
G 6  21410173.468   114086628.834        -521.425          44.000  
G11  21575391.518   114954864.9152       -521.190          32.000  
G 3  21410397.940   114087811.748        -521.411          44.000  
G22  21464648.843   114372897.759        -521.802          31.000  
G12  21354152.255   113792235.261        -521.956          30.000  
> 2019  6 16  1 15 12.0000000  0  8                     
G 1  21410506.697   114088379.783        -521.558          37.000  
G 4  21410497.009   114088329.432        -521.716          45.000  
G 2  21410501.956   114088354.708        -521.611          43.000  
G 6  21410272.869   114087150.259        -521.646          44.000  
G11  21575490.827   114955386.3252       -520.967          32.000  
G 3  21410497.306   114088333.172        -521.484          44.000  
G22  21464748.250   114373419.178        -521.536          32.000  
G12  21354251.530   113792756.696        -521.876          31.000  
> 2019  6 16  1 15 13.0000000  0  8                     
G 1  21410606.296   114088901.242        -521.138          37.000  
G 4  21410596.346   114088850.893        -521.761          45.000  
G 2  21410601.258   114088876.162        -521.644          44.000  
G 6  21410372.094   114087671.707        -521.589          45.000  
G11  21575590.304   114955907.2961       -521.251          32.000  
G 3  21410596.584   114088854.638        -521.661          44.000  
G22  21464847.497   114373940.626        -521.672          32.000  
G12  21354350.819   113793278.169        -522.179          31.000  
> 2019  6 16  1 15 14.0000000  0  8                     
G 1  21410705.814   114089422.791        -521.381          37.000  
G 4  21410695.728   114089372.450        -521.736          45.000  
G 2  21410700.630   114089397.712        -521.638          44.000  
G 6  21410471.368   114088193.268        -521.642          45.000  
G11  21575689.625   114956433.3453       -521.404          32.000  
G 3  21410695.842   114089376.180        -521.525          44.000  
G22  21464946.766   114374462.189        -521.716          32.000  
G12  21354450.041   113793799.722        -522.228          31.000  
> 2019  6 16  1 15 15.0000000  0  8                     
G 1  21410805.107   114089944.310        -521.548          37.000  
G 4  21410795.063   114089893.983        -521.959          45.000  
G 2  21410799.902   114089919.237        -521.720          44.000  
G 6  21410570.660   114088714.794        -521.660          45.000  
G11  21575788.927   114956954.8712       -521.426          31.000  
G 3  21410795.141   114089897.711        -521.769          44.000  
G22  21465046.085   114374983.720        -521.996          32.000  
G12  21354549.360   113794321.235        -522.285          31.000  
> 2019  6 16  1 15 16.0000000  0  8                     
G 1  21410904.379   114090465.856        -521.523          37.000  
G 4  21410894.357   114090415.519        -521.653          45.000  
G 2  21410899.130   114090440.766        -521.475          44.000  
G 6  21410669.918   114089236.327        -521.432          45.000  
G11  21575888.186   114957476.3642       -521.158          32.000  
G 3  21410894.507   114090419.237        -521.388          44.000  
G22  21465145.456   114375505.262        -521.517          33.000  
G12  21354648.775   113794842.760        -521.482          31.000  
> 2019  6 16  1 15 17.0000000  0  8                     
G 1  21411003.654   114090987.312        -521.426          37.000  
G 4  21410993.710   114090936.985        -521.647          45.000  
G 2  21410998.477   114090962.226        -521.412          44.000  
G 6  21410769.296   114089757.788        -521.365          44.000  
G11  21575987.510   114957997.8712       -521.641          32.000  
G 3  21410993.860   114090940.705        -521.470          44.000  
G22  21465244.837   114376026.728        -521.531          33.000  
G12  21354748.070   113795364.235        -521.558          30.000  
> 2019  6 16  1 15 18.0000000  0  8                     
G 1  21411102.859   114091508.709        -521.367          37.000  
G 4  21411093.047   114091458.383        -521.656          45.000  
G 2  21411097.858   114091483.633        -521.514          44.000  
G 6  21410868.642   114090279.201        -521.550          44.000  
G11  21576086.900   114958519.2612       -521.473          32.000  
G 3  21411093.189   114091462.114        -521.598          44.000  
G22  21465344.129   114376548.136        -521.533          32.000  
G12  21354847.341   113795885.629        -521.633          31.000  
> 2019  6 16  1 15 19.0000000  0  8                     
G 1  21411202.089   114092030.184        -521.619          37.000  
G 4  21411192.334   114091979.842        -521.555          45.000  
G 2  21411197.125   114092005.091        -521.509          44.000  
G 6  21410968.025   114090800.657        -521.506          44.000  
G11  21576186.140   114959040.2191       -521.583          32.000  
G 3  21411192.550   114091983.573        -521.434          44.000  
G22  21465443.428   114377069.591        -521.648          32.000  
G12  21354946.547   113796407.097        -521.748          31.000  
> 2019  6 16  1 15 20.0000000  0  8                     
G 1  21411301.488   114092551.709        -521.906          37.000  
G 4  21411291.706   114092501.355        -521.721          45.000  
G 2  21411296.482   114092526.604        -521.660          44.000  
G 6  21411067.415   114091322.169        -521.637          45.000  
G11  21576285.461   114959561.753        -522.375          32.000  
G 3  21411291.892   114092505.079        -521.558          44.000  
G22  21465542.724   114377591.086        -521.509          33.000  
G12  21355045.728   113796928.587        -521.483          31.000  
> 2019  6 16  1 15 21.0000000  0  8                     
G 1  21411400.979   114093073.125        -521.423          37.000  
G 4  21411390.998   114093022.782        -521.562          45.000  
G 2  21411395.821   114093048.029        -521.530          44.000  
G 6  21411166.695   114091843.597        -521.510          45.000  
G11  21576384.753   114960083.154        -522.094          31.000  
G 3  21411391.265   114093026.503        -521.385          44.000  
G22  21465642.109   114378112.507        -521.514          33.000  
G12  21355145.057   113797450.013        -521.195          31.000  
> 2019  6 16  1 15 22.0000000  0  8                     
G 1  21411500.373   114093594.581        -521.682          37.000  
G 4  21411490.322   114093544.234        -521.594          45.000  
G 2  21411495.169   114093569.490        -521.584          44.000  
G 6  21411266.096   114092365.047        -521.447          45.000  
G11  21576483.961   114960604.630        -521.951          32.000  
G 3  21411490.566   114093547.962        -521.495          44.000  
G22  21465741.391   114378633.970        -521.520          32.000  
G12  21355244.414   113797971.490        -521.970          31.000  
> 2019  6 16  1 15 23.0000000  0  8                     
G 1  21411599.668   114094116.058        -521.459          37.000  
G 4  21411589.614   114094065.701        -521.387          45.000  
G 2  21411594.450   114094090.962        -521.370          44.000  
G 6  21411365.410   114092886.519        -521.406          45.000  
G11  21576583.134   114961126.108        -521.584          31.000  
G 3  21411589.901   114094069.432        -521.371          44.000  
G22  21465840.564   114379155.457        -521.702          33.000  
G12  21355343.692   113798492.962        -521.495          31.000  
> 2019  6 16  1 15 24.0000000  0  8                     
G 1  21411698.923   114094637.564        -521.884          37.000  
G 4  21411688.876   114094587.205        -521.433          45.000  
G 2  21411693.841   114094612.459        -521.473          43.000  
G 6  21411464.630   114093408.028        -521.516          44.000  
G11  21576682.185   114961647.614        -522.083          32.000  
G 3  21411689.230   114094590.938        -521.527          44.000  
G22  21465939.941   114379676.947        -521.559          33.000  
G12  21355443.013   113799014.477        -521.594          31.000  
> 2019  6 16  1 15 25.0000000  0  8                     
G 1  21411798.296   114095159.109        -521.714          37.000  
G 4  21411788.170   114095108.762        -521.636          45.000  
G 2  21411793.196   114095134.016        -521.650          43.000  
G 6  21411564.023   114093929.581        -521.632          44.000  
G11  21576781.461   114962169.159        -522.166          32.000  
G 3  21411788.528   114095112.481        -521.515          44.000  
G22  21466039.460   114380198.523        -521.938          33.000  
G12  21355542.220   113799535.998        -521.406          31.000  
> 2019  6 16  1 15 26.0000000  0  8                     
G 1  21411897.743   114095680.615        -521.821          37.000  
G 4  21411887.608   114095630.239        -521.465          46.000  
G 2  21411892.449   114095655.499        -521.570          43.000  
G 6  21411663.217   114094451.057        -521.454          45.000  
G11  21576880.899   114962690.674        -521.904          32.000  
G 3  21411887.870   114095633.970        -521.425          44.000  
G22  21466138.868   114380719.984        -521.743          33.000  
G12  21355641.379   113800057.516        -521.973          31.000  
> 2019  6 16  1 15 27.0000000  0  8                     
G 1  21411997.081   114096201.963        -521.603          37.000  
G 4  21411986.977   114096151.604        -521.450          46.000  
G 2  21411991.805   114096176.855        -521.462          44.000  
G 6  21411762.625   114094972.426        -521.365          44.000  
G11  21576980.343   114963212.053        -522.015          31.000  
G 3  21411987.320   114096155.336        -521.438          44.000  
G22  21466238.214   114381241.350        -521.549          32.000  
G12  21355740.718   113800578.880        -521.611          31.000  
> 2019  6 16  1 15 28.0000000  0  8                     
G 1  21412096.341   114096723.374        -521.702          37.000  
G 4  21412086.252   114096673.009        -521.572          46.000  
G 2  21412091.137   114096698.270        -521.550          44.000  
G 6  21411862.015   114095493.834        -521.537          44.000  
G11  21577079.695   114963733.455        -522.274          32.000  
G 3  21412086.636   114096676.734        -521.523          44.000  
G22  21466337.523   114381762.738        -521.440          32.000  
G12  21355840.003   113801100.254        -521.342          31.000  
> 2019  6 16  1 15 29.0000000  0  8                     
G 1  21412195.636   114097244.701        -521.356          37.000  
G 4  21412185.467   114097194.337        -521.234          45.000  
G 2  21412190.466   114097219.601        -521.223          44.000  
G 6  21411961.291   114096015.172        -521.339          45.000  
G11  21577178.927   114964254.785        -521.417          32.000  
G 3  21412186.010   114097198.074        -521.306          44.000  
G22  21466436.902   114382284.084        -521.317          33.000  
G12  21355939.287   113801621.601        -521.581          31.000  
> 2019  6 16  1 15 30.0000000  0  8                     
G 1  21412294.868   114097766.040        -521.398          37.000  
G 4  21412284.725   114097715.673        -521.310          45.000  
G 2  21412289.723   114097740.939        -521.304          44.000  
G 6  21412060.530   114096536.497        -521.361          45.000  
G11  21577278.222   114964776.091        -521.552          32.000  
G 3  21412285.362   114097719.410        -521.379          44.000  
G22  21466536.304   114382805.416        -521.329          33.000  
G12  21356038.569   113802142.946        -521.843          31.000  
> 2019  6 16  1 15 31.0000000  0  8                     
G 1  21412394.147   114098287.472        -521.707          37.000  
G 4  21412384.011   114098237.107        -521.289          45.000  
G 2  21412389.027   114098262.367        -521.416          44.000  
G 6  21412159.819   114097057.933        -521.479          45.000  
G11  21577377.628   114965297.520        -521.681          31.000  
G 3  21412384.756   114098240.834        -521.250          44.000  
G22  21466635.718   114383326.854        -521.278          32.000  
G12  21356137.992   113802664.372        -521.620          31.000  
> 2019  6 16  1 15 32.0000000  0  8                     
G 1  21412493.511   114098808.825        -521.364          37.000  
G 4  21412483.297   114098758.458        -521.183          45.000  
G 2  21412488.402   114098783.725        -521.289          44.000  
G 6  21412259.116   114097579.287        -521.294          45.000  
G11  21577476.945   114965818.928        -522.194          31.000  
G 3  21412484.053   114098762.202        -521.351          44.000  
G22  21466735.086   114383848.237        -521.265          33.000  
G12  21356237.331   113803185.731        -521.479          31.000  
> 2019  6 16  1 15 33.0000000  0  8                     
G 1  21412592.822   114099330.235        -521.594          37.000  
G 4  21412582.757   114099279.875        -521.390          45.000  
G 2  21412587.658   114099305.134        -521.431          43.000  
G 6  21412358.435   114098100.700        -521.367          45.000  
G11  21577576.189   114966340.291        -521.836          31.000  
G 3  21412583.279   114099283.612        -521.592          44.000  
G22  21466834.413   114384369.623        -521.531          32.000  
G12  21356336.640   113803707.111        -520.912          31.000  
> 2019  6 16  1 15 34.0000000  0  8                     
G 1  21412692.142   114099851.706        -521.168          37.000  
G 4  21412682.000   114099801.361        -521.276          45.000  
G 2  21412687.008   114099826.631        -521.448          43.000  
G 6  21412457.809   114098622.198        -521.467          45.000  
G11  21577675.509   114966861.794        -521.840          31.000  
G 3  21412682.660   114099805.105        -521.604          44.000  
G22  21466933.745   114384891.103        -521.339          32.000  
G12  21356436.081   113804228.620        -521.481          31.000  
> 2019  6 16  1 15 35.0000000  0  8                     
G 1  21412791.542   114100373.229        -521.420          37.000  
G 4  21412781.397   114100322.877        -521.494          46.000  
G 2  21412786.368   114100348.149        -521.693          43.000  
G 6  21412557.247   114099143.712        -521.613          45.000  
G11  21577774.698   114967383.315        -522.065          31.000  
G 3  21412781.969   114100326.620        -521.794          44.000  
G22  21467033.084   114385412.634        -521.569          31.000  
G12  21356535.527   113804750.106        -521.310          30.000  
> 2019  6 16  1 15 36.0000000  0  8                     
G 1  21412890.794   114100894.723        -521.285          37.000  
G 4  21412880.798   114100844.366        -521.199          46.000  
G 2  21412885.742   114100869.640        -521.404          43.000  
G 6  21412656.603   114099665.199        -521.323          45.000  
G11  21577873.926   114967904.804        -521.436          31.000  
G 3  21412881.345   114100848.105        -521.481          44.000  
G22  21467132.386   114385934.118        -521.414          32.000  
G12  21356634.913   113805271.627        -521.259          31.000  
> 2019  6 16  1 15 37.0000000  0  8                     
G 1  21412989.849   114101416.077        -521.241          37.000  
G 4  21412980.144   114101365.732        -521.260          46.000  
G 2  21412985.019   114101390.996        -521.299          43.000  
G 6  21412755.949   114100186.567        -521.351          44.000  
G11  21577973.327   114968426.164        -521.420          31.000  
G 3  21412980.740   114101369.475        -521.429          44.000  
G22  21467231.788   114386455.490        -521.447          33.000  
G12  21356734.411   113805793.024        -521.731          31.000  
> 2019  6 16  1 15 38.0000000  0  8                     
G 1  21413089.293   114101937.594        -521.243          37.000  
G 4  21413079.449   114101887.243        -521.375          46.000  
G 2  21413084.413   114101912.506        -521.376          43.000  
G 6  21412855.153   114100708.065        -521.329          45.000  
G11  21578072.770   114968947.687        -521.631          32.000  
G 3  21413080.106   114101890.981        -521.405          44.000  
G22  21467331.048   114386976.992        -521.691          32.000  
G12  21356833.758   113806314.488        -521.113          30.000  
> 2019  6 16  1 15 39.0000000  0  8                     
G 1  21413188.619   114102459.079        -521.274          37.000  
G 4  21413178.874   114102408.735        -521.447          45.000  
G 2  21413183.797   114102434.001        -521.498          43.000  
G 6  21412954.410   114101229.561        -521.436          44.000  
G11  21578172.058   114969469.140        -520.878          32.000  
G 3  21413179.470   114102412.471        -521.479          44.000  
G22  21467430.403   114387498.486        -521.482          32.000  
G12  21356933.079   113806835.973        -521.483          30.000  
> 2019  6 16  1 15 40.0000000  0  8                     
G 1  21413287.974   114102980.534        -521.427          37.000  
G 4  21413278.202   114102930.175        -521.377          46.000  
G 2  21413283.137   114102955.442        -521.504          43.000  
G 6  21413053.705   114101751.001        -521.469          45.000  
G11  21578271.308   114969990.628        -521.597          32.000  
G 3  21413278.819   114102933.907        -521.353          44.000  
G22  21467529.642   114388019.932        -521.536          33.000  
G12  21357032.475   113807357.425        -521.108          31.000  
> 2019  6 16  1 15 41.0000000  0  8                     
G 1  21413387.418   114103501.947        -521.556          37.000  
G 4  21413377.594   114103451.594        -521.472          45.000  
G 2  21413382.447   114103476.860        -521.630          44.000  
G 6  21413153.069   114102272.419        -521.451          45.000  
G11  21578370.642   114970512.017        -521.973          32.000  
G 3  21413378.086   114103455.333        -521.360          44.000  
G22  21467628.966   114388541.363        -521.857          32.000  
G12  21357131.664   113807878.808        -520.892          31.000  
> 2019  6 16  1 15 42.0000000  0  8                     
G 1  21413486.591   114104023.400        -521.592          37.000  
G 4  21413476.921   114103973.051        -521.653          45.000  
G 2  21413481.875   114103998.322        -521.677          44.000  
G 6  21413252.364   114102793.870        -521.578          45.000  
G11  21578469.939   114971033.465        -521.769          32.000  
G 3  21413477.407   114103976.782        -521.522          44.000  
G22  21467728.393   114389062.808        -521.560          32.000  
G12  21357231.169   113808400.280        -521.288          31.000  
> 2019  6 16  1 15 43.0000000  0  8                     
G 1  21413585.875   114104544.899        -521.738          37.000  
G 4  21413576.281   114104494.536        -521.616          45.000  
G 2  21413581.211   114104519.814        -521.738          44.000  
G 6  21413351.687   114103315.363        -521.661          45.000  
G11  21578569.353   114971554.972        -521.975          32.000  
G 3  21413576.742   114104498.271        -521.487          44.000  
G22  21467827.688   114389584.287        -521.169          32.000  
G12  21357330.575   113808921.815        -521.770          31.000  
> 2019  6 16  1 15 44.0000000  0  8                     
G 1  21413685.283   114105066.363        -521.500          38.000  
G 4  21413675.572   114105016.005        -521.473          45.000  
G 2  21413680.554   114105041.274        -521.665          44.000  
G 6  21413451.034   114103836.832        -521.520          45.000  
G11  21578668.695   114972076.422        -521.422          32.000  
G 3  21413676.030   114105019.744        -521.438          44.000  
G22  21467927.090   114390105.764        -521.509          33.000  
G12  21357429.882   113809443.276        -521.421          31.000  
> 2019  6 16  1 15 45.0000000  0  8                     
G 1  21413784.677   114105587.856        -521.445          38.000  
G 4  21413774.857   114105537.509        -521.569          46.000  
G 2  21413779.728   114105562.777        -521.631          44.000  
G 6  21413550.267   114104358.332        -521.566          45.000  
G11  21578768.107   114972597.902        -521.359          32.000  
G 3  21413775.418   114105541.240        -521.454          44.000  
G22  21468026.473   114390627.255        -521.132          33.000  
G12  21357529.323   113809964.744        -521.276          31.000  
> 2019  6 16  1 15 46.0000000  0  8                     
G 1  21413883.919   114106109.410        -521.754          37.000  
G 4  21413874.226   114106059.058        -521.715          46.000  
G 2  21413879.063   114106084.324        -521.765          44.000  
G 6  21413649.586   114104879.873        -521.702          45.000  
G11  21578867.391   114973119.466        -521.678          31.000  
G 3  21413874.710   114106062.793        -521.725          44.000  
G22  21468125.773   114391148.800        -521.874          32.000  
G12  21357628.713   113810486.276        -521.232          31.000  
> 2019  6 16  1 15 47.0000000  0  8                     
G 1  21413983.259   114106630.979        -521.453          38.000  
G 4  21413973.523   114106580.618        -521.462          46.000  
G 2  21413978.338   114106605.886        -521.530          44.000  
G 6  21413749.033   114105401.432        -521.357          45.000  
G11  21578966.850   114973641.033        -521.278          31.000  
G 3  21413974.049   114106584.346        -521.290          44.000  
G22  21468225.085   114391670.359        -521.322          32.000  
G12  21357728.106   113811007.830        -521.106          30.000  
> 2019  6 16  1 15 48.0000000  0  8                     
G 1  21414082.580   114107152.497        -521.686          37.000  
G 4  21414072.924   114107102.149        -521.506          46.000  
G 2  21414077.678   114107127.404        -521.519          43.000  
G 6  21413848.378   114105922.963        -521.604          45.000  
G11  21579066.266   114974162.533        -520.823          31.000  
G 3  21414073.358   114107105.881        -521.584          44.000  
G22  21468324.394   114392191.893        -521.720          32.000  
G12  21357827.581   113811529.354        -521.113          30.000  
> 2019  6 16  1 15 49.0000000  0  8                     
G 1  21414181.874   114107674.060        -521.990          37.000  
G 4  21414172.318   114107623.692        -521.631          46.000  
G 2  21414176.960   114107648.959        -521.613          44.000  
G 6  21413947.712   114106444.516        -521.650          45.000  
G11  21579165.610   114974684.067        -520.881          32.000  
G 3  21414172.678   114107627.415        -521.527          44.000  
G22  21468423.686   114392713.442        -521.708          32.000  
G12  21357926.893   113812050.894        -521.260          29.000  
> 2019  6 16  1 15 50.0000000  0  8                     
G 1  21414281.226   114108195.641        -521.830          37.000  
G 4  21414271.589   114108145.283        -521.580          46.000  
G 2  21414276.213   114108170.551        -521.666          44.000  
G 6  21414047.028   114106966.101        -521.523          45.000  
G11  21579265.000   114975205.686        -521.191          32.000  
G 3  21414271.974   114108149.015        -521.465          44.000  
G22  21468523.173   114393235.041        -521.449          32.000  
G12  21358026.273   113812572.494        -521.151          30.000  
> 2019  6 16  1 15 51.0000000  0  8                     
G 1  21414380.461   114108717.199        -521.884          37.000  
G 4  21414370.948   114108666.839        -521.567          47.000  
G 2  21414375.496   114108692.104        -521.613          43.000  
G 6  21414146.361   114107487.653        -521.571          46.000  
G11  21579364.325   114975727.237        -521.515          32.000  
G 3  21414371.249   114108670.569        -521.613          44.000  
G22  21468622.587   114393756.565        -521.486          32.000  
G12  21358125.582   113813094.084        -521.571          30.000  
> 2019  6 16  1 15 52.0000000  0  8                     
G 1  21414479.773   114109238.688        -521.671          37.000  
G 4  21414470.316   114109188.333        -521.560          47.000  
G 2  21414474.789   114109213.596        -521.583          44.000  
G 6  21414245.897   114108009.150        -521.527          46.000  
G11  21579463.618   114976248.719        -520.811          31.000  
G 3  21414470.609   114109192.064        -521.626          44.000  
G22  21468722.000   114394278.081        -521.749          32.000  
G12  21358224.908   113813615.558        -521.515          30.000  
> 2019  6 16  1 15 53.0000000  0  8                     
G 1  21414579.050   114109760.237        -521.583          37.000  
G 4  21414569.728   114109709.898        -521.633          47.000  
G 2  21414574.181   114109735.162        -521.599          43.000  
G 6  21414345.272   114108530.711        -521.517          45.000  
G11  21579563.014   114976770.315        -521.737          31.000  
G 3  21414570.020   114109713.629        -521.620          44.000  
G22  21468821.289   114394799.647        -521.591          32.000  
G12  21358324.271   113814137.147        -522.103          31.000  
> 2019  6 16  1 15 54.0000000  0  8                     
G 1  21414678.422   114110281.753        -521.832          37.000  
G 4  21414669.033   114110231.408        -521.656          47.000  
G 2  21414673.541   114110256.668        -521.536          43.000  
G 6  21414444.538   114109052.213        -521.499          45.000  
G11  21579662.331   114977291.797        -521.075          30.000  
G 3  21414669.269   114110235.138        -521.732          44.000  
G22  21468920.482   114395321.136        -521.187          31.000  
G12  21358423.679   113814658.648        -521.456          31.000  
> 2019  6 16  1 15 55.0000000  0  8                     
G 1  21414777.509   114110803.252        -521.331          37.000  
G 4  21414768.299   114110752.919        -521.494          46.000  
G 2  21414772.890   114110778.182        -521.399          43.000  
G 6  21414543.916   114109573.727        -521.389          45.000  
G11  21579761.718   114977813.308        -520.801          31.000  
G 3  21414768.509   114110756.659        -521.562          44.000  
G22  21469019.854   114395842.664        -521.407          31.000  
G12  21358522.979   113815180.175        -521.377          31.000  
> 2019  6 16  1 15 56.0000000  0  8                     
G 1  21414876.942   114111324.711        -521.465          38.000  
G 4  21414867.683   114111274.373        -521.602          46.000  
G 2  21414872.255   114111299.626        -521.479          43.000  
G 6  21414643.171   114110095.180        -521.458          45.000  
G11  21579861.053   114978334.741        -520.674          31.000  
G 3  21414867.847   114111278.105        -521.625          44.000  
G22  21469119.069   114396364.115        -521.417          32.000  
G12  21358622.200   113815701.609        -521.454          31.000  
> 2019  6 16  1 15 57.0000000  0  8                     
G 1  21414976.302   114111846.231        -521.451          38.000  
G 4  21414967.056   114111795.886        -521.636          46.000  
G 2  21414971.557   114111821.140        -521.456          43.000  
G 6  21414742.505   114110616.694        -521.487          46.000  
G11  21579960.441   114978856.272        -521.146          31.000  
G 3  21414967.159   114111799.624        -521.616          44.000  
G22  21469218.369   114396885.617        -521.526          32.000  
G12  21358721.480   113816223.135        -521.686          31.000  
> 2019  6 16  1 15 58.0000000  0  8                     
G 1  21415075.489   114112367.809        -521.547          37.000  
G 4  21415066.311   114112317.474        -521.660          46.000  
G 2  21415070.801   114112342.728        -521.593          44.000  
G 6  21414841.763   114111138.282        -521.614          45.000  
G11  21580059.841   114979377.872        -521.505          30.000  
G 3  21415066.373   114112321.208        -521.627          44.000  
G22  21469317.745   114397407.212        -521.732          31.000  
G12  21358820.842   113816744.721        -521.897          31.000  
> 2019  6 16  1 15 59.0000000  0  8                     
G 1  21415174.894   114112889.441        -521.322          38.000  
G 4  21415165.692   114112839.117        -521.615          46.000  
G 2  21415170.182   114112864.366        -521.489          44.000  
G 6  21414941.106   114111659.925        -521.509          45.000  
G11  21580159.254   114979899.515        -521.387          32.000  
G 3  21415165.667   114112842.858        -521.583          44.000  
G22  21469417.090   114397928.869        -521.606          32.000  
G12  21358920.094   113817266.367        -521.586          31.000  
> 2019  6 16  1 16  0.0000000  0  8                     
G 1  21415274.212   114113410.939        -521.259          37.000  
G 4  21415265.024   114113360.610        -521.582          46.000  
G 2  21415269.535   114113385.866        -521.488          44.000  
G 6  21415040.502   114112181.423        -521.523          45.000  
G11  21580258.682   114980420.972        -520.454          32.000  
G 3  21415265.037   114113364.344        -521.552          44.000  
G22  21469516.342   114398450.342        -521.200          31.000  
G12  21359019.368   113817787.827        -521.342          31.000  
> 2019  6 16  1 16  1.0000000  0  8                     
G 1  21415373.662   114113932.369        -521.241          37.000  
G 4  21415364.340   114113882.019        -521.423          46.000  
G 2  21415368.829   114113907.280        -521.366          44.000  
G 6  21415139.834   114112702.831        -521.415          45.000  
G11  21580357.891   114980942.404        -520.953          31.000  
G 3  21415364.295   114113885.755        -521.459          44.000  
G22  21469615.688   114398971.748        -521.420          32.000  
G12  21359118.641   113818309.263        -521.495          30.000  
> 2019  6 16  1 16  2.0000000  0  8                     
G 1  21415472.976   114114453.737        -521.436          37.000  
G 4  21415463.624   114114403.392        -521.458          46.000  
G 2  21415468.106   114114428.650        -521.433          44.000  
G 6  21415239.175   114113224.211        -521.504          46.000  
G11  21580457.205   114981463.780        -521.318          31.000  
G 3  21415463.514   114114407.134        -521.476          44.000  
G22  21469714.925   114399493.142        -521.464          32.000  
G12  21359218.022   113818830.618        -521.187          31.000  
> 2019  6 16  1 16  3.0000000  0  8                     
G 1  21415572.362   114114975.036        -521.189          37.000  
G 4  21415562.932   114114924.702        -521.467          46.000  
G 2  21415567.453   114114949.963        -521.392          44.000  
G 6  21415338.454   114113745.516        -521.382          46.000  
G11  21580556.554   114981985.092        -521.642          31.000  
G 3  21415562.796   114114928.437        -521.414          44.000  
G22  21469814.126   114400014.434        -521.136          32.000  
G12  21359317.232   113819351.939        -521.155          31.000  
> 2019  6 16  1 16  4.0000000  0  8                     
G 1  21415671.582   114115496.401        -521.279          37.000  
G 4  21415662.300   114115446.060        -521.207          47.000  
G 2  21415666.793   114115471.326        -521.195          44.000  
G 6  21415437.695   114114266.878        -521.234          45.000  
G11  21580655.827   114982506.457        -521.174          31.000  
G 3  21415662.210   114115449.795        -521.145          44.000  
G22  21469913.479   114400535.801        -521.230          31.000  
G12  21359416.528   113819873.290        -521.049          31.000  
> 2019  6 16  1 16  5.0000000  0  8                     
G 1  21415770.829   114116017.732        -521.357          37.000  
G 4  21415761.590   114115967.390        -521.497          46.000  
G 2  21415766.077   114115992.653        -521.467          44.000  
G 6  21415536.922   114114788.206        -521.455          45.000  
G11  21580755.170   114983027.816        -521.968          32.000  
G 3  21415761.555   114115971.131        -521.431          44.000  
G22  21470012.869   114401057.126        -521.274          32.000  
G12  21359515.822   113820394.642        -521.935          30.000  
> 2019  6 16  1 16  6.0000000  0  8                     
G 1  21415870.162   114116539.117        -521.062          37.000  
G 4  21415860.814   114116488.779        -521.227          47.000  
G 2  21415865.293   114116514.057        -521.349          44.000  
G 6  21415636.185   114115309.607        -521.381          45.000  
G11  21580854.453   114983549.220        -522.001          32.000  
G 3  21415860.898   114116492.510        -521.174          44.000  
G22  21470112.223   114401578.501        -520.688          32.000  
G12  21359615.167   113820916.021        -521.310          30.000  
> 2019  6 16  1 16  7.0000000  0  8                     
G 1  21415969.454   114117060.514        -521.277          37.000  
G 4  21415960.151   114117010.176        -521.359          47.000  
G 2  21415964.589   114117035.434        -521.367          44.000  
G 6  21415735.594   114115830.994        -521.387          45.000  
G11  21580953.712   114984070.560        -521.655          32.000  
G 3  21415960.191   114117013.902        -521.283          44.000  
G22  21470211.330   114402099.908        -520.959          32.000  
G12  21359714.324   113821437.453        -522.074          30.000  
> 2019  6 16  1 16  8.0000000  0  8                     
G 1  21416068.811   114117581.967        -521.151          37.000  
G 4  21416059.539   114117531.630        -521.354          46.000  
G 2  21416063.886   114117556.883        -521.238          44.000  
G 6  21415834.892   114116352.446        -521.395          45.000  
G11  21581053.042   114984592.044        -521.790          31.000  
G 3  21416059.514   114117535.347        -521.191          44.000  
G22  21470310.559   114402621.354        -521.022          32.000  
G12  21359813.505   113821958.894        -522.184          31.000  
> 2019  6 16  1 16  9.0000000  0  8                     
G 1  21416168.214   114118103.385        -521.241          37.000  
G 4  21416158.869   114118053.052        -521.493          46.000  
G 2  21416163.223   114118078.305        -521.350          44.000  
G 6  21415934.195   114116873.865        -521.517          46.000  
G11  21581152.385   114985113.469        -521.802          32.000  
G 3  21416158.800   114118056.770        -521.348          44.000  
G22  21470409.996   114403142.750        -520.779          31.000  
G12  21359912.747   113822480.307        -522.246          31.000  
> 2019  6 16  1 16 10.0000000  0  8                     
G 1  21416267.506   114118624.736        -520.889          38.000  
G 4  21416258.242   114118574.411        -521.425          46.000  
G 2  21416262.536   114118599.660        -521.245          43.000  
G 6  21416033.549   114117395.230        -521.438          46.000  
G11  21581251.705   114985634.869        -522.609          32.000  
G 3  21416258.110   114118578.143        -521.378          44.000  
G22  21470509.204   114403664.127        -520.984          31.000  
G12  21360011.991   113823001.612        -520.944          31.000  
> 2019  6 16  1 16 11.0000000  0  8                     
G 1  21416366.958   114119146.062        -521.038          37.000  
G 4  21416357.470   114119095.720        -521.115          47.000  
G 2  21416361.883   114119120.972        -521.063          44.000  
G 6  21416132.857   114117916.538        -521.190          45.000  
G11  21581351.098   114986156.150        -521.539          32.000  
G 3  21416357.459   114119099.442        -521.029          44.000  
G22  21470608.572   114404185.452        -521.112          31.000  
G12  21360111.226   113823522.971        -521.320          30.000  
> 2019  6 16  1 16 12.0000000  0  8                     
G 1  21416466.366   114119667.378        -521.057          37.000  
G 4  21416456.747   114119617.039        -521.216          47.000  
G 2  21416461.190   114119642.297        -521.226          44.000  
G 6  21416232.243   114118437.861        -521.251          46.000  
G11  21581450.440   114986677.487        -521.779          32.000  
G 3  21416456.755   114119620.767        -521.212          44.000  
G22  21470707.874   114404706.777        -521.138          31.000  
G12  21360210.488   113824044.284        -521.436          30.000  
> 2019  6 16  1 16 13.0000000  0  8                     
G 1  21416565.625   114120188.572        -521.079          37.000  
G 4  21416556.036   114120138.226        -521.168          47.000  
G 2  21416560.497   114120163.482        -521.111          44.000  
G 6  21416331.480   114118959.044        -521.106          45.000  
G11  21581549.751   114987198.658        -521.218          31.000  
G 3  21416556.114   114120141.950        -520.963          44.000  
G22  21470807.044   114405227.955        -520.990          32.000  
G12  21360309.680   113824565.473        -521.185          31.000  
> 2019  6 16  1 16 14.0000000  0  8                     
G 1  21416664.908   114120709.740        -520.999          37.000  
G 4  21416655.224   114120659.398        -521.188          47.000  
G 2  21416659.772   114120684.660        -521.161          44.000  
G 6  21416430.793   114119480.211        -521.033          46.000  
G11  21581648.970   114987719.819        -520.791          31.000  
G 3  21416655.410   114120663.118        -520.995          44.000  
G22  21470906.175   114405749.109        -521.036          32.000  
G12  21360408.895   113825086.585        -520.397          31.000  
> 2019  6 16  1 16 15.0000000  0  8                     
G 1  21416764.139   114121230.913        -521.267          37.000  
G 4  21416754.424   114121180.569        -521.250          47.000  
G 2  21416759.046   114121205.829        -521.243          44.000  
G 6  21416530.067   114120001.384        -521.144          45.000  
G11  21581748.152   114988240.965        -520.977          31.000  
G 3  21416754.621   114121184.293        -521.034          44.000  
G22  21471005.392   114406270.313        -521.265          31.000  
G12  21360508.124   113825607.761        -520.443          30.000  
> 2019  6 16  1 16 16.0000000  0  8                     
G 1  21416863.272   114121752.130        -521.130          38.000  
G 4  21416853.756   114121701.792        -521.309          46.000  
G 2  21416858.372   114121727.046        -521.199          44.000  
G 6  21416629.309   114120522.601        -521.104          45.000  
G11  21581847.268   114988762.211        -521.495          31.000  
G 3  21416853.890   114121705.511        -521.165          44.000  
G22  21471104.640   114406791.532        -521.454          32.000  
G12  21360607.407   113826129.019        -520.925          31.000  
> 2019  6 16  1 16 17.0000000  0  8                     
G 1  21416962.731   114122273.379        -521.193          37.000  
G 4  21416953.061   114122223.035        -521.298          47.000  
G 2  21416957.738   114122248.290        -521.255          44.000  
G 6  21416728.526   114121043.854        -521.210          45.000  
G11  21581946.486   114989283.434        -521.439          31.000  
G 3  21416953.118   114122226.759        -521.172          44.000  
G22  21471203.819   114407312.794        -521.461          32.000  
G12  21360706.647   113826650.290        -521.217          31.000  
> 2019  6 16  1 16 18.0000000  0  8                     
G 1  21417062.142   114122794.761        -521.249          37.000  
G 4  21417052.354   114122744.423        -521.458          46.000  
G 2  21417057.025   114122769.682        -521.451          44.000  
G 6  21416828.009   114121565.245        -521.475          45.000  
G11  21582045.817   114989804.858        -522.541          31.000  
G 3  21417052.416   114122748.144        -521.437          44.000  
G22  21471303.097   114407834.185        -521.284          32.000  
G12  21360805.932   113827171.647        -520.966          31.000  
> 2019  6 16  1 16 19.0000000  0  8                     
G 1  21417161.531   114123316.127        -521.208          37.000  
G 4  21417151.690   114123265.792        -521.379          47.000  
G 2  21417156.348   114123291.047        -521.370          45.000  
G 6  21416927.242   114122086.605        -521.327          45.000  
G11  21582145.234   114990326.148        -520.767          31.000  
G 3  21417151.686   114123269.518        -521.345          44.000  
G22  21471402.459   114408355.532        -521.111          32.000  
G12  21360905.185   113827693.070        -521.570          30.000  
> 2019  6 16  1 16 20.0000000  0  8                     
G 1  21417260.779   114123837.471        -521.353          37.000  
G 4  21417250.901   114123787.140        -521.355          47.000  
G 2  21417255.585   114123812.394        -521.354          44.000  
G 6  21417026.447   114122607.948        -521.193          45.000  
G11  21582244.429   114990847.532        -521.473          31.000  
G 3  21417250.966   114123790.863        -521.256          44.000  
G22  21471501.737   114408876.887        -521.177          32.000  
G12  21361004.409   113828214.422        -521.512          31.000  
> 2019  6 16  1 16 21.0000000  0  8                     
G 1  21417359.913   114124358.704        -521.113          38.000  
G 4  21417350.232   114124308.373        -521.370          47.000  
G 2  21417354.846   114124333.631        -521.420          44.000  
G 6  21417125.688   114123129.188        -521.343          45.000  
G11  21582343.584   114991368.781        -521.237          31.000  
G 3  21417350.298   114124312.098        -521.309          44.000  
G22  21471601.055   114409398.102        -521.293          32.000  
G12  21361103.653   113828735.615        -521.111          30.000  
> 2019  6 16  1 16 22.0000000  0  8                     
G 1  21417459.194   114124879.886        -520.956          37.000  
G 4  21417449.416   114124829.549        -521.039          47.000  
G 2  21417454.101   114124854.812        -521.073          45.000  
G 6  21417224.840   114123650.364        -521.157          45.000  
G11  21582442.851   114991889.939        -520.797          32.000  
G 3  21417449.591   114124833.289        -521.180          44.000  
G22  21471700.337   114409919.298        -521.290          32.000  
G12  21361202.839   113829256.746        -520.201          30.000  
> 2019  6 16  1 16 23.0000000  0  8                     
G 1  21417558.393   114125401.098        -521.217          37.000  
G 4  21417548.708   114125350.748        -521.260          47.000  
G 2  21417553.410   114125376.014        -521.298          44.000  
G 6  21417324.068   114124171.571        -521.263          45.000  
G11  21582542.201   114992411.132        -520.540          32.000  
G 3  21417548.953   114125354.490        -521.298          44.000  
G22  21471799.630   114410440.485        -521.113          31.000  
G12  21361302.177   113829778.000        -521.129          29.000  
> 2019  6 16  1 16 24.0000000  0  8                     
G 1  21417657.496   114125922.337        -521.481          37.000  
G 4  21417647.983   114125871.982        -521.185          47.000  
G 2  21417652.702   114125897.246        -521.339          44.000  
G 6  21417423.364   114124692.803        -521.287          45.000  
G11  21582641.452   114992932.365        -520.721          31.000  
G 3  21417648.196   114125875.726        -521.222          44.000  
G22  21471898.863   114410961.724        -521.284          32.000  
G12  21361401.415   113830299.235        -521.482          30.000  
> 2019  6 16  1 16 25.0000000  0  8                     
G 1  21417756.797   114126443.610        -521.195          38.000  
G 4  21417747.199   114126393.260        -521.262          47.000  
G 2  21417751.971   114126418.533        -521.462          44.000  
G 6  21417522.652   114125214.080        -521.288          45.000  
G11  21582740.769   114993453.663        -521.394          31.000  
G 3  21417747.504   114126396.996        -521.313          44.000  
G22  21471998.076   114411482.974        -520.514          32.000  
G12  21361500.654   113830820.495        -520.752          31.000  
> 2019  6 16  1 16 26.0000000  0  8                     
G 1  21417856.209   114126964.806        -521.150          37.000  
G 4  21417846.514   114126914.464        -520.914          47.000  
G 2  21417851.253   114126939.736        -521.262          44.000  
G 6  21417621.836   114125735.287        -521.240          45.000  
G11  21582839.939   114993974.836        -520.603          31.000  
G 3  21417846.748   114126918.198        -521.143          44.000  
G22  21472097.448   114412004.209        -520.918          33.000  
G12  21361599.950   113831341.709        -521.089          30.000  
> 2019  6 16  1 16 27.0000000  0  8                     
G 1  21417955.462   114127485.964        -520.950          37.000  
G 4  21417945.720   114127435.623        -520.897          46.000  
G 2  21417950.636   114127460.896        -521.189          44.000  
G 6  21417721.147   114126256.452        -521.139          45.000  
G11  21582939.185   114994495.994        -520.341          32.000  
G 3  21417946.024   114127439.360        -521.079          45.000  
G22  21472196.803   114412525.385        -520.952          33.000  
G12  21361699.224   113831862.882        -521.375          31.000  
> 2019  6 16  1 16 28.0000000  0  8                     
G 1  21418054.743   114128007.077        -521.221          37.000  
G 4  21418045.051   114127956.720        -521.061          46.000  
G 2  21418049.878   114127982.000        -521.310          44.000  
G 6  21417820.457   114126777.545        -521.196          45.000  
G11  21583038.474   114995017.103        -520.469          32.000  
G 3  21418045.335   114127960.460        -521.157          44.000  
G22  21472296.335   114413046.458        -521.067          33.000  
G12  21361798.608   113832383.974        -521.477          31.000  
> 2019  6 16  1 16 29.0000000  0  8                     
G 1  21418154.079   114128528.181        -521.201          37.000  
G 4  21418144.406   114128477.830        -520.892          46.000  
G 2  21418149.180   114128503.104        -521.212          44.000  
G 6  21417919.680   114127298.656        -521.152          45.000  
G11  21583137.752   114995538.214        -520.858          31.000  
G 3  21418144.663   114128481.575        -521.185          44.000  
G22  21472395.584   114413567.572        -521.021          32.000  
G12  21361897.769   113832905.076        -521.104          31.000  
> 2019  6 16  1 16 30.0000000  0  8                     
G 1  21418253.256   114129049.310        -521.066          37.000  
G 4  21418243.622   114128998.964        -520.922          46.000  
G 2  21418248.411   114129024.237        -521.227          44.000  
G 6  21418018.985   114127819.794        -521.173          45.000  
G11  21583237.019   114996059.360        -520.441          31.000  
G 3  21418243.927   114129002.702        -521.108          44.000  
G22  21472494.880   114414088.716        -521.107          33.000  
G12  21361996.869   113833426.182        -520.492          31.000  
> 2019  6 16  1 16 31.0000000  0  8                     
G 1  21418352.519   114129570.551        -521.342          37.000  
G 4  21418342.841   114129520.196        -521.185          46.000  
G 2  21418347.723   114129545.466        -521.342          45.000  
G 6  21418118.391   114128391.0153       -521.327          45.000  
G11  21583336.385   114996618.0853       -521.057          32.000  
G 3  21418343.222   114129523.931        -521.285          44.000  
G22  21472594.001   114414609.937        -522.158          32.000  
G12  21362096.184   113833947.464        -521.111          31.000  
> 2019  6 16  1 16 32.0000000  0  8                     
G 1  21418451.935   114130091.833        -521.393          37.000  
G 4  21418442.127   114130041.481        -521.147          46.000  
G 2  21418447.034   114130066.753        -521.307          44.000  
G 6  21418217.759   114128913.2993       -521.251          45.000  
G11  21583435.773   114997139.4082       -521.298          31.000  
G 3  21418442.455   114130045.209        -521.245          44.000  
G22  21472693.178   114415131.221        -520.908          32.000  
G12  21362195.543   113834468.724        -521.421          32.000  
> 2019  6 16  1 16 33.0000000  0  8                     
G 1  21418551.235   114130613.040        -521.481          37.000  
G 4  21418541.430   114130562.685        -521.180          46.000  
G 2  21418546.342   114130587.961        -521.376          44.000  
G 6  21418317.024   114129435.5072       -521.382          45.000  
G11  21583535.144   114997660.6652       -522.947          31.000  
G 3  21418541.681   114130566.427        -521.406          44.000  
G22  21472792.360   114415652.304        -519.037          32.000  
G12  21362294.780   113834989.936        -521.011          31.000  
> 2019  6 16  1 16 34.0000000  0  8                     
G 1  21418650.461   114131134.266        -521.410          37.000  
G 4  21418640.664   114131083.921        -521.292          46.000  
G 2  21418645.639   114131109.187        -521.262          44.000  
G 6  21418416.344   114129956.7362       -521.315          45.000  
G11  21583634.398   114998183.8253       -521.044          32.000  
G 3  21418640.842   114131087.648        -521.152          44.000  
G22  21472891.732   114416173.670        -521.073          32.000  
G12  21362394.042   113835511.120        -520.467          30.000  
> 2019  6 16  1 16 35.0000000  0  8                     
G 1  21418749.464   114131655.476        -521.522          37.000  
G 4  21418739.857   114131605.137        -521.294          46.000  
G 2  21418744.919   114131630.402        -521.295          44.000  
G 6  21418515.587   114130478.9423       -521.145          45.000  
G11  21583733.760   114998705.0222       -521.150          32.000  
G 3  21418740.096   114131608.858        -521.259          44.000  
G22  21472990.924   114416694.866        -521.195          32.000  
G12  21362493.271   113836032.376        -521.396          30.000  
> 2019  6 16  1 16 36.0000000  0  8                     
G 1  21418848.729   114132176.751        -521.616          38.000  
G 4  21418839.121   114132126.403        -521.387          46.000  
G 2  21418844.264   114132151.668        -521.379          44.000  
G 6  21418614.909   114131000.2062       -521.163          46.000  
G11  21583833.071   114999226.3132       -520.975          31.000  
G 3  21418839.386   114132130.128        -521.306          44.000  
G22  21473090.127   114417216.116        -521.561          32.000  
G12  21362592.450   113836553.657        -521.293          31.000  
> 2019  6 16  1 16 37.0000000  0  8                     
G 1  21418947.927   114132697.916        -521.298          38.000  
G 4  21418938.341   114132647.571        -521.191          46.000  
G 2  21418943.517   114132672.840        -521.240          44.000  
G 6  21418714.074   114131521.3843       -521.129          45.000  
G11  21583932.451   114999746.9461       -520.564          31.000  
G 3  21418938.681   114132651.306        -521.202          44.000  
G22  21473189.206   114417737.316        -521.284          32.000  
G12  21362691.672   113837074.814        -520.997          31.000  
> 2019  6 16  1 16 38.0000000  0  8                     
G 1  21419047.261   114133219.104        -521.273          37.000  
G 4  21419037.670   114133168.749        -521.135          46.000  
G 2  21419042.807   114133194.015        -521.168          44.000  
G 6  21418813.424   114132042.5602       -520.990          45.000  
G11  21584031.746   115000271.6203       -520.974          31.000  
G 3  21419037.811   114133172.477        -521.107          44.000  
G22  21473288.424   114418258.489        -521.066          32.000  
G12  21362790.924   113837595.971        -520.709          31.000  
> 2019  6 16  1 16 39.0000000  0  8                     
G 1  21419146.653   114133740.287        -521.619          37.000  
G 4  21419137.002   114133689.940        -521.508          46.000  
G 2  21419142.056   114133715.198        -521.364          44.000  
G 6  21418912.753   114132563.7412       -521.360          45.000  
G11  21584131.094   115000792.8572       -522.067          32.000  
G 3  21419137.106   114133693.665        -521.439          44.000  
G22  21473387.665   114418779.682        -521.394          33.000  
G12  21362890.043   113838117.162        -521.299          32.000  
> 2019  6 16  1 16 40.0000000  0  8                     
G 1  21419245.846   114134261.481        -521.453          37.000  
G 4  21419236.386   114134211.145        -521.451          47.000  
G 2  21419241.357   114134236.403        -521.318          44.000  
G 6  21419011.966   114133084.9442       -521.265          46.000  
G11  21584230.354   115001314.0362       -521.500          32.000  
G 3  21419236.436   114134214.863        -521.305          44.000  
G22  21473486.950   114419300.856        -521.224          32.000  
G12  21362989.240   113838638.371        -521.403          32.000  
> 2019  6 16  1 16 41.0000000  0  8                     
G 1  21419345.256   114134782.759        -521.481          37.000  
G 4  21419335.695   114134732.420        -521.532          46.000  
G 2  21419340.593   114134757.672        -521.329          45.000  
G 6  21419111.271   114133606.2212       -521.331          45.000  
G11  21584329.594   115001835.3152       -521.935          32.000  
G 3  21419335.739   114134736.142        -521.393          44.000  
G22  21473586.247   114419822.141        -521.606          32.000  
G12  21363088.518   113839159.650        -521.381          31.000  
> 2019  6 16  1 16 42.0000000  0  8                     
G 1  21419444.331   114135303.979        -521.388          37.000  
G 4  21419434.921   114135253.637        -521.335          46.000  
G 2  21419439.775   114135278.896        -521.200          44.000  
G 6  21419210.491   114134127.4382       -521.157          45.000  
G11  21584428.883   115002356.5492       -521.460          31.000  
G 3  21419435.012   114135257.361        -521.144          44.000  
G22  21473685.535   114420343.368        -521.421          32.000  
G12  21363187.808   113839680.895        -521.475          31.000  
> 2019  6 16  1 16 43.0000000  0  8                     
G 1  21419543.672   114135825.186        -521.326          37.000  
G 4  21419534.127   114135774.837        -521.289          46.000  
G 2  21419539.011   114135800.100        -521.228          44.000  
G 6  21419309.718   114134648.645        -521.132          45.000  
G11  21584528.180   115002877.2601       -521.843          32.000  
G 3  21419534.386   114135778.572        -521.384          44.000  
G22  21473784.904   114420864.574        -521.254          33.000  
G12  21363287.181   113840202.074        -521.571          31.000  
> 2019  6 16  1 16 44.0000000  0  8                     
G 1  21419642.921   114136346.349        -521.022          37.000  
G 4  21419633.441   114136296.006        -521.255          46.000  
G 2  21419638.276   114136321.265        -521.071          44.000  
G 6  21419409.042   114135169.817        -521.101          45.000  
G11  21584627.413   115003398.419        -521.674          32.000  
G 3  21419633.652   114136299.734        -521.172          44.000  
G22  21473884.200   114421385.785        -521.475          32.000  
G12  21363386.441   113840723.280        -521.389          31.000  
> 2019  6 16  1 16 45.0000000  0  8                     
G 1  21419742.253   114136867.633        -521.094          38.000  
G 4  21419732.767   114136817.308        -521.339          46.000  
G 2  21419737.540   114136842.569        -521.240          44.000  
G 6  21419508.367   114135691.121        -521.316          45.000  
G11  21584726.675   115003919.733        -522.007          32.000  
G 3  21419732.929   114136821.038        -521.251          44.000  
G22  21473983.493   114421907.053        -521.420          32.000  
G12  21363485.598   113841244.538        -521.387          30.000  
> 2019  6 16  1 16 46.0000000  0  8                     
G 1  21419841.426   114137446.3693       -521.068          38.000  
G 4  21419831.998   114137338.531        -521.243          46.000  
G 2  21419836.852   114137363.791        -521.044          44.000  
G 6  21419607.699   114136212.343        -521.270          45.000  
G11  21584825.835   115004440.950        -521.250          31.000  
G 3  21419832.248   114137342.267        -521.293          44.000  
G22  21474082.815   114422428.284        -521.525          32.000  
G12  21363584.929   113841765.788        -521.445          30.000  
> 2019  6 16  1 16 47.0000000  0  8                     
G 1  21419940.653   114137967.5063       -520.902          38.000  
G 4  21419931.271   114137859.670        -521.047          46.000  
G 2  21419936.115   114137884.934        -521.107          44.000  
G 6  21419706.907   114136733.486        -521.107          45.000  
G11  21584925.097   115004966.5703       -521.505          31.000  
G 3  21419931.596   114137863.411        -521.117          44.000  
G22  21474181.971   114422949.434        -521.400          32.000  
G12  21363684.182   113842286.921        -520.979          31.000  
> 2019  6 16  1 16 48.0000000  0  8                     
G 1  21420040.012   114138488.5982       -520.917          37.000  
G 4  21420030.562   114138380.764        -521.100          46.000  
G 2  21420035.351   114138406.023        -521.062          44.000  
G 6  21419806.147   114137254.579        -521.122          45.000  
G11  21585024.259   115005487.6612       -521.511          31.000  
G 3  21420030.814   114138384.498        -521.215          44.000  
G22  21474281.319   114423470.518        -521.411          32.000  
G12  21363783.375   113842808.005        -521.160          31.000  
> 2019  6 16  1 16 49.0000000  0  8                     
G 1  21420139.416   114139009.4251       -521.204          37.000  
G 4  21420129.773   114138902.087        -521.327          46.000  
G 2  21420134.661   114138927.357        -521.427          44.000  
G 6  21419905.488   114137775.909        -521.429          45.000  
G11  21585123.513   115006008.5001       -521.799          32.000  
G 3  21420130.142   114138905.821        -521.401          44.000  
G22  21474380.587   114423991.838        -521.447          32.000  
G12  21363882.657   113843329.329        -521.379          31.000  
> 2019  6 16  1 16 50.0000000  0  8                     
G 1  21420238.662   114139530.790        -521.429          37.000  
G 4  21420229.155   114139423.448        -521.306          46.000  
G 2  21420233.880   114139448.704        -521.260          44.000  
G 6  21420004.828   114138297.266        -521.329          45.000  
G11  21585222.646   115006529.835        -521.728          32.000  
G 3  21420229.420   114139427.185        -521.418          44.000  
G22  21474479.982   114424513.187        -521.207          32.000  
G12  21363981.936   113843850.659        -521.013          30.000  
> 2019  6 16  1 16 51.0000000  0  8                     
G 1  21420337.997   114140052.102        -521.244          37.000  
G 4  21420328.483   114139944.761        -521.130          46.000  
G 2  21420333.144   114139970.020        -521.115          44.000  
G 6  21420104.115   114138818.578        -521.174          45.000  
G11  21585321.852   115007051.212        -522.379          32.000  
G 3  21420328.711   114139948.490        -521.217          44.000  
G22  21474579.404   114425034.497        -521.143          33.000  
G12  21364081.205   113844372.005        -521.232          31.000  
> 2019  6 16  1 16 52.0000000  0  8                     
G 1  21420437.100   114140573.317        -521.254          38.000  
G 4  21420427.741   114140465.975        -521.156          46.000  
G 2  21420432.488   114140491.240        -521.158          44.000  
G 6  21420203.325   114139339.791        -521.230          45.000  
G11  21585421.247   115007572.402        -521.707          32.000  
G 3  21420428.005   114140469.715        -521.309          44.000  
G22  21474678.719   114425555.731        -521.522          33.000  
G12  21364180.496   113844893.228        -521.285          32.000  
> 2019  6 16  1 16 53.0000000  0  8                     
G 1  21420536.336   114141094.553        -521.311          38.000  
G 4  21420527.067   114140987.197        -521.075          46.000  
G 2  21420531.802   114141012.463        -521.151          44.000  
G 6  21420302.571   114139861.014        -521.150          45.000  
G11  21585520.518   115008093.622        -521.261          32.000  
G 3  21420527.248   114140990.933        -521.182          44.000  
G22  21474777.924   114426076.958        -521.564          32.000  
G12  21364279.818   113845414.454        -521.053          32.000  
> 2019  6 16  1 16 54.0000000  0  8                     
G 1  21420635.590   114141615.712        -521.616          38.000  
G 4  21420626.371   114141508.349        -521.205          46.000  
G 2  21420631.155   114141533.617        -521.288          44.000  
G 6  21420401.824   114140382.170        -521.254          45.000  
G11  21585619.629   115008614.759        -521.493          32.000  
G 3  21420626.552   114141512.081        -521.279          44.000  
G22  21474877.106   114426598.106        -521.241          33.000  
G12  21364379.074   113845935.618        -521.593          32.000  
> 2019  6 16  1 16 55.0000000  0  8                     
G 1  21420734.878   114142136.808        -521.212          37.000  
G 4  21420725.695   114142029.452        -520.928          46.000  
G 2  21420730.306   114142054.721        -520.981          44.000  
G 6  21420501.219   114140903.280        -521.074          45.000  
G11  21585719.020   115009135.891        -521.576          31.000  
G 3  21420725.784   114142033.187        -521.061          44.000  
G22  21474976.416   114427119.208        -520.997          33.000  
G12  21364478.397   113846456.722        -521.423          32.000  
> 2019  6 16  1 16 56.0000000  0  8                     
G 1  21420834.176   114142657.924        -521.564          37.000  
G 4  21420824.828   114142550.563        -521.113          46.000  
G 2  21420829.529   114142575.825        -521.154          44.000  
G 6  21420600.531   114141424.389        -521.287          45.000  
G11  21585818.267   115009656.966        -521.137          31.000  
G 3  21420825.064   114142554.302        -521.245          44.000  
G22  21475075.712   114427640.343        -521.360          33.000  
G12  21364577.623   113846977.833        -521.609          32.000  
> 2019  6 16  1 16 57.0000000  0  8                     
G 1  21420933.534   114143179.058        -521.440          37.000  
G 4  21420924.064   114143071.676        -521.025          46.000  
G 2  21420928.830   114143096.949        -521.194          44.000  
G 6  21420699.832   114141945.497        -521.107          44.000  
G11  21585917.644   115010178.065        -520.702          32.000  
G 3  21420924.311   114143075.410        -521.058          44.000  
G22  21475174.878   114428161.449        -521.531          32.000  
G12  21364676.921   113847498.898        -520.898          31.000  
> 2019  6 16  1 16 58.0000000  0  8                     
G 1  21421033.003   114143700.190        -521.573          37.000  
G 4  21421023.276   114143592.803        -521.178          46.000  
G 2  21421028.007   114143618.065        -521.234          44.000  
G 6  21420799.110   114142466.624        -521.198          44.000  
G11  21586016.805   115010699.211        -521.842          32.000  
G 3  21421023.591   114143596.534        -521.155          44.000  
G22  21475274.110   114428682.571        -521.544          32.000  
G12  21364776.210   113848020.016        -521.069          31.000  
> 2019  6 16  1 16 59.0000000  0  8                     
G 1  21421132.343   114144221.420        -521.433          37.000  
G 4  21421122.595   114144114.057        -521.216          46.000  
G 2  21421127.281   114144139.321        -521.208          44.000  
G 6  21420898.222   114142987.875        -521.282          45.000  
G11  21586116.028   115011220.459        -521.043          31.000  
G 3  21421122.879   114144117.790        -521.201          44.000  
G22  21475373.405   114429203.826        -521.517          32.000  
G12  21364875.475   113848541.275        -521.007          31.000  
> 2019  6 16  1 17  0.0000000  0  8                     
G 1  21421231.693   114144742.707        -521.593          38.000  
G 4  21421222.007   114144635.348        -521.632          46.000  
G 2  21421226.586   114144660.599        -521.498          44.000  
G 6  21420997.505   114143509.163        -521.505          44.000  
G11  21586215.366   115011741.755        -521.738          31.000  
G 3  21421222.199   114144639.077        -521.514          44.000  
G22  21475472.706   114429725.094        -521.615          31.000  
G12  21364974.793   113849062.549        -521.141          31.000  
> 2019  6 16  1 17  1.0000000  0  8                     
G 1  21421330.893   114145263.950        -521.602          38.000  
G 4  21421321.245   114145156.582        -521.344          45.000  
G 2  21421325.809   114145181.829        -521.324          44.000  
G 6  21421096.667   114144042.4083       -521.450          44.000  
G11  21586314.655   115012262.989        -521.293          31.000  
G 3  21421321.621   114145160.319        -521.268          44.000  
G22  21475572.004   114430246.365        -522.023          32.000  
G12  21365074.246   113849583.794        -520.975          31.000  
> 2019  6 16  1 17  2.0000000  0  8                     
G 1  21421430.063   114145785.081        -521.451          38.000  
G 4  21421420.544   114145677.722        -521.165          46.000  
G 2  21421425.123   114145702.968        -521.123          43.000  
G 6  21421195.951   114144563.5463       -521.257          44.000  
G11  21586413.996   115012784.140        -522.007          31.000  
G 3  21421420.888   114145681.455        -521.085          44.000  
G22  21475671.265   114430767.499        -521.388          32.000  
G12  21365173.747   113850104.995        -521.770          31.000  
> 2019  6 16  1 17  3.0000000  0  8                     
G 1  21421529.178   114146306.281        -521.315          38.000  
G 4  21421519.835   114146198.929        -521.138          46.000  
G 2  21421524.415   114146224.177        -521.096          44.000  
G 6  21421295.191   114145085.7552       -521.146          44.000  
G11  21586513.261   115013305.343        -521.296          31.000  
G 3  21421520.123   114146202.671        -521.157          44.000  
G22  21475770.678   114431355.6783       -521.099          31.000  
G12  21365273.034   113850626.188        -521.704          31.000  
> 2019  6 16  1 17  4.0000000  0  8                     
G 1  21421628.169   114146827.419        -521.132          39.000  
G 4  21421619.104   114146720.067        -521.149          46.000  
G 2  21421623.721   114146745.320        -521.033          44.000  
G 6  21421394.351   114145606.8823       -521.079          45.000  
G11  21586610.118   115013821.0353       -522.101          30.000  
G 3  21421619.425   114146723.803        -521.113          44.000  
G22  21475867.575   114431876.8162       -521.040          31.000  
G12  21365372.406   113851147.306        -521.185          31.000  
> 2019  6 16  1 17  5.0000000  0  8                     
G 1  21421727.534   114147348.532        -521.270          38.000  
G 4  21421718.364   114147241.178        -521.326          45.000  
G 2  21421723.003   114147266.427        -521.271          44.000  
G 6  21421493.608   114146127.9963       -521.312          45.000  
G11  21586711.161   115014342.0602       -521.073          31.000  
G 3  21421718.697   114147244.914        -521.288          44.000  
G22  21475968.370   114432397.9462       -521.523          32.000  
G12  21365471.962   113851668.427        -521.663          30.000  
> 2019  6 16  1 17  6.0000000  0  8                     
G 1  21421826.822   114147869.725        -521.012          38.000  
G 4  21421817.630   114147762.368        -521.045          46.000  
G 2  21421822.275   114147787.614        -520.905          44.000  
G 6  21421592.879   114146649.1882       -521.046          45.000  
G11  21586811.095   115014863.2292       -520.657          31.000  
G 3  21421818.022   114147766.105        -521.039          44.000  
G22  21476069.958   114432919.1182       -521.008          33.000  
G12  21365571.426   113852189.629        -521.515          31.000  
> 2019  6 16  1 17  7.0000000  0  8                     
G 1  21421926.081   114148390.832        -521.094          38.000  
G 4  21421916.986   114148283.488        -521.251          46.000  
G 2  21421921.527   114148308.734        -521.001          43.000  
G 6  21421692.147   114147171.3013       -521.155          45.000  
G11  21586911.627   115015405.8573       -520.389          31.000  
G 3  21421917.263   114148287.216        -521.030          45.000  
G22  21476168.649   114433440.243        -521.160          33.000  
G12  21365670.777   113852710.757        -521.696          31.000  
> 2019  6 16  1 17  8.0000000  0  8                     
G 1  21422025.375   114148911.982        -520.837          38.000  
G 4  21422016.213   114148804.631        -521.129          45.000  
G 2  21422020.877   114148829.879        -521.064          43.000  
G 6  21421791.399   114147692.4562       -521.180          44.000  
G11  21587010.833   115015927.0012       -520.323          32.000  
G 3  21422016.570   114148808.365        -520.950          45.000  
G22  21476268.391   114433961.376        -520.991          33.000  
G12  21365770.097   113853231.920        -521.664          31.000  
> 2019  6 16  1 17  9.0000000  0  8                     
G 1  21422124.610   114149433.098        -520.980          38.000  
G 4  21422115.493   114149325.752        -521.143          46.000  
G 2  21422120.148   114149351.006        -521.180          43.000  
G 6  21421890.654   114148213.5722       -521.151          45.000  
G11  21587112.625   115016448.1182       -520.414          31.000  
G 3  21422115.801   114149329.478        -521.024          44.000  
G22  21476368.255   114434482.521        -521.184          33.000  
G12  21365869.525   113853753.021        -521.646          31.000  
> 2019  6 16  1 17 10.0000000  0  8                     
G 1  21422223.948   114149954.206        -520.905          39.000  
G 4  21422214.718   114149846.874        -521.171          46.000  
G 2  21422219.427   114149872.126        -521.058          43.000  
G 6  21421990.005   114148734.6962       -521.077          44.000  
G11  21587210.754   115016977.2813       -521.528          31.000  
G 3  21422215.054   114149850.610        -520.980          44.000  
G22  21476467.481   114435003.628        -520.873          33.000  
G12  21365968.744   113854274.171        -521.919          31.000  
> 2019  6 16  1 17 11.0000000  0  8                     
G 1  21422323.125   114150475.346        -520.894          39.000  
G 4  21422313.994   114150368.006        -521.216          46.000  
G 2  21422318.651   114150393.258        -521.116          43.000  
G 6  21422089.241   114149255.8242       -521.150          45.000  
G11  21587309.780   115017498.3872       -520.238          31.000  
G 3  21422314.337   114150371.732        -520.990          44.000  
G22  21476566.655   114435524.750        -520.979          33.000  
G12  21366068.030   113854795.289        -521.484          31.000  
> 2019  6 16  1 17 12.0000000  0  8                     
G 1  21422422.385   114150996.451        -520.691          38.000  
G 4  21422413.326   114150889.109        -521.128          46.000  
G 2  21422417.905   114150914.364        -521.030          43.000  
G 6  21422188.467   114149776.9292       -520.981          45.000  
G11  21587408.753   115018019.4772       -519.957          31.000  
G 3  21422413.614   114150892.848        -520.930          44.000  
G22  21476665.846   114436045.845        -520.963          33.000  
G12  21366167.445   113855316.382        -521.449          31.000  
> 2019  6 16  1 17 13.0000000  0  8                     
G 1  21422521.905   114151517.575        -521.025          38.000  
G 4  21422512.605   114151410.220        -521.284          46.000  
G 2  21422517.097   114151435.470        -521.213          43.000  
G 6  21422287.753   114150298.045        -521.213          45.000  
G11  21587507.753   115018540.575        -520.229          31.000  
G 3  21422512.964   114151413.965        -521.213          44.000  
G22  21476764.940   114436566.973        -521.116          32.000  
G12  21366266.835   113855837.457        -521.058          31.000  
> 2019  6 16  1 17 14.0000000  0  8                     
G 1  21422621.211   114152038.678        -520.831          38.000  
G 4  21422611.873   114151931.337        -521.230          46.000  
G 2  21422616.445   114151956.594        -521.274          43.000  
G 6  21422386.997   114150819.157        -521.104          45.000  
G11  21587607.027   115019061.695        -520.287          31.000  
G 3  21422612.186   114151935.072        -521.256          45.000  
G22  21476864.156   114437088.094        -521.077          33.000  
G12  21366366.171   113856358.523        -520.297          31.000  
> 2019  6 16  1 17 15.0000000  0  8                     
G 1  21422720.529   114152559.828        -520.742          38.000  
G 4  21422711.081   114152452.498        -521.299          46.000  
G 2  21422715.747   114152477.752        -521.234          43.000  
G 6  21422486.193   114151340.318        -521.096          45.000  
G11  21587706.361   115019582.814        -519.570          31.000  
G 3  21422711.470   114152456.236        -521.218          44.000  
G22  21476963.396   114437609.233        -520.763          33.000  
G12  21366465.439   113856879.729        -520.670          31.000  
> 2019  6 16  1 17 16.0000000  0  8                     
G 1  21422819.763   114153080.915        -520.643          38.000  
G 4  21422810.235   114152973.580        -521.156          46.000  
G 2  21422815.052   114152998.836        -521.134          43.000  
G 6  21422585.557   114151861.399        -520.999          45.000  
G11  21587805.581   115020103.924        -519.770          31.000  
G 3  21422810.803   114152977.325        -521.080          44.000  
G22  21477062.517   114438130.313        -520.476          32.000  
G12  21366564.771   113857400.827        -521.254          30.000  
> 2019  6 16  1 17 17.0000000  0  8                     
G 1  21422919.102   114153602.034        -520.957          38.000  
G 4  21422909.490   114153494.690        -521.316          46.000  
G 2  21422914.279   114153519.949        -521.331          43.000  
G 6  21422684.751   114152382.505        -521.136          44.000  
G11  21587904.717   115020625.058        -520.472          32.000  
G 3  21422910.085   114153498.429        -521.273          44.000  
G22  21477161.718   114438651.436        -520.746          33.000  
G12  21366664.142   113857921.933        -521.111          31.000  
> 2019  6 16  1 17 18.0000000  0  8                     
G 1  21423018.399   114154123.201        -521.539          37.000  
G 4  21423008.719   114154015.840        -521.415          45.000  
G 2  21423013.596   114154041.094        -521.349          43.000  
G 6  21422784.036   114152903.664        -521.329          44.000  
G11  21588003.819   115021146.227        -521.324          31.000  
G 3  21423009.269   114154019.579        -521.373          44.000  
G22  21477260.932   114439172.585        -521.025          32.000  
G12  21366763.369   113858443.080        -521.218          31.000  
> 2019  6 16  1 17 19.0000000  0  8                     
G 1  21423117.839   114154644.364        -521.075          38.000  
G 4  21423107.944   114154537.021        -521.262          46.000  
G 2  21423112.907   114154562.272        -521.241          43.000  
G 6  21422883.384   114153424.849        -521.287          44.000  
G11  21588102.972   115021667.398        -521.143          32.000  
G 3  21423108.604   114154540.770        -521.279          45.000  
G22  21477360.186   114439693.754        -520.540          32.000  
G12  21366862.583   113858964.270        -520.686          31.000  
> 2019  6 16  1 17 20.0000000  0  8                     
G 1  21423216.858   114155165.551        -521.121          38.000  
G 4  21423207.227   114155058.202        -521.233          46.000  
G 2  21423212.162   114155083.455        -521.141          43.000  
G 6  21422982.625   114153946.017        -521.084          44.000  
G11  21588202.179   115022188.580        -520.710          32.000  
G 3  21423207.920   114155061.947        -521.293          44.000  
G22  21477459.413   114440214.930        -520.743          32.000  
G12  21366961.761   113859485.453        -521.051          31.000  
> 2019  6 16  1 17 21.0000000  0  8                     
G 1  21423316.339   114155686.799        -521.115          38.000  
G 4  21423306.541   114155579.429        -521.271          46.000  
G 2  21423311.358   114155604.689        -521.125          43.000  
G 6  21423081.924   114154467.256        -521.320          44.000  
G11  21588301.335   115022709.797        -521.166          33.000  
G 3  21423307.257   114155583.168        -521.537          44.000  
G22  21477558.555   114440736.181        -520.775          33.000  
G12  21367060.972   113860006.681        -521.093          31.000  
> 2019  6 16  1 17 22.0000000  0  8                     
G 1  21423415.712   114156208.036        -521.268          38.000  
G 4  21423405.795   114156100.670        -521.172          46.000  
G 2  21423410.581   114156125.932        -521.094          43.000  
G 6  21423181.220   114154988.489        -521.161          44.000  
G11  21588400.511   115023231.092        -521.304          33.000  
G 3  21423406.543   114156104.418        -521.469          44.000  
G22  21477657.887   114441257.422        -520.942          33.000  
G12  21367160.306   113860527.907        -520.743          31.000  
> 2019  6 16  1 17 23.0000000  0  8                     
G 1  21423514.993   114156729.171        -520.942          38.000  
G 4  21423505.126   114156621.819        -521.016          46.000  
G 2  21423509.802   114156647.074        -520.887          43.000  
G 6  21423280.450   114155509.646        -521.177          44.000  
G11  21588499.713   115023752.206        -521.029          32.000  
G 3  21423505.833   114156625.576        -521.304          44.000  
G22  21477757.100   114441778.586        -521.422          33.000  
G12  21367259.580   113861049.080        -521.123          31.000  
> 2019  6 16  1 17 24.0000000  0  8                     
G 1  21423614.242   114157250.385        -521.294          38.000  
G 4  21423604.382   114157143.012        -520.985          45.000  
G 2  21423609.003   114157168.283        -521.165          43.000  
G 6  21423379.718   114156030.848        -521.208          44.000  
G11  21588598.908   115024273.395        -521.056          31.000  
G 3  21423605.159   114157146.774        -521.416          44.000  
G22  21477856.233   114442299.769        -521.211          32.000  
G12  21367358.954   113861570.262        -520.750          30.000  
> 2019  6 16  1 17 25.0000000  0  8                     
G 1  21423713.497   114157771.463        -521.099          38.000  
G 4  21423703.556   114157664.096        -521.012          45.000  
G 2  21423708.279   114157689.369        -521.033          43.000  
G 6  21423479.038   114156551.926        -521.152          44.000  
G11  21588698.036   115024794.486        -521.219          31.000  
G 3  21423704.379   114157667.845        -521.259          44.000  
G22  21477955.182   114442820.841        -521.075          32.000  
G12  21367458.111   113862091.332        -520.703          31.000  
> 2019  6 16  1 17 26.0000000  0  8                     
G 1  21423812.685   114158292.647        -520.991          37.000  
G 4  21423802.791   114158185.293        -521.075          45.000  
G 2  21423807.529   114158210.564        -521.135          43.000  
G 6  21423578.225   114157073.118        -521.183          44.000  
G11  21588797.214   115025315.710        -521.366          31.000  
G 3  21423803.607   114158189.047        -521.320          44.000  
G22  21478054.276   114443342.031        -521.140          31.000  
G12  21367557.258   113862612.525        -520.925          31.000  
> 2019  6 16  1 17 27.0000000  0  8                     
G 1  21423911.919   114158813.784        -520.828          37.000  
G 4  21423902.100   114158706.442        -521.062          45.000  
G 2  21423906.836   114158731.700        -521.025          43.000  
G 6  21423677.417   114157594.262        -521.097          44.000  
G11  21588896.448   115025836.819        -521.082          31.000  
G 3  21423902.851   114158710.185        -521.145          44.000  
G22  21478153.457   114443863.178        -520.724          32.000  
G12  21367656.407   113863133.696        -520.676          31.000  
> 2019  6 16  1 17 28.0000000  0  8                     
G 1  21424011.186   114159334.881        -521.005          38.000  
G 4  21424001.434   114159227.542        -521.221          45.000  
G 2  21424006.099   114159252.798        -521.136          44.000  
G 6  21423776.722   114158115.356        -521.101          44.000  
G11  21588995.609   115026357.971        -522.227          32.000  
G 3  21424002.041   114159231.282        -521.283          45.000  
G22  21478252.566   114444384.265        -520.712          33.000  
G12  21367755.612   113863654.758        -520.898          31.000  
> 2019  6 16  1 17 29.0000000  0  8                     
G 1  21424110.360   114159856.059        -521.040          37.000  
G 4  21424100.647   114159748.717        -521.238          45.000  
G 2  21424105.324   114159773.977        -521.173          44.000  
G 6  21423876.061   114158636.536        -521.222          45.000  
G11  21589094.838   115026879.145        -521.714          32.000  
G 3  21424101.214   114159752.464        -521.288          45.000  
G22  21478351.641   114444905.452        -520.906          32.000  
G12  21367854.964   113864175.964        -521.422          31.000  
> 2019  6 16  1 17 30.0000000  0  8                     
G 1  21424209.555   114160377.226        -520.811          38.000  
G 4  21424200.037   114160269.883        -521.068          45.000  
G 2  21424204.577   114160295.134        -520.940          44.000  
G 6  21423975.331   114159157.703        -521.106          44.000  
G11  21589194.165   115027400.304        -521.769          32.000  
G 3  21424200.438   114160273.615        -520.988          44.000  
G22  21478450.854   114445426.631        -521.036          32.000  
G12  21367954.357   113864697.137        -521.160          31.000  
> 2019  6 16  1 17 31.0000000  0  8                     
G 1  21424308.861   114160898.368        -521.157          38.000  
G 4  21424299.235   114160791.016        -521.416          46.000  
G 2  21424303.762   114160816.272        -521.342          44.000  
G 6  21424074.697   114159678.837        -521.321          44.000  
G11  21589293.391   115027921.429        -521.631          32.000  
G 3  21424299.697   114160794.759        -521.276          44.000  
G22  21478549.957   114445947.756        -521.226          31.000  
G12  21368053.530   113865218.263        -521.357          30.000  
> 2019  6 16  1 17 32.0000000  0  8                     
G 1  21424408.150   114161419.497        -521.218          38.000  
G 4  21424398.487   114161312.143        -521.188          45.000  
G 2  21424402.993   114161337.409        -521.237          44.000  
G 6  21424173.913   114160199.961        -521.075          44.000  
G11  21589392.576   115028442.546        -521.495          32.000  
G 3  21424398.910   114161315.888        -521.165          44.000  
G22  21478649.143   114446468.878        -520.975          31.000  
G12  21368152.781   113865739.399        -521.361          30.000  
> 2019  6 16  1 17 33.0000000  0  8                     
G 1  21424507.336   114161940.582        -521.295          38.000  
G 4  21424497.703   114161833.227        -521.272          46.000  
G 2  21424502.249   114161858.491        -521.301          44.000  
G 6  21424273.223   114160721.044        -521.139          44.000  
G11  21589491.709   115028963.605        -521.403          31.000  
G 3  21424498.176   114161836.957        -521.143          44.000  
G22  21478748.294   114446989.974        -521.062          32.000  
G12  21368252.031   113866260.467        -521.168          31.000  
> 2019  6 16  1 17 34.0000000  0  8                     
G 1  21424606.546   114162461.594        -520.740          38.000  
G 4  21424596.879   114162354.257        -521.202          45.000  
G 2  21424601.488   114162379.522        -521.204          44.000  
G 6  21424372.439   114161242.078        -521.182          44.000  
G11  21589590.973   115029484.699        -521.564          31.000  
G 3  21424597.373   114162357.999        -521.243          44.000  
G22  21478847.357   114447511.018        -520.953          32.000  
G12  21368351.170   113866781.525        -521.525          31.000  
> 2019  6 16  1 17 35.0000000  0  8                     
G 1  21424705.893   114162982.745        -521.121          38.000  
G 4  21424696.079   114162875.391        -521.328          45.000  
G 2  21424700.783   114162900.660        -521.329          43.000  
G 6  21424471.751   114161763.216        -521.276          44.000  
G11  21589690.304   115030005.832        -521.982          32.000  
G 3  21424696.671   114162879.132        -521.272          44.000  
G22  21478946.562   114448032.119        -521.204          32.000  
G12  21368450.422   113867302.625        -520.802          31.000  
> 2019  6 16  1 17 36.0000000  0  8                     
G 1  21424805.120   114163503.992        -521.406          38.000  
G 4  21424795.354   114163396.643        -521.447          46.000  
G 2  21424800.013   114163421.907        -521.550          43.000  
G 6  21424570.908   114162284.469        -521.470          44.000  
G11  21589789.555   115030527.043        -521.553          31.000  
G 3  21424795.982   114163400.385        -521.342          44.000  
G22  21479045.976   114448553.407        -521.610          32.000  
G12  21368549.737   113867823.850        -520.790          30.000  
> 2019  6 16  1 17 37.0000000  0  8                     
G 1  21424904.145   114164025.129        -521.359          38.000  
G 4  21424894.644   114163917.783        -521.139          46.000  
G 2  21424899.340   114163943.037        -521.195          43.000  
G 6  21424670.005   114162805.599        -521.036          44.000  
G11  21589888.762   115031048.193        -521.467          31.000  
G 3  21424895.109   114163921.519        -520.886          44.000  
G22  21479145.353   114449074.529        -521.012          31.000  
G12  21368649.072   113868345.010        -520.930          31.000  
> 2019  6 16  1 17 38.0000000  0  8                     
G 1  21425003.323   114164546.067        -521.017          38.000  
G 4  21424993.879   114164438.707        -520.890          45.000  
G 2  21424998.533   114164463.956        -521.029          43.000  
G 6  21424769.397   114163326.535        -520.923          44.000  
G11  21589987.910   115031569.099        -521.180          32.000  
G 3  21424994.365   114164442.447        -520.872          44.000  
G22  21479244.653   114449595.461        -521.058          32.000  
G12  21368748.388   113868865.951        -520.615          31.000  
> 2019  6 16  1 17 39.0000000  0  8                     
G 1  21425102.859   114165067.005        -521.072          38.000  
G 4  21425093.105   114164959.639        -520.874          45.000  
G 2  21425097.709   114164984.896        -521.013          43.000  
G 6  21424868.789   114163847.466        -521.036          44.000  
G11  21590087.046   115032090.038        -521.215          32.000  
G 3  21425093.610   114164963.388        -521.034          44.000  
G22  21479344.058   114450116.387        -521.088          33.000  
G12  21368847.561   113869386.899        -521.444          31.000  
> 2019  6 16  1 17 40.0000000  0  8                     
G 1  21425202.154   114165587.914        -521.041          38.000  
G 4  21425192.373   114165480.547        -520.869          45.000  
G 2  21425196.859   114165505.798        -521.019          43.000  
G 6  21424967.967   114164368.373        -521.063          44.000  
G11  21590186.158   115032610.962        -520.979          32.000  
G 3  21425192.842   114165484.303        -521.071          44.000  
G22  21479443.307   114450637.281        -520.997          32.000  
G12  21368946.817   113869907.792        -521.156          31.000  
> 2019  6 16  1 17 41.0000000  0  8                     
G 1  21425301.526   114166108.912        -521.011          38.000  
G 4  21425291.644   114166001.539        -520.905          45.000  
G 2  21425296.087   114166026.813        -521.074          43.000  
G 6  21425067.068   114164906.3703       -521.058          44.000  
G11  21590285.465   115033131.973        -521.083          31.000  
G 3  21425292.131   114166005.290        -521.051          44.000  
G22  21479542.491   114451158.279        -520.872          32.000  
G12  21369046.146   113870428.781        -520.864          31.000  
> 2019  6 16  1 17 42.0000000  0  8                     
G 1  21425400.911   114166630.006        -521.255          38.000  
G 4  21425390.816   114166522.639        -521.183          45.000  
G 2  21425395.401   114166547.903        -521.270          43.000  
G 6  21425166.359   114165427.4642       -521.226          45.000  
G11  21590384.735   115033653.074        -521.510          31.000  
G 3  21425391.451   114166526.388        -521.321          44.000  
G22  21479641.755   114451679.367        -521.328          32.000  
G12  21369145.464   113870949.873        -521.155          31.000  
> 2019  6 16  1 17 43.0000000  0  8                     
G 1  21425500.312   114167151.212        -521.478          38.000  
G 4  21425490.087   114167043.834        -521.093          45.000  
G 2  21425494.701   114167069.104        -521.361          43.000  
G 6  21425265.631   114165948.665        -521.250          44.000  
G11  21590484.079   115034174.269        -521.499          32.000  
G 3  21425490.775   114167047.588        -521.150          44.000  
G22  21479741.092   114452200.571        -521.199          32.000  
G12  21369244.707   113871471.046        -520.382          30.000  
> 2019  6 16  1 17 44.0000000  0  8                     
G 1  21425599.530   114167672.299        -521.119          38.000  
G 4  21425589.427   114167564.934        -521.046          45.000  
G 2  21425593.944   114167590.184        -521.040          43.000  
G 6  21425364.846   114166469.755        -521.097          44.000  
G11  21590583.275   115034695.355        -521.209          31.000  
G 3  21425589.991   114167568.686        -521.123          44.000  
G22  21479840.462   114452721.680        -521.403          32.000  
G12  21369343.952   113871992.177        -521.077          30.000  
> 2019  6 16  1 17 45.0000000  0  8                     
G 1  21425698.796   114168193.399        -521.074          38.000  
G 4  21425688.754   114168086.038        -521.045          46.000  
G 2  21425693.269   114168111.293        -520.981          43.000  
G 6  21425464.125   114166990.860        -521.077          44.000  
G11  21590682.467   115035216.440        -520.935          32.000  
G 3  21425689.204   114168089.788        -521.123          44.000  
G22  21479939.895   114453242.799        -521.383          32.000  
G12  21369443.287   113872513.291        -521.221          31.000  
> 2019  6 16  1 17 46.0000000  0  8                     
G 1  21425798.068   114168714.389        -521.129          38.000  
G 4  21425787.967   114168607.032        -521.016          46.000  
G 2  21425792.514   114168632.282        -520.896          43.000  
G 6  21425563.318   114167511.856        -521.051          44.000  
G11  21590781.627   115035737.427        -520.765          32.000  
G 3  21425788.437   114168610.777        -520.999          44.000  
G22  21480039.275   114453763.798        -521.676          33.000  
G12  21369542.616   113873034.277        -521.097          31.000  
> 2019  6 16  1 17 47.0000000  0  8                     
G 1  21425897.386   114169235.305        -520.906          38.000  
G 4  21425887.277   114169127.938        -520.703          45.000  
G 2  21425891.738   114169153.193        -520.667          43.000  
G 6  21425662.413   114168032.761        -520.707          44.000  
G11  21590880.809   115036258.351        -520.593          32.000  
G 3  21425887.659   114169131.678        -520.646          44.000  
G22  21480138.664   114454284.708        -521.180          33.000  
G12  21369641.828   113873555.194        -520.925          31.000  
> 2019  6 16  1 17 48.0000000  0  8                     
G 1  21425996.538   114169756.212        -521.128          38.000  
G 4  21425986.499   114169648.841        -520.901          45.000  
G 2  21425990.946   114169674.102        -521.006          43.000  
G 6  21425761.690   114168553.669        -520.986          44.000  
G11  21590979.940   115036779.243        -520.486          32.000  
G 3  21425986.784   114169652.590        -520.933          44.000  
G22  21480237.971   114454805.622        -521.196          33.000  
G12  21369741.172   113874076.104        -521.448          31.000  
> 2019  6 16  1 17 49.0000000  0  8                     
G 1  21426095.750   114170277.181        -521.163          38.000  
G 4  21426085.733   114170169.800        -520.786          45.000  
G 2  21426090.173   114170195.057        -520.897          43.000  
G 6  21425860.915   114169074.627        -520.885          44.000  
G11  21591079.135   115037300.183        -520.255          31.000  
G 3  21426086.046   114170173.547        -520.869          44.000  
G22  21480337.298   114455326.570        -521.287          33.000  
G12  21369840.478   113874597.058        -521.185          31.000  
> 2019  6 16  1 17 50.0000000  0  8                     
G 1  21426194.929   114170798.041        -521.215          38.000  
G 4  21426184.964   114170690.676        -520.883          45.000  
G 2  21426189.404   114170715.931        -520.906          43.000  
G 6  21425960.182   114169595.498        -520.898          45.000  
G11  21591178.206   115037821.055        -520.422          31.000  
G 3  21426185.236   114170694.418        -520.887          44.000  
G22  21480436.581   114455847.433        -521.215          32.000  
G12  21369939.706   113875117.927        -520.985          31.000  
> 2019  6 16  1 17 51.0000000  0  8                     
G 1  21426294.061   114171318.994        -521.083          38.000  
G 4  21426284.167   114171211.646        -521.090          45.000  
G 2  21426288.665   114171236.900        -521.021          43.000  
G 6  21426059.367   114170116.463        -521.018          45.000  
G11  21591277.446   115038342.060        -521.294          31.000  
G 3  21426284.410   114171215.383        -521.006          44.000  
G22  21480535.831   114456368.384        -520.901          32.000  
G12  21370039.026   113875638.873        -521.171          31.000  
> 2019  6 16  1 17 52.0000000  0  8                     
G 1  21426393.223   114171839.993        -521.277          38.000  
G 4  21426383.302   114171732.636        -521.200          45.000  
G 2  21426387.957   114171757.896        -521.245          43.000  
G 6  21426158.574   114170637.455        -521.097          45.000  
G11  21591376.643   115038863.065        -521.887          31.000  
G 3  21426383.607   114171736.375        -521.136          45.000  
G22  21480635.172   114456889.385        -521.031          32.000  
G12  21370138.357   113876159.866        -521.312          31.000  
> 2019  6 16  1 17 53.0000000  0  8                     
G 1  21426492.512   114172360.965        -521.183          38.000  
G 4  21426482.465   114172253.605        -521.046          45.000  
G 2  21426487.081   114172278.858        -521.066          43.000  
G 6  21426257.874   114171158.426        -521.064          45.000  
G11  21591475.788   115039384.003        -521.001          31.000  
G 3  21426482.817   114172257.344        -520.957          44.000  
G22  21480734.359   114457410.355        -521.036          32.000  
G12  21370237.670   113876680.886        -521.494          31.000  
> 2019  6 16  1 17 54.0000000  0  8                     
G 1  21426591.672   114172881.970        -521.036          38.000  
G 4  21426581.706   114172774.611        -521.006          45.000  
G 2  21426586.283   114172799.868        -521.030          43.000  
G 6  21426357.268   114171679.435        -521.079          44.000  
G11  21591574.985   115039905.021        -521.248          31.000  
G 3  21426581.976   114172778.356        -520.996          44.000  
G22  21480833.638   114457931.364        -520.885          32.000  
G12  21370336.838   113877201.859        -521.122          31.000  
> 2019  6 16  1 17 55.0000000  0  8                     
G 1  21426690.862   114173403.030        -521.041          38.000  
G 4  21426681.009   114173295.679        -521.135          45.000  
G 2  21426685.519   114173320.944        -521.287          43.000  
G 6  21426456.439   114172200.500        -521.168          44.000  
G11  21591674.417   115040426.112        -521.737          31.000  
G 3  21426681.248   114173299.416        -521.088          44.000  
G22  21480932.839   114458452.417        -520.515          32.000  
G12  21370436.129   113877722.937        -521.620          31.000  
> 2019  6 16  1 17 56.0000000  0  8                     
G 1  21426789.971   114173924.204        -521.194          38.000  
G 4  21426780.279   114173816.845        -521.138          45.000  
G 2  21426784.758   114173842.110        -521.149          43.000  
G 6  21426555.759   114172721.665        -521.042          45.000  
G11  21591773.667   115040947.260        -521.294          31.000  
G 3  21426780.554   114173820.585        -521.047          44.000  
G22  21481032.216   114458973.612        -520.922          32.000  
G12  21370535.482   113878244.104        -521.273          30.000  
> 2019  6 16  1 17 57.0000000  0  8                     
G 1  21426889.166   114174445.317        -521.288          38.000  
G 4  21426879.504   114174337.954        -521.122          45.000  
G 2  21426883.982   114174363.220        -521.359          43.000  
G 6  21426654.979   114173242.775        -521.147          44.000  
G11  21591873.016   115041468.352        -521.321          31.000  
G 3  21426879.862   114174341.696        -520.996          44.000  
G22  21481131.530   114459494.705        -521.317          32.000  
G12  21370634.693   113878765.192        -521.195          30.000  
> 2019  6 16  1 17 58.0000000  0  8                     
G 1  21426988.452   114174966.309        -521.256          38.000  
G 4  21426978.760   114174858.953        -521.038          45.000  
G 2  21426983.208   114174884.203        -520.929          43.000  
G 6  21426754.149   114173763.774        -520.963          44.000  
G11  21591972.195   115041989.385        -521.845          32.000  
G 3  21426979.112   114174862.689        -520.961          44.000  
G22  21481230.718   114460015.671        -520.656          32.000  
G12  21370733.909   113879286.200        -521.246          30.000  
> 2019  6 16  1 17 59.0000000  0  8                     
G 1  21427087.602   114175487.305        -521.246          38.000  
G 4  21427078.018   114175379.937        -520.996          45.000  
G 2  21427082.476   114175405.203        -521.096          43.000  
G 6  21426853.367   114174284.767        -521.010          45.000  
G11  21592071.501   115042510.357        -521.280          31.000  
G 3  21427078.377   114175383.676        -520.991          44.000  
G22  21481329.943   114460536.696        -520.815          32.000  
G12  21370833.201   113879807.192        -521.406          31.000  
> 2019  6 16  1 18  0.0000000  0  8                     
G 1  21427186.736   114176008.361        -521.465          38.000  
G 4  21427177.316   114175900.983        -521.172          45.000  
G 2  21427181.664   114175926.251        -521.208          43.000  
G 6  21426952.639   114174805.810        -521.165          45.000  
G11  21592170.693   115043031.375        -521.089          31.000  
G 3  21427177.714   114175904.730        -521.317          44.000  
G22  21481429.060   114461057.735        -521.123          33.000  
G12  21370932.477   113880328.217        -520.903          31.000  
> 2019  6 16  1 18  1.0000000  0  8                     
G 1  21427286.049   114176529.344        -521.179          37.000  
G 4  21427276.517   114176421.967        -520.970          46.000  
G 2  21427280.862   114176447.244        -521.062          43.000  
G 6  21427051.881   114175326.791        -520.913          44.000  
G11  21592269.928   115043552.357        -521.042          31.000  
G 3  21427276.936   114176425.712        -520.968          44.000  
G22  21481528.294   114461578.728        -520.894          33.000  
G12  21371031.622   113880849.220        -520.792          31.000  
> 2019  6 16  1 18  2.0000000  0  8                     
G 1  21427385.502   114177050.237        -520.898          38.000  
G 4  21427375.618   114176942.875        -521.029          45.000  
G 2  21427380.175   114176968.138        -521.040          44.000  
G 6  21427151.085   114175847.705        -521.036          44.000  
G11  21592369.102   115044073.281        -521.063          32.000  
G 3  21427376.155   114176946.616        -520.999          44.000  
G22  21481627.464   114462099.635        -520.863          32.000  
G12  21371130.692   113881370.128        -521.215          31.000  
> 2019  6 16  1 18  3.0000000  0  8                     
G 1  21427484.697   114177571.189        -520.896          37.000  
G 4  21427474.792   114177463.838        -521.116          45.000  
G 2  21427479.447   114177489.097        -521.110          43.000  
G 6  21427250.267   114176368.659        -521.191          44.000  
G11  21592468.328   115044594.252        -521.478          32.000  
G 3  21427475.373   114177467.579        -521.246          44.000  
G22  21481726.636   114462620.572        -520.967          32.000  
G12  21371229.998   113881891.089        -521.267          30.000  
> 2019  6 16  1 18  4.0000000  0  8                     
G 1  21427583.965   114178092.143        -520.552          38.000  
G 4  21427574.047   114177984.803        -520.865          45.000  
G 2  21427578.527   114178010.054        -520.812          44.000  
G 6  21427349.307   114176889.624        -520.822          44.000  
G11  21592567.541   115045115.192        -520.939          32.000  
G 3  21427574.626   114177988.551        -520.973          44.000  
G22  21481825.755   114463141.559        -520.940          32.000  
G12  21371329.222   113882412.038        -521.078          31.000  
> 2019  6 16  1 18  5.0000000  0  8                     
G 1  21427683.079   114178613.165        -520.831          38.000  
G 4  21427673.348   114178505.828        -521.089          45.000  
G 2  21427677.742   114178531.080        -521.035          43.000  
G 6  21427448.642   114177410.647        -521.118          44.000  
G11  21592666.786   115045636.219        -520.729          32.000  
G 3  21427673.818   114178509.574        -521.084          44.000  
G22  21481924.963   114463662.588        -521.119          32.000  
G12  21371428.540   113882933.092        -521.136          31.000  
> 2019  6 16  1 18  6.0000000  0  8                     
G 1  21427782.128   114179134.238        -520.891          38.000  
G 4  21427772.479   114179026.899        -521.171          45.000  
G 2  21427777.017   114179052.156        -521.141          43.000  
G 6  21427547.809   114177931.720        -521.178          44.000  
G11  21592766.014   115046157.277        -520.904          31.000  
G 3  21427773.047   114179030.639        -521.182          44.000  
G22  21482024.407   114464183.665        -521.166          32.000  
G12  21371527.799   113883454.155        -521.370          30.000  
> 2019  6 16  1 18  7.0000000  0  8                     
G 1  21427881.331   114179655.384        -521.112          38.000  
G 4  21427871.756   114179548.043        -521.378          45.000  
G 2  21427876.237   114179573.296        -521.243          43.000  
G 6  21427646.956   114178452.862        -521.290          44.000  
G11  21592865.281   115046678.452        -521.563          31.000  
G 3  21427872.381   114179551.788        -521.417          44.000  
G22  21482123.693   114464704.812        -521.422          32.000  
G12  21371627.038   113883975.295        -521.560          30.000  
> 2019  6 16  1 18  8.0000000  0  8                     
G 1  21427980.636   114180176.524        -520.930          38.000  
G 4  21427971.029   114180069.185        -521.262          45.000  
G 2  21427975.486   114180094.441        -521.219          43.000  
G 6  21427746.313   114178974.011        -521.335          44.000  
G11  21592964.529   115047199.576        -521.299          31.000  
G 3  21427971.713   114180072.940        -521.376          44.000  
G22  21482222.937   114465225.938        -521.198          32.000  
G12  21371726.334   113884496.418        -521.089          30.000  
> 2019  6 16  1 18  9.0000000  0  8                     
G 1  21428079.841   114180697.553        -520.732          38.000  
G 4  21428070.259   114180590.220        -521.067          45.000  
G 2  21428074.796   114180615.472        -521.011          43.000  
G 6  21427845.549   114179495.037        -520.914          44.000  
G11  21593063.687   115047720.626        -521.186          30.000  
G 3  21428070.970   114180593.968        -521.075          44.000  
G22  21482322.262   114465746.975        -521.105          32.000  
G12  21371825.660   113885017.472        -521.210          30.000  
> 2019  6 16  1 18 10.0000000  0  8                     
G 1  21428179.138   114181218.443        -520.879          38.000  
G 4  21428169.453   114181111.102        -521.115          45.000  
G 2  21428174.013   114181136.355        -521.099          44.000  
G 6  21427944.778   114180015.920        -520.991          44.000  
G11  21593162.742   115048241.460        -520.674          31.000  
G 3  21428170.124   114181114.839        -521.061          44.000  
G22  21482421.477   114466267.830        -520.597          33.000  
G12  21371924.833   113885538.354        -521.383          31.000  
> 2019  6 16  1 18 11.0000000  0  8                     
G 1  21428278.352   114181739.453        -521.022          38.000  
G 4  21428268.745   114181632.099        -521.200          45.000  
G 2  21428273.200   114181657.364        -521.249          44.000  
G 6  21428044.069   114180536.924        -521.112          44.000  
G11  21593262.109   115048762.488        -520.964          31.000  
G 3  21428269.362   114181635.839        -521.178          44.000  
G22  21482520.614   114466788.838        -520.831          33.000  
G12  21372024.121   113886059.343        -521.239          30.000  
> 2019  6 16  1 18 12.0000000  0  8                     
G 1  21428377.765   114182260.430        -520.741          38.000  
G 4  21428367.938   114182153.074        -520.961          45.000  
G 2  21428372.425   114182178.347        -521.030          44.000  
G 6  21428143.231   114181057.906        -520.928          44.000  
G11  21593361.391   115049283.507        -521.808          32.000  
G 3  21428368.551   114182156.823        -520.951          44.000  
G22  21482619.788   114467309.801        -520.554          32.000  
G12  21372123.081   113886580.310        -520.419          30.000  
> 2019  6 16  1 18 13.0000000  0  8                     
G 1  21428477.096   114182781.446        -520.610          39.000  
G 4  21428467.218   114182674.099        -521.007          45.000  
G 2  21428471.711   114182699.362        -520.850          44.000  
G 6  21428242.331   114181578.929        -521.063          44.000  
G11  21593460.673   115049804.557        -522.048          32.000  
G 3  21428467.770   114182677.848        -521.023          44.000  
G22  21482718.642   114467830.845        -521.166          32.000  
G12  21372222.117   113887101.312        -520.175          30.000  
> 2019  6 16  1 18 14.0000000  0  8                     
G 1  21428576.228   114183302.522        -520.757          38.000  
G 4  21428566.470   114183195.177        -520.967          45.000  
G 2  21428571.066   114183220.435        -520.934          44.000  
G 6  21428341.624   114182100.001        -520.880          44.000  
G11  21593559.959   115050325.586        -521.483          32.000  
G 3  21428566.925   114183198.916        -520.951          44.000  
G22  21482817.780   114468351.923        -520.890          32.000  
G12  21372321.203   113887622.398        -520.909          30.000  
> 2019  6 16  1 18 15.0000000  0  8                     
G 1  21428675.497   114183823.724        -520.938          38.000  
G 4  21428665.727   114183716.381        -521.149          45.000  
G 2  21428670.395   114183741.641        -521.180          44.000  
G 6  21428440.872   114182621.211        -521.210          44.000  
G11  21593659.274   115050846.793        -521.683          32.000  
G 3  21428666.243   114183720.133        -521.189          44.000  
G22  21482916.945   114468873.126        -520.826          32.000  
G12  21372420.371   113888143.633        -520.952          31.000  
> 2019  6 16  1 18 16.0000000  0  8                     
G 1  21428774.713   114184344.841        -520.913          38.000  
G 4  21428765.081   114184237.501        -521.042          45.000  
G 2  21428769.643   114184262.763        -521.119          43.000  
G 6  21428540.230   114183142.318        -520.939          45.000  
G11  21593758.558   115051367.902        -521.274          32.000  
G 3  21428765.454   114184241.246        -521.156          44.000  
G22  21483016.231   114469394.237        -520.829          32.000  
G12  21372519.411   113888664.745        -520.836          31.000  
