     3.02           OBSERVATION DATA    G: GPS              RINEX VERSION / TYPE
RTKCONV 2.4.3                           20200430 010014 UTC PGM / RUN BY / DATE 
log: D:\FastData\IF_Test\0429-C7สตั้\2020-04-29-zhanghan-u  COMMENT             
format: u-blox                                              COMMENT             
                                                            MARKER NAME         
                                                            MARKER NUMBER       
                                                            MARKER TYPE         
                                                            OBSERVER / AGENCY   
                                                            REC # / TYPE / VERS 
                                                            ANT # / TYPE        
        0.0000        0.0000        0.0000                  APPROX POSITION XYZ 
        0.0000        0.0000        0.0000                  ANTENNA: DELTA H/E/N
G    4 C1C L1C D1C S1C                                      SYS / # / OBS TYPES 
  2019     6    16     1    23   15.0000000     GPS         TIME OF FIRST OBS   
  2019     6    16     1    28   51.0000000     GPS         TIME OF LAST OBS    
G                                                           SYS / PHASE SHIFT   
  0                                                         GLONASS SLOT / FRQ #
 C1C    0.000 C1P    0.000 C2C    0.000 C2P    0.000        GLONASS COD/PHS/BIS 
                                                            END OF HEADER       
> 2019  6 16  1 23 15.0000000  0  8                     
G 6  21401795.963   114042534.832        -480.182          38.000  
G 5  21401792.233   114042514.951        -480.374          45.000  
G20  21277195.793   113387766.437        -480.454          31.000  
G 3  21402022.383   114043723.648        -480.220          47.000  
G 9  21356333.560   113803647.465        -480.671          31.000  
G 4  21402024.168   114043746.940        -480.300          46.000  
G18  21495519.753   114535128.546        -480.171          32.000  
G 1  21402031.784   114043775.543        -480.223          39.000  
> 2019  6 16  1 23 16.0000000  0  8                     
G 6  21401887.411   114043015.130        -480.001          38.000  
G 5  21401883.589   114042995.246        -480.157          44.000  
G20  21277287.340   113388246.738        -480.323          30.000  
G 3  21402113.889   114044203.947        -480.153          47.000  
G 9  21356425.007   113804127.720        -480.327          31.000  
G 4  21402115.638   114044227.228        -480.214          46.000  
G18  21495611.111   114535608.841        -480.413          32.000  
G 1  21402123.218   114044255.842        -480.320          39.000  
> 2019  6 16  1 23 17.0000000  0  8                     
G 6  21401978.825   114043495.560        -480.375          38.000  
G 5  21401975.009   114043475.668        -480.443          45.000  
G20  21277378.795   113388727.189        -480.614          30.000  
G 3  21402205.379   114044684.371        -480.479          48.000  
G 9  21356516.369   113804608.184        -480.211          31.000  
G 4  21402207.023   114044707.657        -480.444          47.000  
G18  21495702.465   114536089.255        -480.732          32.000  
G 1  21402214.881   114044736.281        -480.571          39.000  
> 2019  6 16  1 23 18.0000000  0  8                     
G 6  21402070.292   114043975.920        -480.541          38.000  
G 5  21402066.422   114043956.023        -480.391          45.000  
G20  21277470.249   113389207.522        -480.765          31.000  
G 3  21402296.857   114045164.723        -480.441          48.000  
G 9  21356607.768   113805088.523        -480.726          31.000  
G 4  21402298.585   114045188.011        -480.487          47.000  
G18  21495793.726   114536569.604        -480.431          32.000  
G 1  21402306.424   114045216.625        -480.541          39.000  
> 2019  6 16  1 23 19.0000000  0  8                     
G 6  21402161.742   114044456.240        -480.505          38.000  
G 5  21402157.940   114044436.344        -480.415          45.000  
G20  21277561.708   113389687.820        -480.270          31.000  
G 3  21402388.393   114045645.042        -480.441          47.000  
G 9  21356699.198   113805568.819        -479.967          31.000  
G 4  21402390.067   114045668.336        -480.533          46.000  
G18  21495885.089   114537049.923        -480.269          32.000  
G 1  21402397.881   114045696.936        -480.306          39.000  
> 2019  6 16  1 23 20.0000000  0  8                     
G 6  21402253.278   114044936.638        -480.774          38.000  
G 5  21402249.357   114044916.734        -480.511          44.000  
G20  21277653.172   113390168.249        -480.540          30.000  
G 3  21402479.895   114046125.435        -480.547          47.000  
G 9  21356790.687   113806049.245        -480.748          31.000  
G 4  21402481.554   114046148.726        -480.620          46.000  
G18  21495976.400   114537530.295        -480.029          32.000  
G 1  21402489.421   114046177.330        -480.471          38.000  
> 2019  6 16  1 23 21.0000000  0  8                     
G 6  21402344.784   114045417.083        -480.834          38.000  
G 5  21402340.847   114045397.175        -480.631          44.000  
G20  21277744.747   113390648.661        -480.945          30.000  
G 3  21402571.470   114046605.879        -480.686          47.000  
G 9  21356882.028   113806529.632        -480.370          31.000  
G 4  21402573.171   114046629.166        -480.726          47.000  
G18  21496068.026                        -480.063          31.000  
G 1  21402580.917   114046657.768        -480.547          39.000  
> 2019  6 16  1 23 22.0000000  0  8                     
G 6  21402436.256   114045897.448        -480.403          38.000  
G 5  21402432.299   114045877.545        -480.372          44.000  
G20  21277836.208   113391129.040        -480.224          30.000  
G 3  21402662.941   114047086.253        -480.432          47.000  
G 9  21356973.365   113807010.022        -479.877          31.000  
G 4  21402664.594   114047109.540        -480.406          46.000  
G18  21496158.169   114538492.6553       -480.796          31.000  
G 1  21402672.400   114047138.148        -480.367          39.000  
> 2019  6 16  1 23 23.0000000  0  8                     
G 6  21402527.822   114046377.807        -480.643          38.000  
G 5  21402523.753   114046357.901        -480.490          44.000  
G20  21277927.757   113391609.391        -480.796          30.000  
G 3  21402754.483   114047566.604        -480.531          47.000  
G 9  21357064.899   113807490.376        -480.521          31.000  
G 4  21402756.116   114047589.892        -480.541          46.000  
G18  21496250.931   114538972.9802       -480.083          31.000  
G 1  21402763.898   114047618.497        -480.424          39.000  
> 2019  6 16  1 23 24.0000000  0  8                     
G 6  21402619.296   114046858.149        -480.256          38.000  
G 5  21402615.120   114046838.259        -480.222          45.000  
G20  21278019.242   113392089.763        -480.394          31.000  
G 3  21402845.890   114048046.966        -480.222          47.000  
G 9  21357156.440   113807970.747        -480.477          30.000  
G 4  21402847.546   114048070.255        -480.289          47.000  
G18  21496342.680   114539453.3292       -479.781          32.000  
G 1  21402855.414   114048098.863        -480.264          39.000  
> 2019  6 16  1 23 25.0000000  0  8                     
G 6  21402710.645   114047338.424        -480.409          38.000  
G 5  21402706.526   114047318.524        -480.200          45.000  
G20  21278110.588   113392570.028        -480.762          31.000  
G 3  21402937.380   114048527.228        -480.184          47.000  
G 9  21357248.088   113808451.028        -480.129          31.000  
G 4  21402939.023   114048550.524        -480.353          47.000  
G18  21496433.756   114539933.1011       -479.491          32.000  
G 1  21402946.963   114048579.138        -480.150          39.000  
> 2019  6 16  1 23 26.0000000  0  8                     
G 6  21402802.117   114047818.648        -480.190          38.000  
G 5  21402798.036   114047798.734        -480.079          45.000  
G20  21278201.965   113393050.242        -480.566          31.000  
G 3  21403028.690   114049007.441        -480.052          47.000  
G 9  21357339.604   113808931.281        -481.160          31.000  
G 4  21403030.489   114049030.730        -480.042          47.000  
G18  21496525.165   114540413.305        -479.509          32.000  
G 1  21403038.338   114049059.315        -479.807          39.000  
> 2019  6 16  1 23 27.0000000  0  8                     
G 6  21402893.506   114048298.947        -480.834          38.000  
G 5  21402889.625   114048279.042        -480.399          45.000  
G20  21278293.459   113393530.554        -480.997          31.000  
G 3  21403120.220   114049487.750        -480.380          47.000  
G 9  21357430.968   113809411.613        -481.754          31.000  
G 4  21403122.005   114049511.041        -480.358          46.000  
G18  21496616.450   114540893.557        -478.950          32.000  
G 1  21403129.774   114049539.635        -480.255          39.000  
> 2019  6 16  1 23 28.0000000  0  8                     
G 6  21402984.944   114048779.286        -480.601          38.000  
G 5  21402981.135   114048759.373        -480.355          45.000  
G20  21278384.875   113394010.873        -480.739          31.000  
G 3  21403211.733   114049968.078        -480.321          47.000  
G 9  21357522.318   113809891.917        -481.260          31.000  
G 4  21403213.339   114049991.366        -480.298          46.000  
G18  21496707.907   114541382.4393       -479.905          32.000  
G 1  21403221.251   114050019.962        -480.348          39.000  
> 2019  6 16  1 23 29.0000000  0  8                     
G 6  21403076.377   114049259.550        -480.714          38.000  
G 5  21403072.720   114049239.636        -480.355          45.000  
G20  21278476.403   113394491.132        -480.400          31.000  
G 3  21403303.182   114050448.342        -480.314          47.000  
G 9  21357613.794   113810372.186        -481.448          31.000  
G 4  21403304.799   114050471.625        -480.247          46.000  
G18  21496799.213   114541861.7133       -479.808          31.000  
G 1  21403312.671   114050500.223        -480.331          39.000  
> 2019  6 16  1 23 30.0000000  0  8                     
G 6  21403167.885   114049739.745        -480.475          38.000  
G 5  21403164.146   114049719.841        -480.193          44.000  
G20  21278567.899   113394971.376        -480.790          30.000  
G 3  21403394.615   114050928.543        -480.217          47.000  
G 9  21357705.243   113810852.389        -481.356          31.000  
G 4  21403396.328   114050951.823        -480.161          46.000  
G18  21496890.705   114542341.8902       -479.476          32.000  
G 1  21403403.946   114050980.419        -480.077          39.000  
> 2019  6 16  1 23 31.0000000  0  8                     
G 6  21403259.276   114050219.879        -480.094          38.000  
G 5  21403255.604   114050199.981        -479.951          44.000  
G20  21278659.446   113395451.483        -480.265          30.000  
G 3  21403486.090   114051408.683        -479.960          47.000  
G 9  21357796.665   113811332.526        -481.100          31.000  
G 4  21403487.764   114051431.962        -479.938          46.000  
G18  21496982.216   114542821.5221       -479.384          32.000  
G 1  21403495.340   114051460.573        -480.140          39.000  
> 2019  6 16  1 23 32.0000000  0  7                     
G 6  21403350.679   114050699.893        -480.145          38.000  
G 5  21403347.018   114050679.999        -480.034          44.000  
G 3  21403577.527   114051888.696        -479.994          47.000  
G 9  21357888.178   113811812.514        -480.728          30.000  
G 4  21403579.155   114051911.979        -479.978          46.000  
G18  21497073.688   114543304.0673       -479.557          32.000  
G 1  21403586.800   114051940.598        -480.161          39.000  
> 2019  6 16  1 23 33.0000000  0  8                     
G 6  21403442.210   114051179.962        -480.184          39.000  
G 5  21403438.413   114051160.065        -480.042          45.000  
G20  21278842.281   113396490.5671       -480.403          30.000  
G 3  21403668.961   114052368.759        -480.044          47.000  
G 9  21357979.663   113812292.568        -480.618          31.000  
G 4  21403670.612   114052392.038        -479.956          46.000  
G18  21497165.250   114543784.1452       -480.392          32.000  
G 1  21403678.226   114052420.642        -480.122          39.000  
> 2019  6 16  1 23 34.0000000  0  8                     
G 6  21403533.709   114051659.974        -480.173          38.000  
G 5  21403529.859   114051640.071        -480.109          45.000  
G20  21278933.754   113396970.570        -480.391          30.000  
G 3  21403760.411   114052848.772        -480.055          47.000  
G 9  21358071.020   113812772.594        -480.475          31.000  
G 4  21403762.083   114052872.051        -480.015          47.000  
G18  21497256.638   114544264.1402       -479.949          33.000  
G 1  21403769.704   114052900.665        -480.175          40.000  
> 2019  6 16  1 23 35.0000000  0  8                     
G 6  21403625.121   114052140.021        -480.078          38.000  
G 5  21403621.275   114052120.129        -479.956          44.000  
G20  21279025.255   113397450.645        -480.465          30.000  
G 3  21403851.883   114053328.814        -479.904          47.000  
G 9  21358162.420   113813252.608        -480.088          31.000  
G 4  21403853.449   114053352.103        -479.883          46.000  
G18  21497348.009   114544744.2092       -479.899          32.000  
G 1  21403861.162   114053380.691        -479.901          39.000  
> 2019  6 16  1 23 36.0000000  0  8                     
G 6  21403716.671   114052619.988        -480.121          38.000  
G 5  21403712.683   114052600.092        -480.078          44.000  
G20  21279116.713   113397930.584        -480.137          30.000  
G 3  21403943.380   114053808.791        -480.059          47.000  
G 9  21358253.854   113813732.575        -480.215          31.000  
G 4  21403944.828   114053832.071        -480.113          46.000  
G18  21497439.495   114545226.1733       -480.402          31.000  
G 1  21403952.470   114053860.677        -479.945          39.000  
> 2019  6 16  1 23 37.0000000  0  8                     
G 6  21403808.218   114053100.111        -480.356          38.000  
G 5  21403804.116   114053080.205        -480.270          44.000  
G20  21279208.293   113398410.698        -480.410          30.000  
G 3  21404034.863   114054288.903        -480.291          47.000  
G 9  21358345.269   113814212.720        -480.684          31.000  
G 4  21404036.303   114054312.178        -480.157          46.000  
G18  21497530.904   114545705.7701       -479.968          31.000  
G 1  21404043.969   114054340.777        -480.065          39.000  
> 2019  6 16  1 23 38.0000000  0  8                     
G 6  21403899.826   114053580.335        -480.333          38.000  
G 5  21403895.555   114053560.436        -480.334          44.000  
G20  21279299.799   113398890.944        -480.607          30.000  
G 3  21404126.278   114054769.134        -480.356          47.000  
G 9  21358436.694   113814692.958        -480.568          31.000  
G 4  21404127.807   114054792.419        -480.309          46.000  
G18  21497622.330   114546187.5163       -480.237          31.000  
G 1  21404135.494   114054821.020        -480.232          39.000  
> 2019  6 16  1 23 39.0000000  0  8                     
G 6  21403991.357   114054060.573        -480.491          38.000  
G 5  21403987.063   114054040.671        -480.396          44.000  
G20  21279391.326   113399371.161        -480.486          30.000  
G 3  21404217.730   114055249.356        -480.314          47.000  
G 9  21358528.164   113815173.170        -480.404          31.000  
G 4  21404219.438   114055272.650        -480.275          46.000  
G18  21497713.910   114546667.7552       -481.007          30.000  
G 1  21404227.016   114055301.239        -480.289          39.000  
> 2019  6 16  1 23 40.0000000  0  8                     
G 6  21404082.857   114054540.775        -480.355          39.000  
G 5  21404078.582   114054520.873        -480.219          44.000  
G20  21279482.809   113399851.376        -480.349          31.000  
G 3  21404309.236   114055729.561        -480.190          47.000  
G 9  21358619.703   113815653.367        -479.949          31.000  
G 4  21404311.096   114055752.864        -480.184          46.000  
G18  21497805.441   114547149.9763       -480.715          31.000  
G 1  21404318.545   114055781.452        -480.128          39.000  
> 2019  6 16  1 23 41.0000000  0  8                     
G 6  21404174.243   114055020.946        -480.314          38.000  
G 5  21404170.055   114055001.046        -480.265          45.000  
G20  21279574.220   113400331.541        -480.142          31.000  
G 3  21404400.702   114056209.759        -480.376          47.000  
G 9  21358711.306   113816133.582        -480.514          31.000  
G 4  21404402.628   114056233.042        -480.167          46.000  
G18  21497897.034   114547631.1573       -480.848          32.000  
G 1  21404410.035   114056261.647        -480.269          39.000  
> 2019  6 16  1 23 42.0000000  0  8                     
G 6  21404265.639   114055501.032        -480.160          39.000  
G 5  21404261.494   114055481.166        -480.026          45.000  
G20  21279665.610   113400811.651        -479.902          30.000  
G 3  21404492.134   114056689.858        -480.067          47.000  
G 9  21358802.658   113816613.648        -479.969          31.000  
G 4  21404494.102   114056713.143        -479.968          46.000  
G18  21497988.487   114548111.2382       -480.333          32.000  
G 1  21404501.499   114056741.742        -479.824          39.000  
> 2019  6 16  1 23 43.0000000  0  8                     
G 6  21404357.007   114055981.122        -479.885          38.000  
G 5  21404352.987   114055961.238        -480.002          45.000  
G20  21279757.146   113401291.729        -480.104          31.000  
G 3  21404583.603   114057169.940        -480.074          47.000  
G 9  21358894.112   113817093.749        -480.205          32.000  
G 4  21404585.613   114057193.226        -479.882          46.000  
G18  21498079.881   114548590.8321       -480.796          33.000  
G 1  21404593.074   114057221.823        -479.817          39.000  
> 2019  6 16  1 23 44.0000000  0  8                     
G 6  21404448.527   114056461.160        -480.277          38.000  
G 5  21404444.453   114056441.245        -480.153          45.000  
G20  21279848.577   113401771.741        -480.145          31.000  
G 3  21404675.013   114057649.951        -480.111          46.000  
G 9  21358985.558   113817573.726        -480.106          31.000  
G 4  21404677.086   114057673.227        -480.074          46.000  
G18  21498171.201   114549070.846        -481.144          33.000  
G 1  21404684.381   114057701.812        -480.042          39.000  
> 2019  6 16  1 23 45.0000000  0  8                     
G 6  21404540.174   114056941.235        -479.973          38.000  
G 5  21404535.843   114056921.335        -480.173          44.000  
G20  21279940.126   113402251.845        -480.157          30.000  
G 3  21404766.450   114058130.030        -479.998          47.000  
G 9  21359077.144   113818053.843        -480.500          31.000  
G 4  21404768.491   114058153.317        -480.070          46.000  
G18  21498262.713   114549550.945        -480.273          31.000  
G 1  21404775.776   114058181.899        -479.934          39.000  
> 2019  6 16  1 23 46.0000000  0  8                     
G 6  21404631.409   114057421.222        -479.916          38.000  
G 5  21404627.263   114057401.333        -480.151          44.000  
G20  21280031.508   113402731.843        -480.297          30.000  
G 3  21404857.827   114058610.026        -479.983          47.000  
G 9  21359168.521   113818533.845        -480.389          30.000  
G 4  21404859.965   114058633.330        -480.188          46.000  
G18  21498354.181   114550033.4523       -480.507          31.000  
G 1  21404867.212   114058661.924        -479.965          39.000  
> 2019  6 16  1 23 47.0000000  0  8                     
G 6  21404722.823   114057901.271        -480.133          38.000  
G 5  21404718.661   114057881.370        -480.171          44.000  
G20  21280122.948   113403211.873        -480.201          30.000  
G 3  21404949.250   114059090.053        -479.993          47.000  
G 9  21359260.032   113819013.855        -479.769          30.000  
G 4  21404951.341   114059113.350        -480.112          46.000  
G18  21498445.662   114550513.4442       -479.994          31.000  
G 1  21404958.720   114059141.963        -480.065          38.000  
> 2019  6 16  1 23 48.0000000  0  8                     
G 6  21404814.342   114058381.312        -480.132          38.000  
G 5  21404810.091   114058361.414        -480.034          44.000  
G20  21280214.389   113403691.884        -479.811          31.000  
G 3  21405040.661   114059570.105        -479.983          46.000  
G 9  21359351.487   113819493.921        -480.013          31.000  
G 4  21405042.848   114059593.400        -479.991          46.000  
G18  21498537.008   114550993.4932       -479.911          32.000  
G 1  21405050.308   114059622.004        -479.910          38.000  
> 2019  6 16  1 23 49.0000000  0  8                     
G 6  21404905.670   114058861.361        -480.510          39.000  
G 5  21404901.518   114058841.466        -480.536          44.000  
G20  21280305.849   113404171.981        -480.398          31.000  
G 3  21405132.182   114060050.152        -480.439          47.000  
G 9  21359442.925   113819973.970        -480.627          31.000  
G 4  21405134.327   114060073.447        -480.466          46.000  
G18  21498628.600   114551473.0581       -480.669          32.000  
G 1  21405141.796   114060102.055        -480.457          38.000  
> 2019  6 16  1 23 50.0000000  0  8                     
G 6  21404997.080   114059341.443        -480.084          39.000  
G 5  21404992.994   114059321.546        -480.042          44.000  
G20  21280397.288   113404652.054        -479.969          30.000  
G 3  21405223.631   114060530.241        -480.016          47.000  
G 9  21359534.467   113820454.060        -480.563          31.000  
G 4  21405225.660   114060553.532        -480.065          46.000  
G18  21498719.974   114551953.124        -479.899          32.000  
G 1  21405233.130   114060582.140        -480.055          38.000  
> 2019  6 16  1 23 51.0000000  0  8                     
G 6  21405088.511   114059821.523        -479.974          38.000  
G 5  21405084.464   114059801.630        -480.133          44.000  
G20  21280488.755   113405132.112        -479.335          31.000  
G 3  21405315.100   114061010.330        -480.131          47.000  
G 9  21359625.908   113820934.106        -479.633          31.000  
G 4  21405317.142   114061033.622        -480.223          46.000  
G18  21498811.426   114552433.209        -479.891          32.000  
G 1  21405324.605   114061062.225        -479.993          38.000  
> 2019  6 16  1 23 52.0000000  0  8                     
G 6  21405179.924   114060301.556        -479.662          38.000  
G 5  21405175.904   114060281.674        -479.943          44.000  
G20  21280580.160   113405612.174        -480.126          30.000  
G 3  21405406.470   114061490.370        -480.061          47.000  
G 9  21359717.418   113821414.165        -479.983          30.000  
G 4  21405408.462   114061513.661        -480.181          46.000  
G18  21498902.961   114552916.7583       -479.875          32.000  
G 1  21405415.855   114061542.255        -480.138          38.000  
> 2019  6 16  1 23 53.0000000  0  8                     
G 6  21405271.290   114060781.582        -479.611          38.000  
G 5  21405267.274   114060761.699        -479.874          44.000  
G20  21280671.584   113406092.179        -479.509          31.000  
G 3  21405497.911   114061970.400        -480.032          47.000  
G 9  21359808.899   113821894.150        -479.128          31.000  
G 4  21405499.931   114061993.681        -479.993          46.000  
G18  21498994.475   114553397.7722       -479.746          32.000  
G 1  21405507.339   114062022.282        -479.824          38.000  
> 2019  6 16  1 23 54.0000000  0  8                     
G 6  21405362.676   114061261.640        -479.938          38.000  
G 5  21405358.796   114061241.752        -480.078          45.000  
G20  21280762.950   113406572.245        -479.725          31.000  
G 3  21405589.409   114062450.452        -480.110          47.000  
G 9  21359900.389   113822374.242        -479.655          31.000  
G 4  21405591.340   114062473.739        -480.116          46.000  
G18  21499085.932   114553877.8012       -479.584          32.000  
G 1  21405598.729   114062502.342        -480.066          38.000  
> 2019  6 16  1 23 55.0000000  0  8                     
G 6  21405454.083   114061839.8083       -479.794          38.000  
G 5  21405450.346   114061820.4243       -479.966          45.000  
G20  21280854.427   113407063.9203       -479.792          31.000  
G 3  21405680.917   114063031.6283       -480.039          47.000  
G 9  21359991.942   113822934.4233       -479.635          30.000  
G 4  21405682.782   114063041.9223       -480.126          46.000  
G18  21499177.397   114554358.9673       -479.546          32.000  
G 1  21405690.277   114063081.0183       -480.104          38.000  
> 2019  6 16  1 23 56.0000000  0  8                     
G 6  21405545.548   114062320.9562       -480.009          38.000  
G 5  21405541.746   114062300.5832       -480.255          44.000  
G20  21280945.903   113407545.0642       -479.891          31.000  
G 3  21405772.348   114063512.7772       -480.272          47.000  
G 9  21360083.332   113823414.5362       -479.320          30.000  
G 4  21405774.222   114063522.0672       -480.312          46.000  
G18  21499268.839   114554840.1542       -479.921          32.000  
G 1  21405781.669   114063561.1702       -480.513          38.000  
> 2019  6 16  1 23 57.0000000  0  8                     
G 6  21405636.997   114062801.1332       -480.167          38.000  
G 5  21405633.276   114062780.7522       -480.190          44.000  
G20  21281037.336   113408025.2342       -479.953          31.000  
G 3  21405863.813   114063992.9572       -480.304          46.000  
G 9  21360174.810   113823894.7032       -479.132          30.000  
G 4  21405865.681   114064002.2422       -480.225          46.000  
G18  21499360.314   114555320.3232       -479.990          32.000  
G 1  21405873.051   114064041.3442       -480.400          38.000  
> 2019  6 16  1 23 58.0000000  0  8                     
G 6  21405728.394   114063281.3072       -480.184          38.000  
G 5  21405724.741   114063260.9272       -480.233          44.000  
G20  21281128.745   113408505.3842       -479.746          30.000  
G 3  21405955.252   114064473.1232       -480.342          47.000  
G 9  21360266.250   113824374.8662       -479.230          30.000  
G 4  21405957.202   114064482.4092       -480.288          46.000  
G18  21499451.688   114555800.5092       -480.099          32.000  
G 1  21405964.509   114064521.5112       -480.386          39.000  
> 2019  6 16  1 23 59.0000000  0  8                     
G 6  21405819.783   114063761.4383       -480.260          38.000  
G 5  21405816.140   114063742.0503       -480.200          44.000  
G20  21281220.212   113408986.4883       -478.939          31.000  
G 3  21406046.717   114064954.2493       -480.341          47.000  
G 9  21360357.668   113824857.0103       -479.076          31.000  
G 4  21406048.771   114064964.5413       -480.323          46.000  
G18  21499543.207   114556281.6443       -480.575          32.000  
G 1  21406055.991   114065002.6423       -480.376          39.000  
> 2019  6 16  1 24  0.0000000  0  8                     
G 6  21405911.263   114064242.7062       -480.447          38.000  
G 5  21405907.577   114064223.3142       -480.287          44.000  
G20  21281311.564   113409466.7912       -479.855          30.000  
G 3  21406138.143   114065434.5212       -480.493          47.000  
G 9  21360449.205   113825337.2672       -479.131          31.000  
G 4  21406140.275   114065445.7982       -480.315          46.000  
G18  21499634.736   114556762.9172       -480.414          32.000  
G 1  21406147.570   114065483.9052       -480.328          38.000  
> 2019  6 16  1 24  1.0000000  0  8                     
G 6  21406002.757   114064722.9723       -480.377          38.000  
G 5  21405999.034   114064703.5823       -480.288          44.000  
G20  21281403.108   113409948.0593       -479.740          30.000  
G 3  21406229.667   114065915.7813       -480.367          47.000  
G 9  21360540.633   113825818.5323       -479.423          31.000  
G 4  21406231.695   114065926.0663       -480.300          46.000  
G18  21499726.262   114557243.1963       -480.802          32.000  
G 1  21406239.232   114065966.1753       -480.391          38.000  
> 2019  6 16  1 24  2.0000000  0  8                     
G 6  21406094.280   114065203.2332       -480.328          38.000  
G 5  21406090.566   114065183.8432       -480.343          44.000  
G20  21281494.614   113410428.2962       -479.816          30.000  
G 3  21406321.093   114066396.0452       -480.426          47.000  
G 9  21360632.195   113826298.7622       -479.299          31.000  
G 4  21406323.279   114066406.3282       -480.304          46.000  
G18  21499817.699   114557723.4302       -480.438          32.000  
G 1  21406330.741   114066446.4392       -480.438          38.000  
> 2019  6 16  1 24  3.0000000  0  7                     
G 6  21406185.684   114065683.4482       -480.596          38.000  
G 5  21406182.113   114065664.0542       -480.519          44.000  
G 3  21406412.631   114066876.2592       -480.596          47.000  
G 9  21360723.590   113826778.9772       -479.067          31.000  
G 4  21406414.749   114066886.5422       -480.504          46.000  
G18  21499909.100   114558203.6442       -480.505          32.000  
G 1  21406422.208   114066926.6462       -480.510          38.000  
> 2019  6 16  1 24  4.0000000  0  8                     
G 6  21406277.102   114066163.7202       -480.323          38.000  
G 5  21406273.540   114066144.3312       -480.264          44.000  
G20  21281677.616   113411389.7983       -479.874          30.000  
G 3  21406504.156   114067356.5152       -480.171          47.000  
G 9  21360815.026   113827259.2752       -479.717          31.000  
G 4  21406506.112   114067366.8042       -480.105          45.000  
G18  21500000.592   114558683.8882       -479.866          32.000  
G 1  21406513.572   114067406.9082       -480.266          38.000  
> 2019  6 16  1 24  5.0000000  0  8                     
G 6  21406368.579   114066643.9282       -480.338          39.000  
G 5  21406365.047   114066624.5352       -480.249          44.000  
G20  21281769.322   113411870.0262       -480.219          30.000  
G 3  21406595.570   114067836.7352       -480.259          46.000  
G 9  21360906.439   113827739.5122       -480.291          31.000  
G 4  21406597.532   114067847.0302       -480.237          45.000  
G18  21500092.069   114559166.1123       -480.005          32.000  
G 1  21406605.031   114067887.1252       -480.115          39.000  
> 2019  6 16  1 24  6.0000000  0  8                     
G 6  21406460.071   114067124.2442       -480.354          38.000  
G 5  21406456.514   114067104.8492       -480.172          44.000  
G20  21281860.770   113412350.3312       -480.229          30.000  
G 3  21406687.078   114068317.0502       -480.144          46.000  
G 9  21360998.009   113828219.8052       -479.796          31.000  
G 4  21406688.989   114068327.3412       -480.154          45.000  
G18  21500183.566   114559646.4462       -480.293          32.000  
G 1  21406696.511   114068367.4402       -480.072          39.000  
> 2019  6 16  1 24  7.0000000  0  8                     
G 6  21406551.616   114067604.502        -480.453          38.000  
G 5  21406547.978   114067584.6131       -480.439          45.000  
G20  21281952.192   113412830.0941       -480.357          30.000  
G 3  21406778.589   114068797.312        -480.397          46.000  
G 9  21361089.634   113828700.089        -480.238          31.000  
G 4  21406780.464   114068807.607        -480.397          45.000  
G18  21500274.984   114560126.2191       -480.719          32.000  
G 1  21406788.045   114068847.1981       -480.183          39.000  
> 2019  6 16  1 24  8.0000000  0  8                     
G 6  21406643.108   114068084.719        -480.430          39.000  
G 5  21406639.478   114068064.831        -480.415          45.000  
G20  21282043.590   113413310.327        -480.600          30.000  
G 3  21406870.081   114069277.522        -480.200          47.000  
G 9  21361181.092   113829180.299        -480.458          31.000  
G 4  21406872.088   114069287.818        -480.315          45.000  
G18  21500366.490   114560607.9413       -480.895          32.000  
G 1  21406879.588   114069327.405        -480.070          38.000  
> 2019  6 16  1 24  9.0000000  0  8                     
G 6  21406734.558   114068564.945        -480.157          38.000  
G 5  21406730.886   114068545.060        -480.083          45.000  
G20  21282135.081   113413790.532        -480.116          30.000  
G 3  21406961.588   114069757.757        -480.068          47.000  
G 9  21361272.539   113829660.542        -480.315          31.000  
G 4  21406963.639   114069768.047        -480.049          45.000  
G18  21500457.914   114561088.1362       -479.861          32.000  
G 1  21406971.184   114069807.641        -479.832          39.000  
> 2019  6 16  1 24 10.0000000  0  8                     
G 6  21406825.970   114069045.110        -480.127          38.000  
G 5  21406822.407   114069025.221        -480.132          44.000  
G20  21282226.553   113414270.713        -479.773          31.000  
G 3  21407053.073   114070237.913        -480.032          47.000  
G 9  21361364.101   113830140.662        -479.089          30.000  
G 4  21407055.063   114070248.206        -480.096          46.000  
G18  21500549.350   114561568.3292       -480.040          33.000  
G 1  21407062.649   114070287.807        -480.095          39.000  
> 2019  6 16  1 24 11.0000000  0  8                     
G 6  21406917.472   114069525.276        -480.350          38.000  
G 5  21406913.897   114069505.381        -480.310          44.000  
G20  21282318.153   113414750.867        -480.329          30.000  
G 3  21407144.534   114070718.064        -480.162          46.000  
G 9  21361455.562   113830620.826        -479.910          31.000  
G 4  21407146.396   114070728.346        -480.187          46.000  
G18  21500640.688   114562048.4722       -480.399          32.000  
G 1  21407154.003   114070767.940        -480.095          39.000  
> 2019  6 16  1 24 12.0000000  0  8                     
G 6  21407009.025   114070005.482        -480.250          38.000  
G 5  21407005.479   114069985.588        -480.177          44.000  
G20  21282409.676   113415231.084        -480.803          30.000  
G 3  21407235.919   114071198.290        -480.023          46.000  
G 9  21361547.095   113831101.054        -480.343          31.000  
G 4  21407237.864   114071208.570        -480.039          45.000  
G18  21500732.140   114562528.6842       -480.565          32.000  
G 1  21407245.404   114071248.166        -479.854          39.000  
> 2019  6 16  1 24 13.0000000  0  8                     
G 6  21407100.616   114070485.651        -480.320          38.000  
G 5  21407096.948   114070465.742        -480.232          44.000  
G20  21282501.090   113415711.233        -480.671          30.000  
G 3  21407327.295   114071678.449        -480.237          46.000  
G 9  21361638.524   113831581.225        -480.658          31.000  
G 4  21407329.218   114071688.734        -480.210          45.000  
G18  21500823.644   114563010.8503       -480.492          32.000  
G 1  21407336.841   114071728.339        -480.189          39.000  
> 2019  6 16  1 24 14.0000000  0  8                     
G 6  21407192.172   114070965.859        -480.288          38.000  
G 5  21407188.400   114070945.955        -480.225          44.000  
G20  21282592.552   113416191.459        -480.750          30.000  
G 3  21407418.734   114072158.664        -480.210          47.000  
G 9  21361729.975   113832061.458        -480.814          31.000  
G 4  21407420.739   114072168.948        -480.212          45.000  
G18  21500915.142   114563491.0382       -479.908          32.000  
G 1  21407428.371   114072208.550        -480.077          39.000  
> 2019  6 16  1 24 15.0000000  0  8                     
G 6  21407283.687   114071446.110        -480.354          39.000  
G 5  21407279.866   114071426.208        -480.298          44.000  
G20  21282683.993   113416671.696        -480.765          30.000  
G 3  21407510.219   114072638.917        -480.272          47.000  
G 9  21361821.441   113832541.688        -480.721          31.000  
G 4  21407512.291   114072649.200        -480.352          45.000  
G18  21501006.637   114563971.2802       -479.880          32.000  
G 1  21407519.891   114072688.799        -480.170          39.000  
> 2019  6 16  1 24 16.0000000  0  8                     
G 6  21407375.146   114071926.257        -480.343          39.000  
G 5  21407371.301   114071906.348        -480.164          44.000  
G20  21282775.445   113417151.843        -480.632          30.000  
G 3  21407601.553   114073119.053        -480.117          47.000  
G 9  21361912.936   113833021.840        -480.723          31.000  
G 4  21407603.593   114073129.332        -480.172          45.000  
G18  21501098.028   114564452.4453       -480.256          32.000  
G 1  21407611.429   114073168.948        -480.184          39.000  
> 2019  6 16  1 24 17.0000000  0  8                     
G 6  21407466.611   114072406.493        -480.221          39.000  
G 5  21407462.803   114072386.597        -480.234          44.000  
G20  21282866.883   113417632.092        -480.726          30.000  
G 3  21407693.075   114073599.303        -480.255          47.000  
G 9  21362004.415   113833502.071        -480.425          31.000  
G 4  21407695.063   114073609.583        -480.242          45.000  
G18  21501189.519   114564932.6912       -480.248          32.000  
G 1  21407703.051   114073649.197        -480.188          39.000  
> 2019  6 16  1 24 18.0000000  0  8                     
G 6  21407558.158   114072886.825        -480.321          39.000  
G 5  21407554.379   114072866.938        -480.470          44.000  
G20  21282958.346   113418112.429        -480.701          30.000  
G 3  21407784.574   114074079.638        -480.238          47.000  
G 9  21362095.945   113833982.409        -480.664          31.000  
G 4  21407786.573   114074089.927        -480.466          45.000  
G18  21501281.030   114565414.0123       -480.151          31.000  
G 1  21407794.596   114074129.523        -480.242          39.000  
> 2019  6 16  1 24 19.0000000  0  8                     
G 6  21407649.563   114073367.120        -480.549          39.000  
G 5  21407645.839   114073347.230        -480.406          44.000  
G20  21283049.885   113418592.719        -480.639          31.000  
G 3  21407876.030   114074559.931        -480.203          47.000  
G 9  21362187.402   113834462.682        -480.170          31.000  
G 4  21407878.122   114074570.210        -480.208          45.000  
G18  21501372.496   114565893.8221       -480.333          32.000  
G 1  21407886.168   114074609.828        -480.439          39.000  
> 2019  6 16  1 24 20.0000000  0  8                     
G 6  21407741.019   114073847.435        -480.306          39.000  
G 5  21407737.165   114073827.549        -480.283          45.000  
G20  21283141.308   113419073.042        -480.627          31.000  
G 3  21407967.566   114075040.247        -480.155          47.000  
G 9  21362278.952   113834943.037        -480.420          31.000  
G 4  21407969.634   114075050.529        -480.145          45.000  
G18  21501463.968   114566374.143        -480.182          32.000  
G 1  21407977.666   114075090.139        -480.261          39.000  
> 2019  6 16  1 24 21.0000000  0  8                     
G 6  21407832.581   114074327.690        -480.540          38.000  
G 5  21407828.680   114074307.779        -480.302          45.000  
G20  21283232.747   113419553.272        -480.407          31.000  
G 3  21408059.057   114075520.489        -480.336          47.000  
G 9  21362370.443   113835423.259        -479.993          31.000  
G 4  21408061.199   114075530.772        -480.366          45.000  
G18  21501555.487   114566854.378        -480.400          32.000  
G 1  21408069.203   114075570.384        -480.780          39.000  
> 2019  6 16  1 24 22.0000000  0  8                     
G 6  21407924.098   114074807.951        -480.515          39.000  
G 5  21407920.185   114074788.032        -480.359          45.000  
G20  21283324.264   113420033.522        -480.599          31.000  
G 3  21408150.484   114076000.734        -480.327          47.000  
G 9  21362461.887   113835903.518        -480.389          31.000  
G 4  21408152.695   114076011.024        -480.430          45.000  
G18  21501646.986   114567337.1163       -480.135          32.000  
G 1  21408160.564   114076050.632        -480.500          39.000  
> 2019  6 16  1 24 23.0000000  0  8                     
G 6  21408015.605   114075288.204        -480.360          39.000  
G 5  21408011.658   114075268.305        -480.248          45.000  
G20  21283415.827   113420513.813        -480.713          31.000  
G 3  21408242.021   114076481.008        -480.225          47.000  
G 9  21362553.441   113836383.772        -480.581          31.000  
G 4  21408244.226   114076491.284        -480.410          45.000  
G18  21501738.549   114567817.3512       -479.202          32.000  
G 1  21408252.054   114076530.886        -480.178          39.000  
> 2019  6 16  1 24 24.0000000  0  8                     
G 6  21408107.105   114075768.495        -480.007          39.000  
G 5  21408103.090   114075748.610        -480.381          45.000  
G20  21283507.337   113420994.129        -480.910          31.000  
G 3  21408333.533   114076961.310        -480.190          47.000  
G 9  21362645.004   113836864.105        -481.116          31.000  
G 4  21408335.640   114076971.594        -480.266          45.000  
G18  21501830.170   114568297.6582       -479.568          32.000  
G 1  21408343.440   114077011.195        -480.225          39.000  
> 2019  6 16  1 24 25.0000000  0  8                     
G 6  21408198.573   114076248.727        -479.841          39.000  
G 5  21408194.676   114076228.841        -480.168          45.000  
G20  21283598.873   113421474.373        -480.600          31.000  
G 3  21408424.982   114077441.546        -480.106          47.000  
G 9  21362736.511   113837344.370        -480.691          31.000  
G 4  21408427.023   114077451.835        -480.197          45.000  
G18  21501921.660   114568780.9063       -479.557          33.000  
G 1  21408434.919   114077491.441        -480.148          39.000  
> 2019  6 16  1 24 26.0000000  0  8                     
G 6  21408290.013   114076728.915        -479.788          39.000  
G 5  21408286.206   114076709.030        -479.966          45.000  
G20  21283690.484   113421954.548        -480.702          30.000  
G 3  21408516.399   114077921.734        -480.029          47.000  
G 9  21362828.065   113837824.545        -480.874          32.000  
G 4  21408518.421   114077932.024        -480.123          45.000  
G18  21502013.051   114569261.0932       -479.453          33.000  
G 1  21408526.381   114077971.633        -480.055          39.000  
> 2019  6 16  1 24 27.0000000  0  8                     
G 6  21408381.606   114077209.094        -480.099          38.000  
G 5  21408377.597   114077189.204        -480.074          45.000  
G20  21283781.956   113422434.701        -480.370          32.000  
G 3  21408607.764   114078401.900        -479.976          46.000  
G 9  21362919.711   113838304.669        -479.609          31.000  
G 4  21408609.924   114078412.184        -480.127          45.000  
G18  21502104.520   114569741.2842       -479.645          33.000  
G 1  21408617.966   114078451.798        -480.265          39.000  
> 2019  6 16  1 24 28.0000000  0  8                     
G 6  21408473.138   114077689.280        -480.326          39.000  
G 5  21408469.121   114077669.388        -480.256          44.000  
G20  21283873.402   113422914.894        -480.595          31.000  
G 3  21408699.318   114078882.084        -480.389          47.000  
G 9  21363011.216   113838784.867        -480.544          31.000  
G 4  21408701.485   114078892.367        -480.276          45.000  
G18  21502195.990   114570221.4312       -479.449          33.000  
G 1  21408709.445   114078931.989        -480.470          39.000  
> 2019  6 16  1 24 29.0000000  0  8                     
G 6  21408564.497   114078169.441        -480.099          39.000  
G 5  21408560.613   114078149.558        -480.156          45.000  
G20  21283964.839   113423395.077        -480.650          30.000  
G 3  21408790.910   114079362.253        -480.129          46.000  
G 9  21363102.652   113839265.038        -480.808          31.000  
G 4  21408793.009   114079372.540        -480.160          45.000  
G18  21502289.633   114570714.6493       -480.294          32.000  
G 1  21408800.984   114079412.162        -480.393          39.000  
> 2019  6 16  1 24 30.0000000  0  8                     
G 6  21408655.987   114078649.655        -479.906          39.000  
G 5  21408652.017   114078629.774        -480.146          44.000  
G20  21284056.296   113423875.275        -480.321          30.000  
G 3  21408882.368   114079842.474        -480.201          46.000  
G 9  21363194.160   113839745.247        -480.527          31.000  
G 4  21408884.526   114079852.760        -480.254          45.000  
G18  21502380.130   114571194.8742       -480.549          32.000  
G 1  21408892.403   114079892.380        -480.413          39.000  
> 2019  6 16  1 24 31.0000000  0  8                     
G 6  21408747.410   114079129.889        -480.265          38.000  
G 5  21408743.593   114079110.009        -480.547          44.000  
G20  21284147.741   113424355.507        -480.302          30.000  
G 3  21408973.871   114080322.700        -480.409          46.000  
G 9  21363285.683   113840225.475        -480.466          31.000  
G 4  21408975.996   114080332.974        -480.146          45.000  
G18  21502471.110   114571668.1163       -480.646          32.000  
G 1  21408983.860   114080372.618        -480.995          39.000  
> 2019  6 16  1 24 32.0000000  0  8                     
G 6  21408838.882   114079610.097        -480.200          38.000  
G 5  21408835.071   114079590.224        -480.383          45.000  
G20  21284239.227   113424835.716        -480.230          30.000  
G 3  21409065.295   114080802.922        -480.244          47.000  
G 9  21363377.083   113840705.749        -481.255          30.000  
G 4  21409067.429   114080813.210        -480.284          45.000  
G18  21502563.425   114572153.3293       -480.715          32.000  
G 1  21409075.249   114080852.822        -480.513          39.000  
> 2019  6 16  1 24 33.0000000  0  8                     
G 6  21408930.219   114080090.333        -479.855          38.000  
G 5  21408926.517   114080070.459        -480.099          45.000  
G20  21284330.790   113425315.948        -479.992          30.000  
G 3  21409156.818   114081283.149        -480.043          47.000  
G 9  21363468.670   113841185.944        -480.605          30.000  
G 4  21409158.871   114081293.427        -480.137          45.000  
G18  21502655.729   114572633.5712       -480.953          32.000  
G 1  21409166.616   114081333.038        -480.286          39.000  
> 2019  6 16  1 24 34.0000000  0  8                     
G 6  21409021.701   114080570.529        -479.866          38.000  
G 5  21409018.002   114080550.645        -480.009          45.000  
G20  21284422.343   113425796.141        -480.206          30.000  
G 3  21409248.401   114081763.342        -480.094          47.000  
G 9  21363560.238   113841666.137        -480.420          31.000  
G 4  21409250.239   114081773.625        -480.151          45.000  
G18  21502746.760   114573116.7743       -480.675          31.000  
G 1  21409258.045   114081813.244        -480.310          39.000  
> 2019  6 16  1 24 35.0000000  0  8                     
G 6  21409113.028   114081050.666        -480.255          38.000  
G 5  21409109.428   114081030.805        -480.332          45.000  
G20  21284513.868   113426276.296        -480.250          30.000  
G 3  21409339.922   114082243.512        -480.322          47.000  
G 9  21363651.739   113842146.310        -481.118          30.000  
G 4  21409341.826   114082253.791        -480.347          45.000  
G18  21502838.112   114573596.8952       -480.448          32.000  
G 1  21409349.541   114082293.402        -480.432          39.000  
> 2019  6 16  1 24 36.0000000  0  8                     
G 6  21409204.501   114081530.928        -479.575          38.000  
G 5  21409200.902   114081511.047        -480.078          44.000  
G20  21284605.292   113426756.548        -479.949          30.000  
G 3  21409431.360   114082723.745        -480.031          47.000  
G 9  21363743.177   113842626.541        -480.450          30.000  
G 4  21409433.340   114082734.043        -480.090          46.000  
G18  21502929.487   114574077.1003       -479.285          32.000  
G 1  21409441.061   114082773.639        -480.042          39.000  
> 2019  6 16  1 24 37.0000000  0  8                     
G 6  21409295.864   114082011.117        -479.950          38.000  
G 5  21409292.437   114081991.239        -480.090          45.000  
G20  21284696.784   113427236.731        -479.756          30.000  
G 3  21409522.712   114083203.938        -480.205          47.000  
G 9  21363834.615   113843106.724        -480.208          31.000  
G 4  21409524.842   114083214.229        -480.249          45.000  
G18  21503020.944   114574556.8801       -481.173          31.000  
G 1  21409532.572   114083253.841        -480.420          39.000  
> 2019  6 16  1 24 38.0000000  0  8                     
G 6  21409387.365   114082491.282        -479.934          38.000  
G 5  21409383.902   114082471.406        -480.182          45.000  
G20  21284788.107   113427716.884        -479.770          30.000  
G 3  21409614.147   114083684.111        -480.249          47.000  
G 9  21363925.929   113843586.896        -480.081          30.000  
G 4  21409616.346   114083694.406        -480.197          45.000  
G18  21503112.338   114575037.030        -480.696          32.000  
G 1  21409624.070   114083734.025        -480.459          39.000  
> 2019  6 16  1 24 39.0000000  0  8                     
G 6  21409478.920   114082971.374        -480.100          39.000  
G 5  21409475.354   114082951.492        -480.162          45.000  
G20  21284879.539   113428196.980        -479.679          31.000  
G 3  21409705.512   114084164.203        -480.283          47.000  
G 9  21364017.301   113844066.963        -479.838          31.000  
G 4  21409707.755   114084174.487        -480.289          45.000  
G18  21503203.773   114575517.091        -480.135          32.000  
G 1  21409715.479   114084214.093        -480.387          39.000  
> 2019  6 16  1 24 40.0000000  0  8                     
G 6  21409570.455   114083451.608        -480.048          38.000  
G 5  21409566.740   114083431.726        -480.113          44.000  
G20  21284970.972   113428677.216        -479.877          31.000  
G 3  21409796.961   114084644.430        -480.243          47.000  
G 9  21364108.772   113844547.224        -480.012          31.000  
G 4  21409799.154   114084654.720        -480.240          46.000  
G18  21503295.219   114575997.330        -480.430          32.000  
G 1  21409806.880   114084694.319        -480.100          39.000  
> 2019  6 16  1 24 41.0000000  0  8                     
G 6  21409661.946   114083931.817        -480.142          39.000  
G 5  21409658.296   114083911.931        -480.137          44.000  
G20  21285062.481   113429157.428        -479.872          31.000  
G 3  21409888.395   114085124.628        -480.254          46.000  
G 9  21364200.294   113845027.447        -480.739          30.000  
G 4  21409890.671   114085134.925        -480.276          46.000  
G18  21503386.677   114576477.539        -480.541          32.000  
G 1  21409898.390   114085174.533        -480.143          39.000  
> 2019  6 16  1 24 42.0000000  0  8                     
G 6  21409753.472   114084412.102        -479.900          39.000  
G 5  21409749.760   114084392.225        -480.104          44.000  
G20  21285154.071   113429637.742        -480.191          31.000  
G 3  21409979.835   114085604.926        -480.149          47.000  
G 9  21364291.873   113845507.734        -480.295          31.000  
G 4  21409982.203   114085615.228        -480.222          46.000  
G18  21503478.128   114576957.826        -480.485          33.000  
G 1  21409989.936   114085654.836        -480.244          39.000  
> 2019  6 16  1 24 43.0000000  0  8                     
G 6  21409844.923   114084892.298        -480.006          39.000  
G 5  21409841.289   114084872.411        -480.076          45.000  
G20  21285245.576   113430117.928        -480.267          31.000  
G 3  21410071.369   114086085.118        -480.198          47.000  
G 9  21364383.326   113845987.955        -480.929          31.000  
G 4  21410073.641   114086095.409        -480.139          46.000  
G18  21503569.651   114577437.974        -479.454          33.000  
G 1  21410081.610   114086135.007        -479.855          39.000  
> 2019  6 16  1 24 44.0000000  0  8                     
G 6  21409936.321   114085372.397        -479.673          38.000  
G 5  21409932.711   114085352.530        -479.984          45.000  
G20  21285337.045   113430598.034        -480.048          31.000  
G 3  21410162.944   114086565.235        -480.018          47.000  
G 9  21364474.860   113846468.052        -480.516          31.000  
G 4  21410165.324   114086575.533        -480.089          45.000  
G18  21503660.997   114577918.135        -480.184          32.000  
G 1  21410173.085   114086615.118        -479.840          39.000  
> 2019  6 16  1 24 45.0000000  0  8                     
G 6  21410027.831   114085852.470        -479.750          38.000  
G 5  21410024.209   114085832.601        -480.012          44.000  
G20  21285428.428   113431078.083        -479.780          30.000  
G 3  21410254.541   114087045.309        -480.085          47.000  
G 9  21364566.134   113846948.098        -480.225          31.000  
G 4  21410256.597   114087055.593        -480.092          46.000  
G18  21503752.231   114578398.193        -479.902          32.000  
G 1  21410264.309   114087095.168        -479.767          39.000  
> 2019  6 16  1 24 46.0000000  0  8                     
G 6  21410119.293   114086332.591        -480.262          39.000  
G 5  21410115.746   114086312.684        -480.039          44.000  
G20  21285519.919   113431558.183        -480.232          30.000  
G 3  21410346.163   114087525.390        -480.275          47.000  
G 9  21364657.452   113847428.176        -480.129          31.000  
G 4  21410348.009   114087535.680        -480.205          45.000  
G18  21503843.558   114578878.318        -480.924          32.000  
G 1  21410355.670   114087575.279        -480.222          39.000  
> 2019  6 16  1 24 47.0000000  0  8                     
G 6  21410210.760   114086812.506        -479.406          38.000  
G 5  21410207.113   114086792.631        -479.700          45.000  
G20  21285611.380   113432038.144        -479.465          31.000  
G 3  21410437.573   114088005.347        -479.808          47.000  
G 9  21364748.852   113847908.187        -480.042          30.000  
G 4  21410439.316   114088015.622        -479.735          45.000  
G18  21503934.872   114579358.217        -479.412          32.000  
G 1  21410446.911   114088055.210        -479.274          39.000  
> 2019  6 16  1 24 48.0000000  0  8                     
G 6  21410302.249   114087292.413        -479.794          38.000  
G 5  21410298.528   114087272.546        -480.048          45.000  
G20  21285702.839   113432518.039        -480.388          30.000  
G 3  21410528.896   114088485.236        -479.960          47.000  
G 9  21364840.231   113848388.062        -480.320          31.000  
G 4  21410530.791   114088495.537        -479.946          45.000  
G18  21504026.229   114579838.143        -480.096          32.000  
G 1  21410538.217   114088535.105        -479.773          38.000  
> 2019  6 16  1 24 49.0000000  0  8                     
G 6  21410393.718   114087772.400        -479.771          38.000  
G 5  21410389.864   114087752.526        -480.134          45.000  
G20  21285794.424   113432998.018        -480.079          30.000  
G 3  21410620.304   114088965.227        -480.209          47.000  
G 9  21364931.816   113848868.039        -480.264          31.000  
G 4  21410622.425   114088975.525        -480.258          45.000  
G18  21504117.626   114580318.105        -480.007          33.000  
G 1  21410629.554   114089015.096        -479.878          38.000  
> 2019  6 16  1 24 50.0000000  0  8                     
G 6  21410485.038   114088252.417        -480.160          39.000  
G 5  21410481.267   114088232.559        -480.093          45.000  
G20  21285885.835   113433478.034        -479.684          30.000  
G 3  21410711.694   114089445.249        -480.065          47.000  
G 9  21365023.287   113849348.065        -480.369          31.000  
G 4  21410713.934   114089455.544        -480.171          45.000  
G18  21504209.148   114580798.151        -480.078          33.000  
G 1  21410721.084   114089495.119        -479.570          38.000  
> 2019  6 16  1 24 51.0000000  0  8                     
G 6  21410576.399   114088732.396        -479.883          38.000  
G 5  21410572.778   114088712.509        -480.110          45.000  
G20  21285977.331   113433958.038        -480.031          30.000  
G 3  21410803.187   114089925.226        -480.093          47.000  
G 9  21365114.924   113849828.033        -479.445          31.000  
G 4  21410805.408   114089935.510        -480.068          45.000  
G18  21504300.359   114581278.142        -481.040          32.000  
G 1  21410812.536   114089975.089        -479.806          39.000  
> 2019  6 16  1 24 52.0000000  0  8                     
G 6  21410667.740   114089212.407        -479.893          38.000  
G 5  21410664.346   114089192.527        -479.950          45.000  
G20  21286068.769   113434438.021        -479.762          30.000  
G 3  21410894.616   114090405.238        -479.973          47.000  
G 9  21365206.287   113850308.013        -479.729          31.000  
G 4  21410896.769   114090415.533        -480.101          46.000  
G18  21504391.822   114581758.159        -480.149          32.000  
G 1  21410903.948   114090455.106        -479.647          39.000  
> 2019  6 16  1 24 53.0000000  0  8                     
G 6  21410759.082   114089692.464        -479.802          39.000  
G 5  21410755.720   114089672.587        -479.901          45.000  
G20  21286160.193   113434918.092        -479.911          31.000  
G 3  21410985.947   114090885.296        -480.032          46.000  
G 9  21365297.717   113850788.112        -479.890          31.000  
G 4  21410988.050   114090895.593        -479.993          46.000  
G18  21504483.116   114582238.205        -480.535          32.000  
G 1  21410995.439   114090935.173        -479.906          39.000  
> 2019  6 16  1 24 54.0000000  0  8                     
G 6  21410850.519   114090172.416        -479.670          39.000  
G 5  21410847.050   114090152.528        -479.753          45.000  
G20  21286251.489   113435398.024        -479.766          31.000  
G 3  21411077.279   114091365.250        -479.860          47.000  
G 9  21365389.168   113851268.056        -480.013          31.000  
G 4  21411079.321   114091375.527        -479.766          45.000  
G18  21504574.599   114582718.150        -479.985          33.000  
G 1  21411086.832   114091415.120        -479.634          39.000  
> 2019  6 16  1 24 55.0000000  0  8                     
G 6  21410941.932   114090652.440        -480.250          38.000  
G 5  21410938.439   114090632.560        -480.074          44.000  
G20  21286342.957   113435878.041        -479.679          30.000  
G 3  21411168.663   114091845.272        -480.226          46.000  
G 9  21365480.622   113851748.039        -480.301          30.000  
G 4  21411170.752   114091855.545        -480.161          45.000  
G18  21504665.990   114583198.132        -479.410          31.000  
G 1  21411178.246   114091895.156        -480.350          39.000  
> 2019  6 16  1 24 56.0000000  0  8                     
G 6  21411033.268   114091132.536        -480.164          39.000  
G 5  21411029.893   114091112.649        -480.143          45.000  
G20  21286434.335   113436358.138        -479.922          31.000  
G 3  21411260.095   114092325.352        -480.210          47.000  
G 9  21365571.999   113852228.145        -479.927          31.000  
G 4  21411262.159   114092335.637        -480.012          45.000  
G18  21504757.502   114583678.267        -480.238          32.000  
G 1  21411269.779   114092375.245        -480.250          39.000  
> 2019  6 16  1 24 57.0000000  0  8                     
G 6  21411124.640   114091612.622        -480.609          39.000  
G 5  21411121.306   114091592.740        -480.226          45.000  
G20  21286525.703   113436838.233        -480.120          31.000  
G 3  21411351.518   114092805.443        -480.264          47.000  
G 9  21365663.456   113852708.228        -479.706          31.000  
G 4  21411353.777   114092815.732        -480.112          45.000  
G18  21504848.896   114584158.332        -480.408          32.000  
G 1  21411361.227   114092855.325        -480.496          39.000  
> 2019  6 16  1 24 58.0000000  0  8                     
G 6  21411216.172   114092092.777        -480.624          39.000  
G 5  21411212.757   114092072.905        -480.293          44.000  
G20  21286617.153   113437318.383        -480.271          31.000  
G 3  21411442.955   114093285.596        -480.170          46.000  
G 9  21365754.739   113853188.383        -479.896          31.000  
G 4  21411445.249   114093295.881        -480.162          45.000  
G18  21504940.249   114584638.514        -480.312          32.000  
G 1  21411452.562   114093335.470        -480.345          39.000  
> 2019  6 16  1 24 59.0000000  0  8                     
G 6  21411307.642   114092572.888        -480.736          38.000  
G 5  21411304.331   114092553.015        -480.397          44.000  
G20  21286708.510   113437798.514        -480.709          31.000  
G 3  21411534.491   114093765.706        -480.157          46.000  
G 9  21365846.055   113853668.498        -479.805          31.000  
G 4  21411536.616   114093775.982        -480.045          45.000  
G18  21505031.682   114585118.595        -480.193          32.000  
G 1  21411543.864   114093815.581        -480.414          39.000  
> 2019  6 16  1 25  0.0000000  0  8                     
G 6  21411398.981   114093052.990        -480.221          38.000  
G 5  21411395.774   114093033.111        -480.103          45.000  
G20  21286799.861   113438278.604        -480.156          31.000  
G 3  21411625.906   114094245.812        -480.002          47.000  
G 9  21365937.383   113854148.560        -479.241          31.000  
G 4  21411628.091   114094256.085        -479.941          45.000  
G18  21505123.253   114585598.723        -480.090          32.000  
G 1  21411635.352   114094295.712        -480.245          39.000  
> 2019  6 16  1 25  1.0000000  0  8                     
G 6  21411490.426   114093533.011        -480.471          39.000  
G 5  21411487.271   114093513.131        -480.165          45.000  
G20  21286891.362   113438758.612        -479.999          31.000  
G 3  21411717.357   114094725.829        -479.982          47.000  
G 9  21366028.899   113854628.593        -479.186          31.000  
G 4  21411719.486   114094736.100        -479.824          45.000  
G18  21505214.614   114586078.740        -480.366          32.000  
G 1  21411726.900   114094775.724        -480.142          39.000  
> 2019  6 16  1 25  2.0000000  0  8                     
G 6  21411582.039   114094013.182        -480.842          38.000  
G 5  21411578.719   114093993.272        -480.415          44.000  
G20  21286982.755   113439238.768        -480.233          31.000  
G 3  21411808.800   114095205.987        -480.330          47.000  
G 9  21366120.476   113855108.733        -479.425          31.000  
G 4  21411810.949   114095216.272        -480.205          45.000  
G18  21505306.104   114586558.895        -480.265          32.000  
G 1  21411818.406   114095255.880        -480.518          39.000  
> 2019  6 16  1 25  3.0000000  0  8                     
G 6  21411673.701   114094493.512        -480.927          38.000  
G 5  21411670.152   114094473.604        -480.530          44.000  
G20  21287074.233   113439719.088        -480.492          31.000  
G 3  21411900.329   114095686.303        -480.320          47.000  
G 9  21366212.073   113855589.080        -479.908          31.000  
G 4  21411902.351   114095696.589        -480.334          45.000  
G18  21505397.579   114587039.175        -480.078          32.000  
G 1  21411910.056   114095736.198        -480.537          39.000  
> 2019  6 16  1 25  4.0000000  0  8                     
G 6  21411765.275   114094973.860        -481.105          38.000  
G 5  21411761.727   114094953.952        -480.477          45.000  
G20  21287165.688   113440199.428        -480.200          31.000  
G 3  21411991.863   114096166.649        -480.382          47.000  
G 9  21366303.640   113856069.429        -479.772          31.000  
G 4  21411993.798   114096176.921        -480.012          45.000  
G18  21505489.108   114587519.521        -480.031          33.000  
G 1  21412001.585   114096216.535        -480.383          39.000  
> 2019  6 16  1 25  5.0000000  0  8                     
G 6  21411856.752   114095454.153        -480.803          38.000  
G 5  21411853.067   114095434.244        -480.365          44.000  
G20  21287257.170   113440679.743        -480.500          30.000  
G 3  21412083.345   114096646.943        -480.325          47.000  
G 9  21366395.196   113856549.711        -480.150          31.000  
G 4  21412085.333   114096657.216        -480.039          45.000  
G18  21505580.582   114587999.812        -479.790          32.000  
G 1  21412092.986   114096696.832        -480.239          39.000  
> 2019  6 16  1 25  6.0000000  0  8                     
G 6  21411948.174   114095934.377        -480.563          38.000  
G 5  21411944.666   114095914.473        -480.177          44.000  
G20  21287348.613   113441159.983        -480.358          31.000  
G 3  21412174.802   114097127.174        -480.113          46.000  
G 9  21366486.671   113857029.963        -480.295          32.000  
G 4  21412176.868   114097137.445        -479.960          45.000  
G18  21505672.136   114588480.011        -478.652          32.000  
G 1  21412184.444   114097177.054        -480.099          39.000  
> 2019  6 16  1 25  7.0000000  0  8                     
G 6  21412039.706   114096414.716        -480.679          38.000  
G 5  21412036.147   114096394.808        -480.406          45.000  
G20  21287440.115   113441640.314        -480.773          31.000  
G 3  21412266.320   114097607.524        -480.563          47.000  
G 9  21366578.220   113857510.311        -480.781          31.000  
G 4  21412268.365   114097617.807        -480.505          46.000  
G18  21505763.702   114588960.400        -480.350          32.000  
G 1  21412275.784   114097657.386        -480.250          39.000  
> 2019  6 16  1 25  8.0000000  0  8                     
G 6  21412131.203   114096894.988        -480.594          38.000  
G 5  21412127.643   114096875.071        -480.331          45.000  
G20  21287531.576   113442120.569        -480.497          31.000  
G 3  21412357.779   114098087.771        -480.304          47.000  
G 9  21366669.650   113857990.554        -480.538          31.000  
G 4  21412359.817   114098098.045        -480.123          46.000  
G18  21505855.039   114589440.628        -479.349          32.000  
G 1  21412367.353   114098137.650        -480.105          38.000  
> 2019  6 16  1 25  9.0000000  0  8                     
G 6  21412222.650   114097375.238        -480.646          38.000  
G 5  21412219.044   114097355.340        -480.286          45.000  
G20  21287623.048   113442600.818        -480.026          31.000  
G 3  21412449.219   114098568.048        -480.286          47.000  
G 9  21366761.048   113858470.816        -480.039          31.000  
G 4  21412451.278   114098578.317        -480.081          46.000  
G18  21505946.558   114589920.916        -480.020          32.000  
G 1  21412458.871   114098617.933        -480.132          38.000  
> 2019  6 16  1 25 10.0000000  0  8                     
G 6  21412314.044   114097855.478        -480.603          38.000  
G 5  21412310.535   114097835.570        -480.168          45.000  
G20  21287714.553   113443081.068        -480.186          31.000  
G 3  21412540.851   114099048.279        -480.233          47.000  
G 9  21366852.534   113858951.055        -480.605          31.000  
G 4  21412542.779   114099058.543        -480.023          46.000  
G18  21506038.059   114590401.126        -479.302          32.000  
G 1  21412550.314   114099098.137        -479.972          39.000  
> 2019  6 16  1 25 11.0000000  0  8                     
G 6  21412405.497   114098335.697        -480.377          38.000  
G 5  21412401.982   114098315.794        -480.380          45.000  
G20  21287806.115   113443561.294        -480.653          31.000  
G 3  21412632.499   114099528.502        -480.359          47.000  
G 9  21366944.075   113859431.296        -480.538          31.000  
G 4  21412634.311   114099538.772        -480.275          46.000  
G18  21506129.567   114590881.372        -480.320          32.000  
G 1  21412641.900   114099578.375        -480.159          39.000  
> 2019  6 16  1 25 12.0000000  0  8                     
G 6  21412496.909   114098816.070        -480.469          38.000  
G 5  21412493.535   114098796.190        -480.561          45.000  
G20  21287897.563   113444041.695        -480.867          31.000  
G 3  21412724.052   114100008.890        -480.565          47.000  
G 9  21367035.555   113859911.687        -480.969          31.000  
G 4  21412725.826   114100019.169        -480.552          45.000  
G18  21506221.120   114591361.741        -480.084          33.000  
G 1  21412733.301   114100058.751        -480.502          39.000  
> 2019  6 16  1 25 13.0000000  0  8                     
G 6  21412588.390   114099296.443        -480.293          38.000  
G 5  21412584.967   114099276.569        -480.339          45.000  
G20  21287989.103   113444522.056        -480.073          30.000  
G 3  21412815.492   114100489.276        -480.383          46.000  
G 9  21367126.963   113860392.067        -480.367          31.000  
G 4  21412817.328   114100499.556        -480.314          45.000  
G18  21506312.542   114591842.112        -479.768          32.000  
G 1  21412824.769   114100539.157        -480.298          39.000  
> 2019  6 16  1 25 14.0000000  0  8                     
G 6  21412679.921   114099776.910        -480.536          38.000  
G 5  21412676.500   114099757.020        -480.333          45.000  
G20  21288080.660   113445002.529        -480.654          30.000  
G 3  21412907.047   114100969.729        -480.454          47.000  
G 9  21367218.448   113860872.524        -480.911          31.000  
G 4  21412908.847   114100980.009        -480.480          45.000  
G18  21506404.043   114592322.587        -480.129          32.000  
G 1  21412916.349   114101019.600        -480.447          39.000  
> 2019  6 16  1 25 15.0000000  0  8                     
G 6  21412771.329   114100257.191        -480.157          38.000  
G 5  21412768.124   114100237.322        -480.393          45.000  
G20  21288172.238   113445482.796        -480.258          31.000  
G 3  21412998.505   114101450.025        -480.516          47.000  
G 9  21367310.009   113861352.823        -480.605          31.000  
G 4  21413000.421   114101460.315        -480.384          45.000  
G18  21506495.367   114592802.891        -480.404          32.000  
G 1  21413007.902   114101499.909        -480.577          38.000  
> 2019  6 16  1 25 16.0000000  0  8                     
G 6  21412862.854   114100737.571        -480.525          38.000  
G 5  21412859.675   114100717.679        -480.464          45.000  
G20  21288263.623   113445963.164        -480.382          31.000  
G 3  21413089.940   114101930.388        -480.549          47.000  
G 9  21367401.528   113861833.167        -480.250          32.000  
G 4  21413091.973   114101940.665        -480.480          45.000  
G18  21506586.814   114593283.237        -480.482          32.000  
G 1  21413099.368   114101980.275        -480.546          38.000  
> 2019  6 16  1 25 17.0000000  0  8                     
G 6  21412954.449   114101217.937        -480.400          38.000  
G 5  21412951.085   114101198.051        -480.530          44.000  
G20  21288355.110   113446443.544        -480.713          31.000  
G 3  21413181.480   114102410.750        -480.460          47.000  
G 9  21367493.006   113862313.535        -480.518          32.000  
G 4  21413183.469   114102421.026        -480.502          45.000  
G18  21506678.297   114593763.598        -479.984          32.000  
G 1  21413190.907   114102460.647        -480.854          39.000  
> 2019  6 16  1 25 18.0000000  0  8                     
G 6  21413045.962   114101698.236        -480.120          38.000  
G 5  21413042.616   114101678.370        -480.293          45.000  
G20  21288446.625   113446923.862        -480.176          31.000  
G 3  21413273.019   114102891.068        -480.392          47.000  
G 9  21367584.582   113862793.880        -480.485          31.000  
G 4  21413274.929   114102901.348        -480.436          46.000  
G18  21506769.865   114594243.930        -479.972          32.000  
G 1  21413282.512   114102940.973        -480.533          39.000  
> 2019  6 16  1 25 19.0000000  0  8                     
G 6  21413137.370   114102178.649        -480.505          38.000  
G 5  21413134.267   114102158.778        -480.402          45.000  
G20  21288538.128   113447404.252        -480.052          31.000  
G 3  21413364.507   114103371.489        -480.513          47.000  
G 9  21367675.955   113863274.288        -480.468          31.000  
G 4  21413366.402   114103381.770        -480.504          45.000  
G18  21506861.265   114594724.346        -480.043          33.000  
G 1  21413374.110   114103421.382        -480.834          39.000  
> 2019  6 16  1 25 20.0000000  0  8                     
G 6  21413228.840   114102659.017        -480.298          38.000  
G 5  21413225.868   114102639.139        -480.323          45.000  
G20  21288629.587   113447884.609        -479.749          31.000  
G 3  21413456.016   114103851.839        -480.360          47.000  
G 9  21367767.367   113863754.612        -480.154          31.000  
G 4  21413457.695   114103862.123        -480.454          46.000  
G18  21506952.732   114595204.693        -480.078          32.000  
G 1  21413465.585   114103901.730        -480.613          39.000  
> 2019  6 16  1 25 21.0000000  0  8                     
G 6  21413320.272   114103139.370        -480.450          38.000  
G 5  21413317.228   114103119.493        -480.256          44.000  
G20  21288721.097   113448365.013        -480.815          30.000  
G 3  21413547.400   114104332.201        -480.376          47.000  
G 9  21367858.813   113864234.967        -480.135          31.000  
G 4  21413549.094   114104342.488        -480.483          46.000  
G18  21507044.357   114595685.067        -480.179          32.000  
G 1  21413556.953   114104382.093        -480.680          39.000  
> 2019  6 16  1 25 22.0000000  0  8                     
G 6  21413411.625   114103619.574        -480.001          39.000  
G 5  21413408.754   114103599.701        -480.126          44.000  
G20  21288812.526   113448845.193        -480.088          30.000  
G 3  21413638.908   114104812.396        -480.000          47.000  
G 9  21367950.304   113864715.205        -480.751          31.000  
G 4  21413640.628   114104822.682        -480.197          46.000  
G18  21507135.755   114596165.259        -480.127          32.000  
G 1  21413648.511   114104862.285        -480.247          39.000  
> 2019  6 16  1 25 23.0000000  0  8                     
G 6  21413503.131   114104099.715        -480.171          38.000  
G 5  21413500.109   114104079.847        -480.070          45.000  
G20  21288903.896   113449325.313        -479.794          30.000  
G 3  21413730.314   114105292.546        -480.094          47.000  
G 9  21368041.743   113865195.379        -480.654          31.000  
G 4  21413732.188   114105302.845        -480.288          46.000  
G18  21507227.301   114596645.433        -480.206          33.000  
G 1  21413739.998   114105342.451        -480.333          39.000  
> 2019  6 16  1 25 24.0000000  0  8                     
G 6  21413594.593   114104579.815        -480.486          38.000  
G 5  21413591.466   114104559.937        -480.148          45.000  
G20  21288995.181   113449805.437        -480.341          31.000  
G 3  21413821.830   114105772.640        -480.314          47.000  
G 9  21368133.108   113865675.457        -480.629          31.000  
G 4  21413823.723   114105782.928        -480.323          46.000  
G18  21507318.835   114597125.514        -480.364          32.000  
G 1  21413831.328   114105822.522        -480.320          39.000  
> 2019  6 16  1 25 25.0000000  0  8                     
G 6  21413685.958   114105059.777        -479.933          38.000  
G 5  21413682.829   114105039.894        -479.867          45.000  
G20  21289086.645   113450285.394        -480.190          31.000  
G 3  21413913.241   114106252.596        -479.854          47.000  
G 9  21368224.419   113866155.414        -480.188          31.000  
G 4  21413915.208   114106262.884        -479.913          46.000  
G18  21507410.182   114597605.465        -479.818          32.000  
G 1  21413922.814   114106302.493        -479.852          39.000  
> 2019  6 16  1 25 26.0000000  0  8                     
G 6  21413777.341   114105539.808        -479.890          38.000  
G 5  21413774.335   114105519.927        -479.833          44.000  
G20  21289178.085   113450765.414        -479.926          31.000  
G 3  21414004.675   114106732.627        -479.720          46.000  
G 9  21368315.731   113866635.441        -480.132          31.000  
G 4  21414006.564   114106742.912        -479.626          46.000  
G18  21507501.607   114598085.518        -479.915          32.000  
G 1  21414014.333   114106782.530        -480.082          39.000  
> 2019  6 16  1 25 27.0000000  0  8                     
G 6  21413868.855   114106019.795        -479.945          38.000  
G 5  21413865.806   114105999.906        -479.862          44.000  
G20  21289269.499   113451245.421        -480.254          30.000  
G 3  21414096.146   114107212.613        -479.897          47.000  
G 9  21368407.083   113867115.411        -480.132          31.000  
G 4  21414097.999   114107222.898        -480.033          46.000  
G18  21507593.118   114598565.415        -478.644          32.000  
G 1  21414105.774   114107262.481        -479.780          39.000  
> 2019  6 16  1 25 28.0000000  0  8                     
G 6  21413960.396   114106499.861        -480.497          38.000  
G 5  21413957.305   114106479.974        -480.175          44.000  
G20  21289360.920   113451725.486        -480.620          30.000  
G 3  21414187.518   114107692.671        -480.194          47.000  
G 9  21368498.536   113867595.516        -480.752          31.000  
G 4  21414189.482   114107702.962        -480.221          46.000  
G18  21507684.577   114599045.541        -480.002          33.000  
G 1  21414197.220   114107742.564        -480.117          39.000  
> 2019  6 16  1 25 29.0000000  0  8                     
G 6  21414051.992   114106980.086        -480.239          38.000  
G 5  21414048.784   114106960.204        -480.258          44.000  
G20  21289452.367   113452205.730        -481.031          31.000  
G 3  21414279.058   114108172.887        -480.265          47.000  
G 9  21368589.965   113868075.726        -480.968          31.000  
G 4  21414280.899   114108183.179        -480.343          45.000  
G18  21507775.957   114599525.794        -480.870          32.000  
G 1  21414288.749   114108222.785        -480.184          39.000  
> 2019  6 16  1 25 30.0000000  0  8                     
G 6  21414143.630   114107460.289        -479.976          38.000  
G 5  21414140.260   114107440.413        -480.352          44.000  
G20  21289543.698   113452685.938        -480.897          31.000  
G 3  21414370.542   114108653.105        -480.383          47.000  
G 9  21368681.433   113868555.951        -480.746          31.000  
G 4  21414372.257   114108663.395        -480.455          46.000  
G18  21507867.478   114600006.015        -480.994          32.000  
G 1  21414380.310   114108703.006        -480.414          38.000  
> 2019  6 16  1 25 31.0000000  0  8                     
G 6  21414235.202   114107940.489        -479.985          38.000  
G 5  21414231.665   114107920.608        -480.035          45.000  
G20  21289635.067   113453166.125        -480.420          31.000  
G 3  21414461.951   114109133.310        -480.127          47.000  
G 9  21368772.890   113869036.137        -480.623          31.000  
G 4  21414463.727   114109143.601        -480.189          46.000  
G18  21507958.947   114600486.197        -480.582          32.000  
G 1  21414471.746   114109183.197        -479.913          38.000  
> 2019  6 16  1 25 32.0000000  0  8                     
G 6  21414326.621   114108420.594        -479.640          38.000  
G 5  21414323.156   114108400.716        -479.852          45.000  
G20  21289726.465   113453646.224        -480.208          31.000  
G 3  21414553.405   114109613.417        -479.947          47.000  
G 9  21368864.238   113869516.229        -480.345          32.000  
G 4  21414555.341   114109623.707        -479.980          46.000  
G18  21508050.374   114600966.333        -480.623          32.000  
G 1  21414563.156   114109663.296        -479.729          39.000  
> 2019  6 16  1 25 33.0000000  0  8                     
G 6  21414418.037   114108900.633        -479.849          39.000  
G 5  21414414.758   114108880.753        -479.979          45.000  
G20  21289817.895   113454126.262        -480.134          30.000  
G 3  21414644.777   114110093.447        -480.026          47.000  
G 9  21368955.631   113869996.264        -480.134          32.000  
G 4  21414646.660   114110103.736        -480.089          46.000  
G18  21508141.686   114601446.351        -480.333          32.000  
G 1  21414654.565   114110143.334        -479.965          39.000  
> 2019  6 16  1 25 34.0000000  0  8                     
G 6  21414509.502   114109380.729        -479.608          38.000  
G 5  21414506.357   114109360.860        -479.894          45.000  
G20  21289909.392   113454606.370        -480.525          31.000  
G 3  21414736.273   114110573.562        -479.995          47.000  
G 9  21369047.212   113870476.406        -480.648          31.000  
G 4  21414737.959   114110583.842        -480.000          46.000  
G18  21508233.161   114601926.479        -480.858          32.000  
G 1  21414745.910   114110623.445        -479.863          39.000  
> 2019  6 16  1 25 35.0000000  0  8                     
G 6  21414601.026   114109860.752        -479.857          38.000  
G 5  21414597.845   114109840.888        -480.063          45.000  
G20  21290000.766   113455086.429        -480.256          30.000  
G 3  21414827.774   114111053.591        -480.048          46.000  
G 9  21369138.714   113870956.411        -480.475          31.000  
G 4  21414829.407   114111063.881        -480.032          46.000  
G18  21508324.556   114602406.498        -480.300          32.000  
G 1  21414837.363   114111103.466        -479.814          39.000  
> 2019  6 16  1 25 36.0000000  0  8                     
G 6  21414692.471   114110340.750        -479.911          38.000  
G 5  21414689.205   114110320.868        -479.945          45.000  
G20  21290092.183   113455566.375        -480.322          30.000  
G 3  21414919.151   114111533.567        -480.005          47.000  
G 9  21369230.195   113871436.396        -480.175          31.000  
G 4  21414920.827   114111543.852        -480.038          46.000  
G18  21508416.039   114602886.461        -480.177          32.000  
G 1  21414928.710   114111583.447        -479.957          39.000  
> 2019  6 16  1 25 37.0000000  0  8                     
G 6  21414784.059   114110820.771        -479.913          38.000  
G 5  21414780.534   114110800.917        -479.969          45.000  
G20  21290183.594   113456046.430        -480.282          31.000  
G 3  21415010.581   114112013.611        -479.788          47.000  
G 9  21369321.675   113871916.443        -479.874          31.000  
G 4  21415012.344   114112023.899        -479.977          46.000  
G18  21508507.465   114603366.510        -480.098          32.000  
G 1  21415020.170   114112063.489        -479.578          39.000  
> 2019  6 16  1 25 38.0000000  0  8                     
G 6  21414875.392   114111300.911        -480.316          38.000  
G 5  21414871.920   114111281.018        -480.148          44.000  
G20  21290275.034   113456526.546        -480.565          31.000  
G 3  21415102.148   114112493.716        -480.007          47.000  
G 9  21369413.102   113872396.518        -479.706          31.000  
G 4  21415103.988   114112504.008        -480.232          46.000  
G18  21508598.880   114603846.630        -480.548          32.000  
G 1  21415111.612   114112543.604        -480.203          39.000  
> 2019  6 16  1 25 39.0000000  0  8                     
G 6  21414966.714   114111781.002        -480.074          38.000  
G 5  21414963.314   114111761.143        -480.291          45.000  
G20  21290366.406   113457006.645        -480.347          31.000  
G 3  21415193.735   114112973.843        -480.187          47.000  
G 9  21369504.391   113872876.643        -479.517          31.000  
G 4  21415195.454   114112984.136        -480.157          46.000  
G18  21508690.341   114604326.724        -480.581          33.000  
G 1  21415203.150   114113023.733        -480.253          39.000  
> 2019  6 16  1 25 40.0000000  0  8                     
G 6  21415058.152   114112261.252        -480.382          38.000  
G 5  21415054.854   114112241.365        -480.297          44.000  
G20  21290457.852   113457486.875        -480.554          31.000  
G 3  21415285.176   114113454.060        -480.219          47.000  
G 9  21369595.831   113873356.849        -479.369          32.000  
G 4  21415287.013   114113464.357        -480.258          46.000  
G18  21508781.748   114604806.974        -480.806          32.000  
G 1  21415294.768   114113503.965        -480.477          39.000  
> 2019  6 16  1 25 41.0000000  0  8                     
G 6  21415149.619   114112741.572        -480.216          38.000  
G 5  21415146.303   114112721.702        -480.276          44.000  
G20  21290549.396   113457967.198        -480.262          31.000  
G 3  21415376.657   114113934.392        -480.233          47.000  
G 9  21369687.267   113873837.185        -479.709          31.000  
G 4  21415378.561   114113944.698        -480.358          46.000  
G18  21508873.229   114605287.309        -480.873          32.000  
G 1  21415386.292   114113984.293        -480.259          38.000  
> 2019  6 16  1 25 42.0000000  0  8                     
G 6  21415241.058   114113221.796        -480.139          39.000  
G 5  21415237.778   114113201.926        -480.171          44.000  
G20  21290640.969   113458447.406        -479.595          31.000  
G 3  21415468.160   114114414.612        -480.134          47.000  
G 9  21369778.762   113874317.395        -479.446          31.000  
G 4  21415470.100   114114424.903        -480.344          46.000  
G18  21508964.680   114605767.537        -481.061          32.000  
G 1  21415477.719   114114464.488        -480.253          39.000  
> 2019  6 16  1 25 43.0000000  0  8                     
G 6  21415332.579   114113702.107        -480.309          39.000  
G 5  21415329.243   114113682.230        -480.374          44.000  
G20  21290732.575   113458927.715        -480.221          30.000  
G 3  21415559.680   114114894.921        -480.261          48.000  
G 9  21369870.165   113874797.708        -480.057          31.000  
G 4  21415561.587   114114905.217        -480.530          47.000  
G18  21509056.236   114606247.834        -480.756          32.000  
G 1  21415569.110   114114944.811        -480.637          39.000  
> 2019  6 16  1 25 44.0000000  0  8                     
G 6  21415424.184   114114182.541        -480.811          39.000  
G 5  21415420.852   114114162.648        -480.612          44.000  
G20  21290824.214   113459408.139        -480.581          30.000  
G 3  21415651.120   114115375.339        -480.552          48.000  
G 9  21369961.671   113875278.116        -480.020          31.000  
G 4  21415653.251   114115385.636        -480.576          47.000  
G18  21509147.834   114606728.238        -480.448          32.000  
G 1  21415660.590   114115425.218        -480.558          38.000  
> 2019  6 16  1 25 45.0000000  0  8                     
G 6  21415515.670   114114662.772        -480.303          39.000  
G 5  21415512.381   114114642.898        -480.206          45.000  
G20  21290915.738   113459888.353        -479.530          31.000  
G 3  21415742.588   114115855.585        -480.129          47.000  
G 9  21370053.163   113875758.370        -479.855          31.000  
G 4  21415744.701   114115865.874        -480.065          46.000  
G18  21509239.341   114607208.470        -479.884          32.000  
G 1  21415751.916   114115905.476        -480.455          39.000  
> 2019  6 16  1 25 46.0000000  0  8                     
G 6  21415607.040   114115142.968        -480.677          39.000  
G 5  21415603.839   114115123.073        -480.352          44.000  
G20  21291007.112   113460368.584        -480.491          30.000  
G 3  21415834.031   114116335.778        -480.317          48.000  
G 9  21370144.601   113876238.522        -479.636          31.000  
G 4  21415836.139   114116346.072        -480.347          47.000  
G18  21509330.825   114607688.695        -480.730          31.000  
G 1  21415843.335   114116385.669        -480.507          39.000  
> 2019  6 16  1 25 47.0000000  0  8                     
G 6  21415698.517   114115623.263        -480.564          38.000  
G 5  21415695.303   114115603.371        -480.291          45.000  
G20  21291098.566   113460848.861        -480.428          31.000  
G 3  21415925.457   114116816.067        -480.229          47.000  
G 9  21370236.095   113876718.869        -479.957          32.000  
G 4  21415927.673   114116826.361        -480.341          46.000  
G18  21509422.299   114608168.951        -479.905          32.000  
G 1  21415934.836   114116865.963        -480.488          39.000  
> 2019  6 16  1 25 48.0000000  0  8                     
G 6  21415789.971   114116103.460        -480.426          38.000  
G 5  21415786.845   114116083.576        -480.559          45.000  
G20  21291190.085   113461329.091        -480.669          30.000  
G 3  21416016.923   114117296.270        -480.312          48.000  
G 9  21370327.583   113877199.048        -479.724          31.000  
G 4  21416019.125   114117306.555        -480.004          47.000  
G18  21509513.808   114608649.163        -480.039          32.000  
G 1  21416026.347   114117346.177        -480.410          39.000  
> 2019  6 16  1 25 49.0000000  0  8                     
G 6  21415881.600   114116583.647        -480.399          39.000  
G 5  21415878.328   114116563.776        -480.095          44.000  
G20  21291281.518   113461809.269        -480.405          30.000  
G 3  21416108.393   114117776.477        -480.212          48.000  
G 9  21370419.199   113877679.251        -479.897          31.000  
G 4  21416110.724   114117786.762        -480.186          45.000  
G18  21509605.106   114609129.402        -480.594          32.000  
G 1  21416117.800   114117826.369        -480.519          39.000  
> 2019  6 16  1 25 50.0000000  0  8                     
G 6  21415973.148   114117063.928        -480.664          38.000  
G 5  21415969.816   114117044.032        -480.300          44.000  
G20  21291373.001   113462289.514        -480.057          31.000  
G 3  21416199.884   114118256.735        -480.388          48.000  
G 9  21370510.609   113878159.497        -479.985          31.000  
G 4  21416202.151   114118267.021        -480.367          48.000  
G18  21509696.632   114609609.637        -480.570          32.000  
G 1  21416209.365   114118306.632        -480.511          39.000  
> 2019  6 16  1 25 51.0000000  0  8                     
G 6  21416064.747   114117544.120        -480.145          38.000  
G 5  21416061.137   114117524.248        -480.176          44.000  
G20  21291464.411   113462769.723        -479.594          30.000  
G 3  21416291.362   114118736.934        -480.222          48.000  
G 9  21370602.190   113878639.706        -480.164          31.000  
G 4  21416293.597   114118747.234        -480.217          47.000  
G18  21509788.237   114610089.829        -480.157          32.000  
G 1  21416300.919   114118786.822        -480.359          39.000  
> 2019  6 16  1 25 52.0000000  0  8                     
G 6  21416156.324   114118024.496        -480.605          38.000  
G 5  21416152.710   114118004.624        -480.497          45.000  
G20  21291555.854   113463250.110        -480.336          30.000  
G 3  21416382.842   114119217.308        -480.548          48.000  
G 9  21370693.661   113879120.072        -480.015          30.000  
G 4  21416385.100   114119227.611        -480.511          47.000  
G18  21509879.725   114610570.197        -480.159          32.000  
G 1  21416392.398   114119267.217        -480.686          39.000  
> 2019  6 16  1 25 53.0000000  0  8                     
G 6  21416247.750   114118504.747        -480.203          38.000  
G 5  21416244.212   114118484.884        -480.424          45.000  
G20  21291647.289   113463730.348        -479.961          30.000  
G 3  21416474.315   114119697.577        -480.291          48.000  
G 9  21370785.045   113879600.348        -479.872          30.000  
G 4  21416476.562   114119707.874        -480.293          47.000  
G18  21509971.232   114611050.476        -480.360          32.000  
G 1  21416483.923   114119747.484        -480.386          39.000  
> 2019  6 16  1 25 54.0000000  0  8                     
G 6  21416339.224   114118985.196        -480.560          38.000  
G 5  21416335.740   114118965.318        -480.673          44.000  
G20  21291738.870   113464210.787        -480.072          30.000  
G 3  21416565.902   114120178.005        -480.601          48.000  
G 9  21370876.490   113880080.750        -479.933          30.000  
G 4  21416568.079   114120188.307        -480.714          47.000  
G18  21510062.849   114611530.948        -481.163          31.000  
G 1  21416575.430   114120227.893        -480.540          39.000  
> 2019  6 16  1 25 55.0000000  0  8                     
G 6  21416430.746   114119522.6593       -480.651          38.000  
G 5  21416427.252   114119445.780        -480.596          44.000  
G20  21291830.356   113464691.268        -480.327          30.000  
G 3  21416657.355   114120658.478        -480.669          48.000  
G 9  21370967.926   113880561.221        -479.999          30.000  
G 4  21416659.553   114120668.771        -480.547          47.000  
G18  21510154.377   114612011.376        -480.465          32.000  
G 1  21416666.921   114120708.363        -480.651          39.000  
> 2019  6 16  1 25 56.0000000  0  8                     
G 6  21416522.194   114120003.1142       -480.249          38.000  
G 5  21416518.801   114119926.239        -480.248          44.000  
G20  21291921.923   113465171.719        -479.938          31.000  
G 3  21416748.877   114121138.929        -480.303          48.000  
G 9  21371059.492   113881041.730        -480.364          31.000  
G 4  21416751.167   114121149.228        -480.250          47.000  
G18  21510245.828   114612491.796        -479.377          32.000  
G 1  21416758.392   114121188.829        -480.389          39.000  
> 2019  6 16  1 25 57.0000000  0  8                     
G 6  21416613.641   114120483.5532       -480.872          38.000  
G 5  21416610.267   114120406.666        -480.585          45.000  
G20  21292013.356   113465652.153        -480.510          32.000  
G 3  21416840.353   114121619.356        -480.686          48.000  
G 9  21371150.889   113881522.126        -480.181          31.000  
G 4  21416842.800   114121629.652        -480.621          47.000  
G18  21510337.293   114612972.239        -480.120          33.000  
G 1  21416849.890   114121669.241        -480.613          39.000  
> 2019  6 16  1 25 58.0000000  0  8                     
G 6  21416705.256   114120965.0123       -480.519          38.000  
G 5  21416701.823   114120887.122        -480.540          45.000  
G20  21292104.837   113466132.678        -481.448          30.000  
G 3  21416931.817   114122099.810        -480.502          48.000  
G 9  21371242.117   113882002.657        -481.583          30.000  
G 4  21416934.346   114122110.108        -480.494          47.000  
G18  21510428.764   114613452.661        -479.763          32.000  
G 1  21416941.373   114122149.673        -480.109          39.000  
> 2019  6 16  1 25 59.0000000  0  8                     
G 6  21416796.728   114121445.4693       -480.555          38.000  
G 5  21416793.316   114121367.594        -480.442          45.000  
G20  21292196.418   113466613.083        -480.514          30.000  
G 3  21417023.274   114122580.290        -480.561          48.000  
G 9  21371333.411   113882483.065        -480.203          31.000  
G 4  21417025.671   114122590.589        -480.383          47.000  
G18  21510520.364   114613933.172        -480.139          32.000  
G 1  21417032.875   114122630.182        -480.526          39.000  
> 2019  6 16  1 26  0.0000000  0  8                     
G 6  21416888.202   114121925.9652       -480.693          38.000  
G 5  21416884.953   114121848.083        -480.494          45.000  
G20  21292287.909   113467093.580        -480.613          30.000  
G 3  21417114.771   114123060.773        -480.681          48.000  
G 9  21371424.862   113882963.533        -480.247          30.000  
G 4  21417117.272   114123071.073        -480.695          47.000  
G18  21510611.844   114614413.634        -479.929          32.000  
G 1  21417124.490   114123110.660        -480.585          39.000  
> 2019  6 16  1 26  1.0000000  0  8                     
G 6  21416979.707   114122407.4523       -480.707          38.000  
G 5  21416976.510   114122328.578        -480.658          44.000  
G20  21292379.384   113467574.054        -480.566          30.000  
G 3  21417206.454   114123541.270        -480.680          48.000  
G 9  21371516.278   113883444.003        -479.818          31.000  
G 4  21417208.869   114123551.554        -480.590          47.000  
G18  21510703.334   114614894.139        -480.331          32.000  
G 1  21417216.014   114123591.154        -480.529          39.000  
> 2019  6 16  1 26  2.0000000  0  8                     
G 6  21417071.179   114122887.8892       -480.548          38.000  
G 5  21417068.167   114122809.018        -480.477          44.000  
G20  21292470.789   113468054.486        -480.129          30.000  
G 3  21417297.978   114124021.708        -480.557          48.000  
G 9  21371607.745   113883924.470        -480.310          31.000  
G 4  21417300.514   114124032.005        -480.637          47.000  
G18  21510794.812   114615374.574        -480.255          32.000  
G 1  21417307.478   114124071.591        -480.538          39.000  
> 2019  6 16  1 26  3.0000000  0  8                     
G 6  21417162.694   114123368.3612       -480.667          39.000  
G 5  21417159.692   114123289.463        -480.369          44.000  
G20  21292562.354   113468534.952        -480.332          30.000  
G 3  21417389.495   114124502.154        -480.483          48.000  
G 9  21371699.122   113884404.931        -479.977          31.000  
G 4  21417391.874   114124512.455        -480.286          47.000  
G18  21510886.227   114615855.042        -480.156          32.000  
G 1  21417398.955   114124552.048        -480.547          39.000  
> 2019  6 16  1 26  4.0000000  0  8                     
G 6  21417254.235   114123848.8112       -480.614          38.000  
G 5  21417251.014   114123769.920        -480.367          44.000  
G20  21292653.834   113469015.394        -480.192          30.000  
G 3  21417480.963   114124982.625        -480.582          47.000  
G 9  21371790.573   113884885.407        -480.424          31.000  
G 4  21417483.377   114124992.912        -480.479          47.000  
G18  21510977.698   114616335.526        -481.047          32.000  
G 1  21417490.471   114125032.512        -480.431          39.000  
> 2019  6 16  1 26  5.0000000  0  8                     
G 6  21417345.766   114124329.2802       -480.730          39.000  
G 5  21417342.454   114124250.393        -480.592          45.000  
G20  21292745.359   113469495.875        -480.341          30.000  
G 3  21417572.475   114125463.086        -480.557          48.000  
G 9  21371882.082   113885365.864        -480.660          31.000  
G 4  21417574.856   114125473.377        -480.442          47.000  
G18  21511069.321   114616816.025        -481.600          32.000  
G 1  21417582.073   114125512.980        -480.502          39.000  
> 2019  6 16  1 26  6.0000000  0  8                     
G 6  21417437.265   114124809.7882       -480.096          38.000  
G 5  21417433.918   114124730.903        -480.295          45.000  
G20  21292836.865   113469976.365        -480.098          31.000  
G 3  21417664.001   114125943.589        -480.250          48.000  
G 9  21371973.548   113885846.380        -480.527          31.000  
G 4  21417666.362   114125953.882        -480.234          47.000  
G18  21511160.932   114617296.506        -480.759          32.000  
G 1  21417673.472   114125993.455        -479.938          39.000  
> 2019  6 16  1 26  7.0000000  0  8                     
G 6  21417528.804   114125290.200        -480.327          38.000  
G 5  21417525.516   114125211.324        -480.342          44.000  
G20  21292928.489   113470456.836        -480.985          31.000  
G 3  21417755.602   114126424.017        -480.529          48.000  
G 9  21372065.118   113886326.823        -480.962          31.000  
G 4  21417757.907   114126434.311        -480.432          47.000  
G18  21511252.461   114617776.922        -480.953          33.000  
G 1  21417764.950   114126473.888        -480.260          39.000  
> 2019  6 16  1 26  8.0000000  0  8                     
G 6  21417620.356   114125770.611        -480.531          38.000  
G 5  21417616.964   114125691.710        -480.148          45.000  
G20  21293019.975   113470937.203        -480.297          31.000  
G 3  21417847.118   114126904.395        -480.175          48.000  
G 9  21372156.578   113886807.186        -480.372          31.000  
G 4  21417849.467   114126914.684        -480.134          47.000  
G18  21511343.954   114618257.301        -480.503          33.000  
G 1  21417856.606   114126954.281        -480.154          39.000  
> 2019  6 16  1 26  9.0000000  0  8                     
G 6  21417711.943   114126250.955        -480.338          38.000  
G 5  21417708.449   114126172.067        -480.371          45.000  
G20  21293111.546   113471417.537        -480.299          30.000  
G 3  21417938.627   114127384.762        -480.311          48.000  
G 9  21372248.101   113887287.560        -480.304          31.000  
G 4  21417940.905   114127395.051        -480.269          47.000  
G18  21511435.507   114618737.651        -480.638          32.000  
G 1  21417948.160   114127434.637        -480.129          39.000  
> 2019  6 16  1 26 10.0000000  0  8                     
G 6  21417803.533   114126731.315        -480.143          38.000  
G 5  21417800.022   114126652.438        -480.593          44.000  
G20  21293203.038   113471897.919        -480.261          31.000  
G 3  21418030.153   114127865.125        -480.452          48.000  
G 9  21372339.671   113887767.928        -480.746          31.000  
G 4  21418032.474   114127875.416        -480.446          47.000  
G18  21511526.983   114619218.034        -480.811          33.000  
G 1  21418039.664   114127914.999        -480.238          39.000  
> 2019  6 16  1 26 11.0000000  0  8                     
G 6  21417895.075   114127211.735        -480.068          38.000  
G 5  21417891.449   114127132.859        -480.278          44.000  
G20  21293294.547   113472378.341        -480.243          30.000  
G 3  21418121.646   114128345.559        -480.298          48.000  
G 9  21372431.137   113888248.357        -480.676          31.000  
G 4  21418123.983   114128355.848        -480.448          47.000  
G18  21511618.494   114619698.436        -480.371          32.000  
G 1  21418131.235   114128395.443        -480.140          39.000  
> 2019  6 16  1 26 12.0000000  0  8                     
G 6  21417986.581   114127692.098        -479.869          38.000  
G 5  21417982.888   114127613.236        -480.250          45.000  
G20  21293386.073   113472858.703        -479.917          30.000  
G 3  21418213.196   114128825.927        -480.245          48.000  
G 9  21372522.741   113888728.721        -480.867          31.000  
G 4  21418215.345   114128836.222        -480.330          47.000  
G18  21511710.061   114620178.888        -481.735          32.000  
G 1  21418222.720   114128875.807        -480.284          39.000  
> 2019  6 16  1 26 13.0000000  0  7                     
G 6  21418077.954   114128172.433        -479.995          38.000  
G 5  21418074.355   114128093.585        -480.323          44.000  
G 3  21418304.626   114129306.276        -480.300          48.000  
G 9  21372614.224   113889209.058        -480.468          31.000  
G 4  21418306.908   114129316.559        -480.310          47.000  
G18  21511801.579   114620659.182        -480.753          31.000  
G 1  21418314.231   114129356.146        -480.270          39.000  
> 2019  6 16  1 26 14.0000000  0  7                     
G 6  21418169.407   114128652.712        -479.612          37.000  
G 5  21418165.964   114128573.877        -480.203          44.000  
G 3  21418396.154   114129786.559        -480.211          48.000  
G 9  21372705.728   113889689.379        -481.184          31.000  
G 4  21418398.386   114129796.853        -480.376          47.000  
G18  21511893.154   114621139.464        -480.150          31.000  
G 1  21418405.796   114129836.426        -480.183          39.000  
> 2019  6 16  1 26 15.0000000  0  7                     
G 6  21418260.798   114129132.878        -479.657          37.000  
G 5  21418257.395   114129054.016        -480.067          45.000  
G 3  21418487.612   114130266.720        -480.175          48.000  
G 9  21372797.203   113890169.538        -481.375          31.000  
G 4  21418490.033   114130277.008        -480.178          47.000  
G18  21511984.536   114621619.598        -479.543          32.000  
G 1  21418497.358   114130316.601        -480.070          39.000  
> 2019  6 16  1 26 16.0000000  0  7                     
G 6  21418352.272   114129613.168        -480.155          38.000  
G 5  21418348.834   114129534.313        -480.443          44.000  
G 3  21418579.016   114130747.005        -480.533          48.000  
G 9  21372888.756   113890649.814        -481.281          31.000  
G 4  21418581.611   114130757.300        -480.507          47.000  
G18  21512076.054   114622099.900        -480.687          32.000  
G 1  21418588.814   114130796.882        -480.261          39.000  
> 2019  6 16  1 26 17.0000000  0  7                     
G 6  21418443.871   114130093.431        -479.751          38.000  
G 5  21418440.366   114130014.564        -480.037          44.000  
G 3  21418670.445   114131227.260        -480.107          48.000  
G 9  21372980.276   113891130.047        -480.400          31.000  
G 4  21418672.958   114131237.551        -480.078          47.000  
G18  21512167.475   114622580.140        -479.915          32.000  
G 1  21418680.212   114131277.129        -479.918          39.000  
> 2019  6 16  1 26 18.0000000  0  7                     
G 6  21418535.211   114130573.566        -479.795          39.000  
G 5  21418531.911   114130494.715        -480.269          44.000  
G 3  21418761.926   114131707.409        -480.310          48.000  
G 9  21373071.665   113891610.207        -480.571          31.000  
G 4  21418764.504   114131717.698        -480.231          48.000  
G18  21512258.887   114623060.302        -480.184          32.000  
G 1  21418771.732   114131757.290        -480.286          39.000  
> 2019  6 16  1 26 19.0000000  0  7                     
G 6  21418626.658   114131053.704        -480.027          39.000  
G 5  21418623.312   114130974.852        -480.336          44.000  
G 3  21418853.398   114132187.543        -480.220          48.000  
G 9  21373163.044   113892090.358        -480.637          31.000  
G 4  21418855.998   114132197.838        -480.190          47.000  
G18  21512350.255   114623540.465        -480.437          32.000  
G 1  21418863.201   114132237.429        -480.283          39.000  
> 2019  6 16  1 26 20.0000000  0  7                     
G 6  21418718.076   114131533.710        -479.980          39.000  
G 5  21418714.719   114131454.849        -480.121          44.000  
G 3  21418944.800   114132667.542        -480.059          48.000  
G 9  21373254.387   113892570.345        -480.115          31.000  
G 4  21418947.452   114132677.838        -480.061          47.000  
G18  21512441.651   114624020.449        -480.353          32.000  
G 1  21418954.549   114132717.422        -480.145          39.000  
> 2019  6 16  1 26 21.0000000  0  7                     
G 6  21418809.529   114132013.767        -480.219          39.000  
G 5  21418806.096   114131934.905        -480.157          44.000  
G 3  21419036.280   114133147.598        -480.082          48.000  
G 9  21373345.698   113893050.366        -479.843          31.000  
G 4  21419038.864   114133157.890        -480.137          47.000  
G18  21512533.141   114624500.495        -480.090          32.000  
G 1  21419045.967   114133197.482        -480.201          39.000  
> 2019  6 16  1 26 22.0000000  0  7                     
G 6  21418900.967   114132493.930        -479.973          39.000  
G 5  21418897.461   114132415.063        -480.095          44.000  
G 3  21419127.750   114133627.750        -479.988          48.000  
G 9  21373437.056   113893530.556        -480.026          31.000  
G 4  21419130.157   114133638.045        -480.032          47.000  
G18  21512624.658   114624980.654        -480.151          32.000  
G 1  21419137.494   114133677.644        -480.149          39.000  
> 2019  6 16  1 26 23.0000000  0  7                     
G 6  21418992.402   114132974.158        -479.995          38.000  
G 5  21418989.011   114132895.300        -480.210          45.000  
G 3  21419219.281   114134108.001        -480.085          48.000  
G 9  21373528.498   113894010.800        -480.284          31.000  
G 4  21419221.715   114134118.294        -480.138          47.000  
G18  21512716.079   114625460.896        -479.950          33.000  
G 1  21419228.955   114134157.881        -480.333          39.000  
> 2019  6 16  1 26 24.0000000  0  7                     
G 6  21419083.828   114133454.427        -480.588          38.000  
G 5  21419080.573   114133375.558        -480.389          45.000  
G 3  21419310.769   114134588.260        -480.305          48.000  
G 9  21373619.863   113894491.044        -480.212          31.000  
G 4  21419313.277   114134598.555        -480.388          47.000  
G18  21512807.502   114625941.125        -480.112          33.000  
G 1  21419320.491   114134638.155        -480.381          39.000  
> 2019  6 16  1 26 25.0000000  0  7                     
G 6  21419175.320   114133934.761        -480.282          39.000  
G 5  21419172.155   114133855.903        -480.480          44.000  
G 3  21419402.229   114135068.582        -480.220          48.000  
G 9  21373711.375   113894971.374        -480.256          31.000  
G 4  21419404.798   114135078.879        -480.435          47.000  
G18  21512899.025   114626421.498        -480.431          32.000  
G 1  21419412.091   114135118.483        -480.487          39.000  
> 2019  6 16  1 26 26.0000000  0  7                     
G 6  21419266.790   114134415.113        -480.342          38.000  
G 5  21419263.614   114134336.250        -480.216          44.000  
G 3  21419493.759   114135548.939        -480.231          48.000  
G 9  21373802.951   113895451.746        -480.092          31.000  
G 4  21419496.166   114135559.231        -480.251          47.000  
G18  21512990.653   114626901.815        -479.879          32.000  
G 1  21419503.581   114135598.839        -480.468          39.000  
> 2019  6 16  1 26 27.0000000  0  7                     
G 6  21419358.292   114134895.320        -480.000          39.000  
G 5  21419355.195   114134816.469        -480.332          45.000  
G 3  21419585.250   114136029.168        -480.396          48.000  
G 9  21373894.367   113895931.934        -479.985          31.000  
G 4  21419587.518   114136039.445        -479.810          47.000  
G18  21513082.036   114627382.080        -481.012          33.000  
G 1  21419595.063   114136079.059        -480.742          39.000  
> 2019  6 16  1 26 28.0000000  0  7                     
G 6  21419449.809   114135375.488        -480.001          39.000  
G 5  21419446.659   114135296.650        -480.015          45.000  
G 3  21419676.700   114136509.339        -480.033          47.000  
G 9  21373985.900   113896412.136        -480.193          31.000  
G 4  21419678.994   114136519.621        -480.083          47.000  
G18  21513173.538   114627862.229        -480.150          33.000  
G 1  21419686.587   114136559.223        -480.392          39.000  
> 2019  6 16  1 26 29.0000000  0  7                     
G 6  21419541.229   114135855.654        -480.342          39.000  
G 5  21419538.080   114135776.798        -480.104          44.000  
G 3  21419768.205   114136989.483        -480.094          48.000  
G 9  21374077.216   113896892.262        -479.769          31.000  
G 4  21419770.424   114136999.772        -480.060          47.000  
G18  21513265.038   114628342.372        -480.278          33.000  
G 1  21419777.967   114137039.374        -480.414          39.000  
> 2019  6 16  1 26 30.0000000  0  7                     
G 6  21419632.553   114136335.682        -480.146          38.000  
G 5  21419629.602   114136256.825        -479.980          45.000  
G 3  21419859.726   114137469.505        -480.039          48.000  
G 9  21374168.566   113897372.282        -479.916          31.000  
G 4  21419861.821   114137479.791        -480.084          47.000  
G18  21513356.567   114628822.383        -480.045          32.000  
G 1  21419869.261   114137519.394        -480.399          39.000  
> 2019  6 16  1 26 31.0000000  0  7                     
G 6  21419723.967   114136815.747        -480.195          38.000  
G 5  21419721.042   114136736.876        -480.162          45.000  
G 3  21419951.134   114137949.565        -480.162          47.000  
G 9  21374259.937   113897852.332        -479.689          31.000  
G 4  21419953.389   114137959.862        -480.162          47.000  
G18  21513447.975   114629302.461        -480.529          32.000  
G 1  21419960.512   114137999.471        -480.439          39.000  
> 2019  6 16  1 26 32.0000000  0  7                     
G 6  21419815.297   114137295.763        -480.221          39.000  
G 5  21419812.464   114137216.907        -479.932          44.000  
G 3  21420042.525   114138429.602        -480.105          47.000  
G 9  21374351.286   113898332.363        -479.849          31.000  
G 4  21420044.760   114138439.900        -480.298          47.000  
G18  21513539.466   114629782.511        -480.441          32.000  
G 1  21420051.828   114138479.497        -480.222          39.000  
> 2019  6 16  1 26 33.0000000  0  7                     
G 6  21419906.827   114137775.828        -479.946          39.000  
G 5  21419903.874   114137696.973        -480.138          45.000  
G 3  21420134.022   114138909.669        -480.184          47.000  
G 9  21374442.692   113898812.421        -479.833          31.000  
G 4  21420136.191   114138919.955        -480.120          46.000  
G18  21513630.938   114630262.572        -480.311          32.000  
G 1  21420143.286   114138959.568        -480.551          39.000  
> 2019  6 16  1 26 34.0000000  0  7                     
G 6  21419998.383   114138256.058        -480.118          39.000  
G 5  21419995.328   114138177.192        -480.250          45.000  
G 3  21420225.479   114139389.893        -480.300          48.000  
G 9  21374534.179   113899292.681        -480.612          31.000  
G 4  21420227.534   114139400.195        -480.443          46.000  
G18  21513722.438   114630742.798        -480.455          32.000  
G 1  21420234.845   114139439.784        -480.328          39.000  
> 2019  6 16  1 26 35.0000000  0  8                     
G 6  21420090.089   114138736.290        -479.900          38.000  
G 5  21420086.798   114138657.429        -480.364          44.000  
G 2  21474245.544   114423341.5582       -480.493          31.000  
G 3  21420316.944   114139870.135        -480.270          47.000  
G 9  21374625.721   113899772.881        -480.225          31.000  
G 4  21420318.995   114139880.419        -480.349          47.000  
G18  21513813.895   114631223.093        -481.187          32.000  
G 1  21420326.349   114139920.007        -480.209          39.000  
> 2019  6 16  1 26 36.0000000  0  8                     
G 6  21420181.616   114139216.543        -480.399          38.000  
G 5  21420178.152   114139137.684        -480.480          44.000  
G 2  21474337.315   114423821.7862       -481.312          31.000  
G 3  21420408.455   114140350.371        -480.393          47.000  
G 9  21374717.207   113900253.147        -480.165          31.000  
G 4  21420410.470   114140360.668        -480.480          46.000  
G18  21513905.283   114631703.277        -480.760          32.000  
G 1  21420417.771   114140400.256        -480.354          39.000  
> 2019  6 16  1 26 37.0000000  0  8                     
G 6  21420273.224   114139696.832        -480.516          39.000  
G 5  21420269.746   114139617.956        -480.311          44.000  
G 2  21474428.761   114424302.0722       -480.901          32.000  
G 3  21420499.904   114140830.640        -480.310          48.000  
G 9  21374808.695   113900733.420        -480.380          31.000  
G 4  21420501.908   114140840.933        -480.389          46.000  
G18  21513996.785   114632183.525        -479.817          32.000  
G 1  21420509.277   114140880.522        -480.177          39.000  
> 2019  6 16  1 26 38.0000000  0  8                     
G 6  21420364.689   114140177.123        -480.615          39.000  
G 5  21420361.202   114140098.261        -480.439          45.000  
G 2  21474519.828   114424781.8591       -480.925          31.000  
G 3  21420591.479   114141310.946        -480.288          48.000  
G 9  21374900.178   113901213.724        -480.339          31.000  
G 4  21420593.528   114141321.245        -480.477          47.000  
G18  21514088.377   114632663.845        -480.248          33.000  
G 1  21420600.710   114141360.825        -480.096          39.000  
> 2019  6 16  1 26 39.0000000  0  8                     
G 6  21420456.175   114140657.396        -480.653          38.000  
G 5  21420452.742   114140578.521        -480.231          45.000  
G 2  21474611.494   114425264.6593       -481.165          31.000  
G 3  21420682.998   114141791.215        -480.300          47.000  
G 9  21374991.672   113901693.980        -480.232          31.000  
G 4  21420685.032   114141801.508        -480.442          46.000  
G18  21514180.031   114633144.093        -479.597          32.000  
G 1  21420692.156   114141841.101        -480.240          39.000  
> 2019  6 16  1 26 40.0000000  0  8                     
G 6  21420547.556   114141137.623        -480.566          39.000  
G 5  21420544.188   114141058.750        -480.383          45.000  
G 2  21474702.682   114425744.8592       -481.252          31.000  
G 3  21420774.471   114142271.444        -480.436          48.000  
G 9  21375083.210   113902174.226        -480.303          32.000  
G 4  21420776.595   114142281.737        -480.471          47.000  
G18  21514271.427   114633624.341        -480.330          33.000  
G 1  21420783.681   114142321.340        -480.472          39.000  
> 2019  6 16  1 26 41.0000000  0  8                     
G 6  21420638.982   114141617.894        -480.179          39.000  
G 5  21420635.591   114141539.033        -480.199          44.000  
G 2  21474793.914   114426225.1422       -481.270          31.000  
G 3  21420865.880   114142751.725        -480.211          48.000  
G 9  21375174.694   113902654.484        -479.941          31.000  
G 4  21420867.994   114142762.022        -480.240          47.000  
G18  21514362.837   114634104.613        -479.980          32.000  
G 1  21420875.250   114142801.617        -480.262          39.000  
> 2019  6 16  1 26 42.0000000  0  8                     
G 6  21420730.555   114142098.186        -480.537          39.000  
G 5  21420727.156   114142019.312        -480.409          45.000  
G 2  21474885.333   114426705.4192       -481.060          31.000  
G 3  21420957.379   114143232.002        -480.444          48.000  
G 9  21375266.121   113903134.792        -480.336          31.000  
G 4  21420959.518   114143242.293        -480.470          46.000  
G18  21514454.394   114634584.881        -480.343          33.000  
G 1  21420966.896   114143281.887        -480.267          39.000  
> 2019  6 16  1 26 43.0000000  0  8                     
G 6  21420822.048   114142578.444        -480.387          39.000  
G 5  21420818.690   114142499.577        -480.421          44.000  
G 2  21474976.889   114427185.1831       -481.058          31.000  
G 3  21421048.878   114143712.272        -480.502          47.000  
G 9  21375357.601   113903615.064        -480.784          31.000  
G 4  21421051.047   114143722.560        -480.416          46.000  
G18  21514545.808   114635065.143        -480.265          32.000  
G 1  21421058.360   114143762.150        -480.293          39.000  
> 2019  6 16  1 26 44.0000000  0  8                     
G 6  21420913.403   114143058.833        -480.845          39.000  
G 5  21420910.189   114142979.935        -480.408          45.000  
G 2  21475068.171   114427665.559        -481.029          31.000  
G 3  21421140.366   114144192.633        -480.516          48.000  
G 9  21375449.099   113904095.453        -481.266          31.000  
G 4  21421142.392   114144202.932        -480.541          47.000  
G18  21514637.272   114635545.526        -480.171          32.000  
G 1  21421149.826   114144242.518        -480.515          39.000  
> 2019  6 16  1 26 45.0000000  0  8                     
G 6  21421004.963   114143539.283        -480.818          39.000  
G 5  21421001.641   114143460.394        -480.339          45.000  
G 2  21475159.615   114428146.001        -480.681          31.000  
G 3  21421231.889   114144673.094        -480.487          48.000  
G 9  21375540.615   113904575.896        -481.320          31.000  
G 4  21421233.869   114144683.386        -480.580          46.000  
G18  21514728.690   114636025.941        -479.579          32.000  
G 1  21421241.242   114144722.964        -480.419          39.000  
> 2019  6 16  1 26 46.0000000  0  8                     
G 6  21421096.530   114144019.680        -480.479          39.000  
G 5  21421093.190   114143940.806        -480.425          45.000  
G 2  21475251.046   114428626.368        -479.972          31.000  
G 3  21421323.346   114145153.493        -480.256          47.000  
G 9  21375632.086   113905056.318        -481.089          31.000  
G 4  21421325.344   114145163.793        -480.459          47.000  
G18  21514820.237   114636506.353        -479.484          32.000  
G 1  21421332.724   114145203.378        -480.133          39.000  
> 2019  6 16  1 26 47.0000000  0  8                     
G 6  21421188.047   114144500.074        -480.845          39.000  
G 5  21421184.721   114144421.189        -480.509          44.000  
G 2  21475342.452   114429106.741        -479.666          31.000  
G 3  21421414.835   114145633.895        -480.535          47.000  
G 9  21375723.661   113905536.701        -481.638          31.000  
G 4  21421417.026   114145644.185        -480.569          47.000  
G18  21514911.731   114636986.755        -480.074          32.000  
G 1  21421424.229   114145683.780        -480.698          39.000  
> 2019  6 16  1 26 48.0000000  0  8                     
G 6  21421279.569   114144980.512        -480.823          39.000  
G 5  21421276.245   114144901.629        -480.582          45.000  
G 2  21475433.753   114429587.186        -480.004          31.000  
G 3  21421506.341   114146114.321        -480.483          47.000  
G 9  21375815.232   113906017.151        -481.416          31.000  
G 4  21421508.480   114146124.611        -480.510          46.000  
G18  21515003.216   114637467.172        -479.956          32.000  
G 1  21421515.780   114146164.206        -480.541          39.000  
> 2019  6 16  1 26 49.0000000  0  8                     
G 6  21421371.076   114145460.931        -480.631          39.000  
G 5  21421367.688   114145382.050        -480.323          44.000  
G 2  21475525.262   114430067.654        -479.947          31.000  
G 3  21421597.843   114146594.746        -480.300          48.000  
G 9  21375906.734   113906497.562        -480.813          31.000  
G 4  21421599.965   114146605.036        -480.314          46.000  
G18  21515094.824   114637947.605        -479.535          32.000  
G 1  21421607.335   114146644.623        -480.189          39.000  
> 2019  6 16  1 26 50.0000000  0  8                     
G 6  21421462.639   114145941.374        -480.338          39.000  
G 5  21421459.264   114145862.501        -480.240          44.000  
G 2  21475616.766   114430548.098        -480.209          30.000  
G 3  21421689.387   114147075.195        -480.198          47.000  
G 9  21375998.222   113906978.019        -481.019          31.000  
G 4  21421691.361   114147085.487        -480.256          46.000  
G18  21515186.493                        -477.197          31.000  
G 1  21421698.953   114147125.091        -480.284          39.000  
> 2019  6 16  1 26 51.0000000  0  8                     
G 6  21421554.141   114146421.814        -480.703          39.000  
G 5  21421550.764   114146342.928        -480.577          44.000  
G 2  21475708.325   114431028.538        -480.715          30.000  
G 3  21421780.907   114147555.628        -480.482          47.000  
G 9  21376089.758   113907458.422        -480.826          31.000  
G 4  21421782.907   114147565.918        -480.518          47.000  
G18  21515277.994   114638968.5073       -480.474          31.000  
G 1  21421790.611   114147605.521        -480.592          39.000  
> 2019  6 16  1 26 52.0000000  0  7                     
G 6  21421645.600   114146902.174        -480.415          39.000  
G 5  21421642.172   114146823.292        -480.370          44.000  
G 3  21421872.409   114148035.992        -480.327          47.000  
G 9  21376181.194   113907938.811        -480.728          31.000  
G 4  21421874.298   114148046.280        -480.157          47.000  
G18  21515369.390   114639448.8863       -480.804          32.000  
G 1  21421882.066   114148085.882        -480.308          39.000  
> 2019  6 16  1 26 53.0000000  0  7                     
G 6  21421737.115   114147382.645        -480.750          39.000  
G 5  21421733.704   114147303.772        -480.590          44.000  
G 3  21421963.912   114148516.467        -480.552          47.000  
G 9  21376272.694   113908419.274        -480.627          31.000  
G 4  21421965.946   114148526.755        -480.498          46.000  
G18  21515460.922   114639929.3512       -480.426          31.000  
G 1  21421973.604   114148566.359        -480.687          39.000  
> 2019  6 16  1 26 54.0000000  0  8                     
G 6  21421828.702   114147863.138        -480.493          39.000  
G 5  21421825.226   114147784.280        -480.505          44.000  
G 2  21475982.778   114432469.8461       -480.260          31.000  
G 3  21422055.475   114148996.973        -480.454          47.000  
G 9  21376364.178   113908899.792        -480.892          31.000  
G 4  21422057.525   114149007.259        -480.372          47.000  
G18  21515552.545   114640409.8512       -480.431          31.000  
G 1  21422065.063   114149046.867        -480.485          39.000  
> 2019  6 16  1 26 55.0000000  0  8                     
G 6  21421920.207   114148343.726        -480.693          39.000  
G 5  21421916.816   114148264.868        -480.605          44.000  
G 2  21476074.210   114432950.440        -480.551          32.000  
G 3  21422147.059   114149477.562        -480.656          47.000  
G 9  21376455.765   113909380.361        -480.751          30.000  
G 4  21422149.267   114149487.848        -480.581          46.000  
G18  21515644.169   114640890.454        -480.796          32.000  
G 1  21422156.667   114149527.454        -480.646          39.000  
> 2019  6 16  1 26 56.0000000  0  8                     
G 6  21422011.772   114148824.487        -480.929          39.000  
G 5  21422008.368   114148745.617        -480.707          45.000  
G 2  21476165.593   114433431.176        -480.503          32.000  
G 3  21422238.630   114149958.309        -480.797          47.000  
G 9  21376547.499   113909861.142        -481.086          31.000  
G 4  21422240.870   114149968.595        -480.662          46.000  
G18  21515735.804   114641374.1893       -480.725          33.000  
G 1  21422248.315   114150008.200        -480.627          39.000  
> 2019  6 16  1 26 57.0000000  0  8                     
G 6  21422103.236   114149305.090        -480.586          39.000  
G 5  21422099.952   114149226.228        -480.637          44.000  
G 2  21476257.047   114433911.776        -479.863          32.000  
G 3  21422330.206   114150438.923        -480.651          47.000  
G 9  21376639.000   113910341.746        -480.814          31.000  
G 4  21422332.411   114150449.208        -480.579          46.000  
G18  21515827.453   114641854.8032       -480.607          33.000  
G 1  21422339.893   114150488.812        -480.579          39.000  
> 2019  6 16  1 26 58.0000000  0  8                     
G 6  21422194.820   114149785.695        -480.691          39.000  
G 5  21422191.521   114149706.814        -480.754          44.000  
G 2  21476348.665   114434392.380        -479.951          32.000  
G 3  21422421.774   114150919.513        -480.586          47.000  
G 9  21376730.506   113910822.340        -480.820          31.000  
G 4  21422423.867   114150929.791        -480.474          46.000  
G18  21515918.991   114642335.4192       -481.299          32.000  
G 1  21422431.340   114150969.388        -480.325          39.000  
> 2019  6 16  1 26 59.0000000  0  8                     
G 6  21422286.364   114150266.352        -480.475          38.000  
G 5  21422283.028   114150187.472        -480.645          45.000  
G 2  21476440.286   114434873.058        -480.868          31.000  
G 3  21422513.359   114151400.171        -480.643          47.000  
G 9  21376822.223   113911302.998        -480.669          31.000  
G 4  21422515.335   114151410.460        -480.619          46.000  
G18  21516010.650   114642819.0793       -481.168          32.000  
G 1  21422522.916   114151450.057        -480.483          39.000  
> 2019  6 16  1 27  0.0000000  0  8                     
G 6  21422377.966   114150747.034        -481.176          39.000  
G 5  21422374.739   114150668.142        -481.091          44.000  
G 2  21476531.836   114435353.733        -481.329          31.000  
G 3  21422604.905   114151880.819        -480.941          47.000  
G 9  21376913.933   113911783.634        -481.099          31.000  
G 4  21422606.912   114151891.109        -481.046          46.000  
G18  21516102.122   114643299.7352       -481.722          32.000  
G 1  21422614.326   114151930.679        -480.723          39.000  
> 2019  6 16  1 27  1.0000000  0  8                     
G 6  21422469.731   114151227.569        -480.580          38.000  
G 5  21422466.271   114151148.699        -480.420          45.000  
G 2  21476623.304   114435834.277        -481.003          31.000  
G 3  21422696.413   114152361.392        -480.956          47.000  
G 9  21377005.618   113912264.189        -480.278          31.000  
G 4  21422698.301   114152371.669        -480.547          46.000  
G18  21516193.622   114643780.308        -481.403          31.000  
G 1  21422705.861   114152411.289        -480.729          38.000  
> 2019  6 16  1 27  2.0000000  0  7                     
G 6  21422561.307   114151708.189        -480.488          39.000  
G 5  21422557.788   114151629.330        -480.396          44.000  
G 3  21422787.961   114152842.026        -480.446          47.000  
G 9  21377097.304   113912744.818        -479.996          31.000  
G 4  21422789.846   114152852.309        -480.249          46.000  
G18  21516285.204   114644260.935        -480.891          32.000  
G 1  21422797.494   114152891.924        -480.400          39.000  
> 2019  6 16  1 27  3.0000000  0  8                     
G 6  21422652.567   114152188.669        -480.552          39.000  
G 5  21422649.407   114152109.809        -480.709          45.000  
G 2  21476807.678   114436805.8683       -480.168          31.000  
G 3  21422879.502   114153322.486        -480.415          47.000  
G 9  21377188.807   113913225.298        -480.521          31.000  
G 4  21422881.508   114153332.779        -480.419          46.000  
G18  21516376.734   114644741.418        -481.421          33.000  
G 1  21422888.944   114153372.374        -480.515          38.000  
> 2019  6 16  1 27  4.0000000  0  8                     
G 6  21422744.021   114152669.305        -480.602          38.000  
G 5  21422740.899   114152590.460        -480.914          45.000  
G 2  21476897.597   114437286.5342       -481.138          31.000  
G 3  21422971.114   114153803.151        -480.841          47.000  
G 9  21377280.543   113913705.962        -480.996          31.000  
G 4  21422973.185   114153813.444        -480.800          46.000  
G18  21516468.275   114645223.0443       -481.156          33.000  
G 1  21422980.463   114153853.042        -480.930          38.000  
> 2019  6 16  1 27  5.0000000  0  8                     
G 6  21422835.446   114153150.000        -480.903          38.000  
G 5  21422832.376   114153071.142        -480.911          44.000  
G 2  21476988.679   114437767.2072       -480.549          32.000  
G 3  21423062.721   114154283.823        -480.828          47.000  
G 9  21377371.988   113914186.640        -481.282          31.000  
G 4  21423064.893   114154294.112        -480.771          46.000  
G18  21516559.833   114645704.7243       -481.328          32.000  
G 1  21423072.027   114154333.705        -480.824          39.000  
> 2019  6 16  1 27  6.0000000  0  8                     
G 6  21422926.870   114153630.674        -480.823          38.000  
G 5  21422924.049   114153551.815        -480.782          44.000  
G 2  21477081.710   114438247.8662       -480.381          31.000  
G 3  21423154.310   114154764.502        -480.625          46.000  
G 9  21377463.552   113914667.320        -481.085          31.000  
G 4  21423156.367   114154774.801        -480.833          46.000  
G18  21516651.474   114646185.4112       -480.968          32.000  
G 1  21423163.439   114154814.389        -480.879          39.000  
> 2019  6 16  1 27  7.0000000  0  8                     
G 6  21423018.338   114154111.375        -480.889          38.000  
G 5  21423015.590   114154032.523        -480.829          44.000  
G 2  21477172.833   114438728.0631       -480.543          31.000  
G 3  21423245.950   114155245.208        -480.797          46.000  
G 9  21377554.983   113915148.013        -480.914          31.000  
G 4  21423247.819   114155255.495        -480.808          46.000  
G18  21516742.938   114646666.096        -480.927          33.000  
G 1  21423254.895   114155295.071        -480.656          39.000  
> 2019  6 16  1 27  8.0000000  0  8                     
G 6  21423109.859   114154592.017        -480.620          39.000  
G 5  21423107.105   114154513.159        -480.641          44.000  
G 2  21477264.051   114439208.723        -480.911          31.000  
G 3  21423337.441   114155725.841        -480.590          46.000  
G 9  21377646.512   113915628.642        -480.875          31.000  
G 4  21423339.318   114155736.125        -480.626          46.000  
G18  21516834.514   114647146.729        -480.688          33.000  
G 1  21423346.378   114155775.704        -480.566          39.000  
> 2019  6 16  1 27  9.0000000  0  8                     
G 6  21423201.323   114155072.491        -480.262          38.000  
G 5  21423198.572   114154993.632        -480.204          44.000  
G 2  21477355.960   114439689.184        -480.137          31.000  
G 3  21423428.868   114156206.318        -480.236          47.000  
G 9  21377738.003   113916109.130        -480.477          31.000  
G 4  21423430.881   114156216.601        -480.254          46.000  
G18  21516926.106   114647627.222        -480.410          32.000  
G 1  21423437.823   114156256.187        -480.270          39.000  
> 2019  6 16  1 27 10.0000000  0  8                     
G 6  21423292.776   114155552.957        -480.450          38.000  
G 5  21423290.042   114155474.114        -480.498          44.000  
G 2  21477447.561   114440169.707        -481.125          30.000  
G 3  21423520.364   114156686.796        -480.513          47.000  
G 9  21377829.551   113916589.579        -479.814          31.000  
G 4  21423522.444   114156697.088        -480.586          46.000  
G18  21517017.663   114648107.687        -480.375          32.000  
G 1  21423529.341   114156736.675        -480.594          39.000  
> 2019  6 16  1 27 11.0000000  0  8                     
G 6  21423384.225   114156033.375        -480.154          39.000  
G 5  21423381.589   114155954.554        -480.432          44.000  
G 2  21477539.180   114440649.6613       -481.041          31.000  
G 3  21423611.929   114157167.241        -480.384          46.000  
G 9  21377921.057   113917069.991        -479.546          30.000  
G 4  21423613.932   114157177.517        -480.419          46.000  
G18  21517109.092   114648591.1233       -480.131          32.000  
G 1  21423620.814   114157217.113        -480.439          39.000  
> 2019  6 16  1 27 12.0000000  0  8                     
G 6  21423475.698   114156513.811        -479.965          38.000  
G 5  21423473.142   114156434.965        -480.363          44.000  
G 2  21477630.744   114441130.0392       -480.416          31.000  
G 3  21423703.461   114157647.666        -480.398          47.000  
G 9  21378012.488   113917550.429        -479.424          30.000  
G 4  21423705.367   114157657.946        -480.358          46.000  
G18  21517200.679   114649071.5312       -480.372          32.000  
G 1  21423712.319   114157697.538        -480.342          39.000  
> 2019  6 16  1 27 13.0000000  0  8                     
G 6  21423567.158   114156994.362        -480.231          38.000  
G 5  21423564.788   114156915.520        -480.591          44.000  
G 2  21477722.212   114441610.0991       -480.917          31.000  
G 3  21423795.049   114158128.210        -480.653          47.000  
G 9  21378103.926   113918031.003        -480.032          31.000  
G 4  21423796.868   114158138.508        -480.674          46.000  
G18  21517292.300   114649552.081        -480.449          32.000  
G 1  21423803.999   114158178.100        -480.544          39.000  
> 2019  6 16  1 27 14.0000000  0  8                     
G 6  21423658.625   114157474.813        -480.055          38.000  
G 5  21423656.242   114157395.978        -480.411          44.000  
G 2  21477813.592   114442090.539        -480.579          31.000  
G 3  21423886.600   114158608.678        -480.485          47.000  
G 9  21378195.358   113918511.461        -479.926          31.000  
G 4  21423888.401   114158618.975        -480.511          46.000  
G18  21517383.849   114650032.545        -480.337          33.000  
G 1  21423895.494   114158658.558        -480.492          39.000  
> 2019  6 16  1 27 15.0000000  0  8                     
G 6  21423750.119   114157955.334        -480.178          38.000  
G 5  21423747.820   114157876.495        -480.500          44.000  
G 2  21477905.020   114442571.045        -480.973          31.000  
G 3  21423978.159   114159089.191        -480.587          47.000  
G 9  21378286.814   113918991.966        -480.071          31.000  
G 4  21423980.027   114159099.486        -480.631          46.000  
G18  21517475.478   114650513.027        -480.333          33.000  
G 1  21423987.071   114159139.078        -480.746          39.000  
> 2019  6 16  1 27 16.0000000  0  8                     
G 6  21423841.576   114158435.843        -480.455          38.000  
G 5  21423839.181   114158357.000        -480.425          45.000  
G 2  21477996.317   114443051.530        -480.135          32.000  
G 3  21424069.732   114159569.697        -480.592          47.000  
G 9  21378378.323   113919472.478        -480.046          31.000  
G 4  21424071.515   114159579.983        -480.538          46.000  
G18  21517566.933   114650993.567        -480.384          33.000  
G 1  21424078.579   114159619.577        -480.743          39.000  
> 2019  6 16  1 27 17.0000000  0  8                     
G 6  21423933.056   114158916.458        -480.808          38.000  
G 5  21423930.737   114158837.590        -480.769          45.000  
G 2  21478087.917   114443532.165        -481.050          31.000  
G 3  21424161.274   114160050.296        -480.990          47.000  
G 9  21378469.911   113919953.055        -479.843          31.000  
G 4  21424163.075   114160060.588        -480.857          46.000  
G18  21517658.526   114651474.168        -480.579          32.000  
G 1  21424170.211   114160100.179        -480.939          39.000  
> 2019  6 16  1 27 18.0000000  0  8                     
G 6  21424024.694   114159397.091        -480.687          38.000  
G 5  21424022.348   114159318.227        -480.667          44.000  
G 2  21478179.499   114444012.780        -480.594          31.000  
G 3  21424252.727   114160530.928        -480.797          47.000  
G 9  21378561.498   113920433.681        -479.358          30.000  
G 4  21424254.611   114160541.217        -480.699          46.000  
G18  21517750.101   114651954.810        -480.808          32.000  
G 1  21424261.845   114160580.818        -480.834          39.000  
> 2019  6 16  1 27 19.0000000  0  8                     
G 6  21424116.282   114159877.654        -480.735          38.000  
G 5  21424113.987   114159798.786        -480.673          44.000  
G 2  21478271.093   114444495.8383       -480.280          30.000  
G 3  21424344.282   114161011.493        -480.958          47.000  
G 9  21378652.947   113920914.219        -479.545          31.000  
G 4  21424345.967   114161021.761        -480.677          46.000  
G18  21517841.626   114652440.3913       -481.398          32.000  
G 1  21424353.459   114161061.370        -480.720          39.000  
> 2019  6 16  1 27 20.0000000  0  8                     
G 6  21424207.819   114160358.078        -480.398          38.000  
G 5  21424205.439   114160279.221        -480.466          44.000  
G 2  21478362.616   114444976.3272       -480.975          31.000  
G 3  21424435.796   114161491.927        -480.605          47.000  
G 9  21378744.399   113921394.679        -479.885          31.000  
G 4  21424437.440   114161502.211        -480.542          46.000  
G18  21517933.164   114652920.8462       -481.208          32.000  
G 1  21424444.962   114161541.809        -480.524          39.000  
> 2019  6 16  1 27 21.0000000  0  8                     
G 6  21424299.348   114160838.469        -480.384          38.000  
G 5  21424296.891   114160759.606        -480.343          44.000  
G 2  21478454.058   114445456.6872       -480.420          31.000  
G 3  21424527.263   114161972.314        -480.508          46.000  
G 9  21378835.863   113921875.033        -479.249          31.000  
G 4  21424529.042   114161982.594        -480.396          46.000  
G18  21518024.737   114653403.2053       -480.386          32.000  
G 1  21424536.454   114162022.216        -480.446          39.000  
> 2019  6 16  1 27 22.0000000  0  8                     
G 6  21424390.881   114161318.783        -480.651          38.000  
G 5  21424388.397   114161239.923        -480.446          45.000  
G 2  21478545.315   114445937.0172       -480.671          31.000  
G 3  21424618.678   114162452.630        -480.482          47.000  
G 9  21378927.402   113922355.361        -479.309          32.000  
G 4  21424620.607   114162462.921        -480.405          47.000  
G18  21518116.226   114653883.5112       -480.491          33.000  
G 1  21424627.986   114162502.526        -480.576          39.000  
> 2019  6 16  1 27 23.0000000  0  8                     
G 6  21424482.227   114161798.964        -480.149          38.000  
G 5  21424479.817   114161720.108        -480.211          44.000  
G 2  21478636.697   114446417.1453       -479.707          30.000  
G 3  21424710.084   114162932.815        -480.289          46.000  
G 9  21379018.799   113922835.540        -479.460          31.000  
G 4  21424712.025   114162943.091        -480.145          45.000  
G18  21518207.683   114654363.6722       -479.894          33.000  
G 1  21424719.544   114162982.689        -480.116          39.000  
> 2019  6 16  1 27 24.0000000  0  8                     
G 6  21424573.686   114162279.136        -480.222          38.000  
G 5  21424571.162   114162200.287        -480.365          44.000  
G 2  21478728.192   114446897.3762       -480.288          30.000  
G 3  21424801.597   114163412.986        -480.304          47.000  
G 9  21379110.332   113923315.738        -480.175          31.000  
G 4  21424803.467   114163423.273        -480.347          45.000  
G18  21518299.232   114654843.8542       -480.074          32.000  
G 1  21424811.112   114163462.875        -480.249          40.000  
> 2019  6 16  1 27 25.0000000  0  8                     
G 6  21424664.989   114162759.375        -480.193          38.000  
G 5  21424662.603   114162680.508        -480.120          44.000  
G 2  21478819.665   114447377.0971       -480.596          31.000  
G 3  21424893.104   114163893.210        -480.111          47.000  
G 9  21379201.870   113923795.967        -479.740          30.000  
G 4  21424895.032   114163903.495        -480.161          45.000  
G18  21518390.638   114655324.101        -480.209          32.000  
G 1  21424902.741   114163943.107        -480.016          39.000  
> 2019  6 16  1 27 26.0000000  0  8                     
G 6  21424756.478   114163239.634        -480.411          38.000  
G 5  21424754.109   114163160.760        -480.294          44.000  
G 2  21478911.089   114447857.334        -480.215          32.000  
G 3  21424984.670   114164373.463        -480.309          47.000  
G 9  21379293.272   113924276.262        -480.428          31.000  
G 4  21424986.421   114164383.751        -480.331          45.000  
G18  21518482.063   114655804.378        -480.681          32.000  
G 1  21424994.362   114164423.335        -480.060          40.000  
> 2019  6 16  1 27 27.0000000  0  8                     
G 6  21424847.942   114163719.920        -480.380          38.000  
G 5  21424845.644   114163641.046        -480.367          44.000  
G 2  21479002.578   114448337.595        -480.004          31.000  
G 3  21425076.196   114164853.748        -480.314          47.000  
G 9  21379384.598   113924756.535        -480.382          31.000  
G 4  21425077.923   114164864.040        -480.300          45.000  
G18  21518573.479   114656284.668        -480.944          32.000  
G 1  21425085.870   114164903.639        -480.181          40.000  
> 2019  6 16  1 27 28.0000000  0  8                     
G 6  21424939.380   114164200.241        -480.522          38.000  
G 5  21424937.201   114164121.362        -480.448          45.000  
G 2  21479094.002   114448817.927        -480.336          31.000  
G 3  21425167.778   114165334.073        -480.332          47.000  
G 9  21379476.046   113925236.851        -480.015          30.000  
G 4  21425169.352   114165344.353        -480.396          45.000  
G18  21518664.820   114656764.968        -480.024          32.000  
G 1  21425177.318   114165383.964        -480.260          40.000  
> 2019  6 16  1 27 29.0000000  0  8                     
G 6  21425030.907   114164680.598        -480.424          38.000  
G 5  21425028.754   114164601.738        -480.380          45.000  
G 2  21479185.325   114449298.296        -480.248          31.000  
G 3  21425259.179   114165814.417        -480.245          47.000  
G 9  21379567.661   113925717.196        -479.883          31.000  
G 4  21425260.677   114165824.709        -480.330          45.000  
G18  21518756.357   114657245.327        -480.596          32.000  
G 1  21425268.793   114165864.307        -480.109          39.000  
> 2019  6 16  1 27 30.0000000  0  8                     
G 6  21425122.400   114165160.863        -480.710          39.000  
G 5  21425120.273   114165081.987        -480.424          44.000  
G 2  21479276.828   114449778.539        -479.454          31.000  
G 3  21425350.625   114166294.677        -480.348          47.000  
G 9  21379659.227   113926197.453        -480.594          31.000  
G 4  21425352.124   114166304.970        -480.417          45.000  
G18  21518847.834   114657725.597        -480.967          32.000  
G 1  21425360.263   114166344.579        -480.295          40.000  
> 2019  6 16  1 27 31.0000000  0  8                     
G 6  21425213.838   114165641.139        -480.415          39.000  
G 5  21425211.706   114165562.270        -480.261          44.000  
G 2  21479368.392   114450262.2953       -479.333          31.000  
G 3  21425442.073   114166774.962        -480.153          47.000  
G 9  21379750.721   113926677.729        -480.443          31.000  
G 4  21425443.798   114166785.253        -480.168          46.000  
G18  21518939.421   114658205.863        -480.297          32.000  
G 1  21425451.731   114166824.837        -480.001          39.000  
> 2019  6 16  1 27 32.0000000  0  8                     
G 6  21425305.337   114166159.3923       -480.161          38.000  
G 5  21425303.249   114166042.531        -480.187          44.000  
G 2  21479459.828   114450742.5712       -479.858          31.000  
G 3  21425533.498   114167255.219        -480.143          47.000  
G 9  21379842.134   113927158.000        -480.383          30.000  
G 4  21425535.313   114167265.519        -480.215          46.000  
G18  21519030.739   114658686.127        -480.206          32.000  
G 1  21425543.131   114167305.092        -480.000          39.000  
> 2019  6 16  1 27 33.0000000  0  8                     
G 6  21425396.907   114166639.6192       -480.262          38.000  
G 5  21425394.701   114166522.743        -480.145          44.000  
G 2  21479551.334   114451222.7802       -479.818          31.000  
G 3  21425624.958   114167735.437        -480.061          46.000  
G 9  21379933.492   113927638.211        -480.392          31.000  
G 4  21425626.868   114167745.733        -480.140          46.000  
G18  21519122.182   114659166.321        -479.816          32.000  
G 1  21425634.532   114167785.321        -479.890          39.000  
> 2019  6 16  1 27 34.0000000  0  8                     
G 6  21425488.410   114167119.8962       -480.266          38.000  
G 5  21425486.255   114167003.037        -480.225          44.000  
G 2  21479642.839   114451703.1092       -480.585          31.000  
G 3  21425716.490   114168215.730        -480.182          47.000  
G 9  21380025.044   113928118.522        -480.647          31.000  
G 4  21425718.334   114168226.024        -480.270          46.000  
G18  21519213.692   114659646.615        -479.982          33.000  
G 1  21425725.950   114168265.613        -480.128          39.000  
> 2019  6 16  1 27 35.0000000  0  8                     
G 6  21425579.925   114167600.1942       -480.396          39.000  
G 5  21425577.777   114167483.325        -480.292          44.000  
G 2  21479734.189   114452183.3712       -480.229          31.000  
G 3  21425808.045   114168696.019        -480.221          47.000  
G 9  21380116.529   113928598.759        -480.004          31.000  
G 4  21425809.799   114168706.287        -480.209          45.000  
G18  21519305.019   114660126.912        -480.031          32.000  
G 1  21425817.310   114168745.883        -480.096          39.000  
> 2019  6 16  1 27 36.0000000  0  8                     
G 6  21425671.529   114168080.4762       -480.554          38.000  
G 5  21425669.226   114167963.605        -480.515          44.000  
G 2  21479825.583   114452663.6112       -480.031          31.000  
G 3  21425899.493   114169176.294        -480.364          47.000  
G 9  21380208.269   113929079.085        -481.039          32.000  
G 4  21425901.380   114169186.572        -480.358          45.000  
G18  21519396.502   114660607.180        -480.129          33.000  
G 1  21425908.836   114169226.177        -480.496          39.000  
> 2019  6 16  1 27 37.0000000  0  8                     
G 6  21425763.051   114168563.7933       -480.795          38.000  
G 5  21425760.690   114168443.925        -480.546          44.000  
G 2  21479916.856   114453144.9303       -479.872          30.000  
G 3  21425990.869   114169656.605        -480.383          47.000  
G 9  21380299.816   113929559.378        -480.947          31.000  
G 4  21425992.957   114169666.883        -480.292          45.000  
G18  21519488.014   114661087.478        -480.258          32.000  
G 1  21426000.288   114169706.485        -480.520          39.000  
> 2019  6 16  1 27 38.0000000  0  8                     
G 6  21425854.759   114169044.0432       -480.316          38.000  
G 5  21425852.153   114168924.188        -480.383          44.000  
G 2  21480008.371   114453625.1722       -479.607          30.000  
G 3  21426082.372   114170136.864        -480.253          47.000  
G 9  21380391.349   113930039.640        -479.797          31.000  
G 4  21426084.393   114170147.149        -480.096          46.000  
G18  21519579.491   114661567.764        -480.308          32.000  
G 1  21426091.668   114170186.740        -480.211          39.000  
> 2019  6 16  1 27 39.0000000  0  8                     
G 6  21425946.328   114169524.3362       -480.408          38.000  
G 5  21425943.626   114169404.470        -480.380          45.000  
G 2  21480099.924   114454105.4912       -479.570          31.000  
G 3  21426173.962   114170617.140        -480.212          47.000  
G 9  21380482.837   113930519.912        -480.183          31.000  
G 4  21426175.875   114170627.427        -480.160          46.000  
G18  21519670.779   114662048.045        -480.165          32.000  
G 1  21426183.244   114170667.016        -480.173          39.000  
> 2019  6 16  1 27 40.0000000  0  8                     
G 6  21426037.967   114170004.6022       -480.465          39.000  
G 5  21426035.234   114169884.722        -480.360          44.000  
G 2  21480191.570   114454585.7772       -480.259          31.000  
G 3  21426265.526   114171097.412        -480.376          47.000  
G 9  21380574.319   113931000.173        -479.792          31.000  
G 4  21426267.305   114171107.697        -480.425          46.000  
G18  21519762.330   114662528.312        -480.371          32.000  
G 1  21426274.618   114171147.302        -480.587          39.000  
> 2019  6 16  1 27 41.0000000  0  8                     
G 6  21426129.568   114170484.9182       -480.515          38.000  
G 5  21426126.709   114170365.022        -480.338          45.000  
G 2  21480283.021   114455066.1152       -480.322          32.000  
G 3  21426356.997   114171577.719        -480.343          47.000  
G 9  21380665.855   113931480.493        -480.460          31.000  
G 4  21426358.749   114171588.006        -480.544          46.000  
G18  21519853.788   114663008.599        -479.547          32.000  
G 1  21426366.079   114171627.598        -480.599          40.000  
> 2019  6 16  1 27 42.0000000  0  8                     
G 6  21426221.207   114170965.2742       -480.415          39.000  
G 5  21426218.161   114170845.404        -480.328          44.000  
G 2  21480374.629   114455546.4682       -480.696          32.000  
G 3  21426448.464   114172058.092        -480.372          47.000  
G 9  21380757.270   113931960.889        -480.695          31.000  
G 4  21426450.134   114172068.372        -480.461          46.000  
G18  21519945.180   114663488.941        -479.213          32.000  
G 1  21426457.532   114172107.956        -480.150          40.000  
> 2019  6 16  1 27 43.0000000  0  8                     
G 6  21426312.701   114171445.572        -480.168          39.000  
G 5  21426309.788   114171325.713        -480.322          44.000  
G 2  21480466.192   114456026.3021       -480.671          32.000  
G 3  21426539.916   114172538.397        -480.311          47.000  
G 9  21380848.821   113932441.176        -480.834          31.000  
G 4  21426541.689   114172548.681        -480.405          45.000  
G18  21520036.728   114663969.229        -479.167          32.000  
G 1  21426548.977   114172588.255        -480.160          39.000  
> 2019  6 16  1 27 44.0000000  0  8                     
G 6  21426404.150   114171925.820        -480.172          39.000  
G 5  21426401.246   114171805.958        -480.376          45.000  
G 2  21480557.799   114456506.533        -480.459          31.000  
G 3  21426631.385   114173018.645        -480.436          47.000  
G 9  21380940.396   113932921.427        -480.981          31.000  
G 4  21426633.120   114173028.936        -480.443          45.000  
G18  21520128.293   114664449.525        -480.078          32.000  
G 1  21426640.338   114173068.511        -480.383          39.000  
> 2019  6 16  1 27 45.0000000  0  8                     
G 6  21426495.698   114172406.059        -479.977          39.000  
G 5  21426492.582   114172286.191        -480.120          44.000  
G 2  21480649.299   114456986.777        -480.568          31.000  
G 3  21426722.818   114173498.883        -480.101          47.000  
G 9  21381031.953   113933401.675        -480.878          31.000  
G 4  21426724.583   114173509.166        -480.187          46.000  
G18  21520219.831   114664929.718        -478.966          32.000  
G 1  21426731.933   114173548.762        -480.178          39.000  
> 2019  6 16  1 27 46.0000000  0  8                     
G 6  21426587.249   114172886.373        -480.236          38.000  
G 5  21426584.053   114172766.501        -480.380          44.000  
G 2  21480740.754   114457467.060        -480.112          30.000  
G 3  21426814.327   114173979.191        -480.234          47.000  
G 9  21381123.233   113933881.989        -481.238          31.000  
G 4  21426815.952   114173989.459        -480.192          45.000  
G18  21520311.291   114665410.033        -479.756          31.000  
G 1  21426823.532   114174029.075        -480.399          39.000  
> 2019  6 16  1 27 47.0000000  0  8                     
G 6  21426678.737   114173366.727        -480.370          38.000  
G 5  21426675.561   114173246.847        -480.410          45.000  
G 2  21480832.297   114457947.394        -480.663          31.000  
G 3  21426905.904   114174459.535        -480.371          47.000  
G 9  21381214.702   113934362.362        -481.224          31.000  
G 4  21426907.525   114174469.824        -480.344          45.000  
G18  21520402.835   114665890.382        -479.689          32.000  
G 1  21426915.000   114174509.416        -480.474          39.000  
> 2019  6 16  1 27 48.0000000  0  8                     
G 6  21426770.204   114173847.063        -480.350          38.000  
G 5  21426767.073   114173727.195        -480.377          45.000  
G 2  21480923.857   114458427.760        -480.922          32.000  
G 3  21426997.298   114174939.893        -480.422          47.000  
G 9  21381306.104   113934842.730        -480.886          31.000  
G 4  21426999.158   114174950.179        -480.426          45.000  
G18  21520494.484   114666370.768        -479.934          33.000  
G 1  21427006.723   114174989.792        -480.524          39.000  
> 2019  6 16  1 27 49.0000000  0  8                     
G 6  21426861.831   114174327.477        -480.051          38.000  
G 5  21426858.515   114174207.607        -480.167          44.000  
G 2  21481015.403   114458908.186        -481.027          31.000  
G 3  21427088.828   114175420.305        -480.342          46.000  
G 9  21381397.521   113935323.098        -480.295          31.000  
G 4  21427090.646   114175430.588        -480.254          45.000  
G18  21520585.947   114666851.198        -480.519          33.000  
G 1  21427098.274   114175470.196        -480.355          39.000  
> 2019  6 16  1 27 50.0000000  0  8                     
G 6  21426953.250   114174807.896        -480.059          38.000  
G 5  21426950.063   114174688.025        -480.129          44.000  
G 2  21481106.768   114459388.584        -480.566          31.000  
G 3  21427180.291   114175900.717        -480.258          47.000  
G 9  21381488.891   113935803.505        -480.530          31.000  
G 4  21427182.140   114175911.005        -480.309          45.000  
G18  21520677.483   114667331.618        -480.696          33.000  
G 1  21427189.767   114175950.615        -480.494          39.000  
> 2019  6 16  1 27 51.0000000  0  8                     
G 6  21427044.774   114175288.368        -480.048          38.000  
G 5  21427041.541   114175168.513        -480.304          44.000  
G 2  21481198.400   114459869.110        -480.245          31.000  
G 3  21427271.723   114176381.205        -480.436          47.000  
G 9  21381580.352   113936284.022        -481.110          31.000  
G 4  21427273.794   114176391.498        -480.400          46.000  
G18  21520769.069   114667812.121        -480.940          33.000  
G 1  21427281.298   114176431.090        -480.472          39.000  
> 2019  6 16  1 27 52.0000000  0  8                     
G 6  21427136.366   114175768.872        -480.430          38.000  
G 5  21427132.956   114175649.007        -480.625          44.000  
G 2  21481289.984   114460349.572        -481.008          30.000  
G 3  21427363.227   114176861.715        -480.747          47.000  
G 9  21381671.952   113936764.529        -481.351          31.000  
G 4  21427365.375   114176872.002        -480.741          45.000  
G18  21520860.613   114668292.619        -481.150          33.000  
G 1  21427372.776   114176911.594        -480.808          39.000  
> 2019  6 16  1 27 53.0000000  0  8                     
G 6  21427227.910   114176249.382        -480.464          39.000  
G 5  21427224.439   114176129.513        -480.428          45.000  
G 2  21481381.595   114460830.102        -480.862          31.000  
G 3  21427454.906   114177342.220        -480.592          47.000  
G 9  21381763.406   113937244.992        -480.405          31.000  
G 4  21427456.956   114177352.502        -480.580          46.000  
G18  21520952.075   114668773.113        -480.782          33.000  
G 1  21427464.359   114177392.104        -480.724          39.000  
> 2019  6 16  1 27 54.0000000  0  8                     
G 6  21427319.363   114176729.900        -480.076          38.000  
G 5  21427316.089   114176610.023        -480.480          45.000  
G 2  21481473.090   114461310.594        -480.488          32.000  
G 3  21427546.461   114177822.733        -480.417          47.000  
G 9  21381855.034   113937725.545        -480.938          31.000  
G 4  21427548.451   114177833.022        -480.756          46.000  
G18  21521043.647   114669253.622        -480.529          33.000  
G 1  21427555.935   114177872.618        -480.593          39.000  
> 2019  6 16  1 27 55.0000000  0  8                     
G 6  21427410.885   114177210.297        -480.066          38.000  
G 5  21427407.454   114177090.423        -480.355          44.000  
G 2  21481564.525   114461791.011        -480.972          31.000  
G 3  21427638.026   114178303.132        -480.394          47.000  
G 9  21381946.465   113938205.935        -480.706          32.000  
G 4  21427640.130   114178313.408        -480.492          46.000  
G18  21521135.228   114669733.992        -479.728          32.000  
G 1  21427647.367   114178353.011        -480.392          39.000  
> 2019  6 16  1 27 56.0000000  0  8                     
G 6  21427502.409   114177690.739        -480.128          38.000  
G 5  21427499.015   114177570.893        -480.403          44.000  
G 2  21481656.140   114462271.460        -480.728          30.000  
G 3  21427729.507   114178783.582        -480.470          47.000  
G 9  21382037.970   113938686.374        -480.757          32.000  
G 4  21427731.671   114178793.868        -480.449          45.000  
G18  21521226.770   114670214.501        -481.169          32.000  
G 1  21427738.806   114178833.479        -480.588          39.000  
> 2019  6 16  1 27 57.0000000  0  8                     
G 6  21427593.992   114178171.199        -480.403          38.000  
G 5  21427590.644   114178051.343        -480.518          44.000  
G 2  21481747.792   114462751.919        -480.583          31.000  
G 3  21427820.981   114179264.049        -480.702          47.000  
G 9  21382129.520   113939166.819        -480.321          32.000  
G 4  21427823.216   114179274.334        -480.673          46.000  
G18  21521318.261   114670694.958        -481.160          32.000  
G 1  21427830.239   114179313.943        -480.618          39.000  
> 2019  6 16  1 27 58.0000000  0  8                     
G 6  21427685.611   114178651.731        -480.454          38.000  
G 5  21427682.139   114178531.858        -480.693          44.000  
G 2  21481839.466   114463232.441        -480.640          31.000  
G 3  21427912.432   114179744.558        -480.577          47.000  
G 9  21382221.127   113939647.353        -480.935          31.000  
G 4  21427914.810   114179754.839        -480.605          46.000  
G18  21521409.728   114671175.452        -480.637          32.000  
G 1  21427921.776   114179794.438        -480.674          39.000  
> 2019  6 16  1 27 59.0000000  0  8                     
G 6  21427777.185   114179132.235        -480.574          39.000  
G 5  21427773.606   114179012.365        -480.450          45.000  
G 2  21481930.959   114463712.947        -480.919          31.000  
G 3  21428004.004   114180225.067        -480.530          47.000  
G 9  21382312.668   113940127.847        -480.575          31.000  
G 4  21428006.262   114180235.355        -480.572          46.000  
G18  21521501.218   114671655.960        -480.790          32.000  
G 1  21428013.477   114180274.966        -480.620          39.000  
> 2019  6 16  1 28  0.0000000  0  8                     
G 6  21427868.710   114179612.725        -480.605          39.000  
G 5  21427865.154   114179492.848        -480.671          44.000  
G 2  21482022.411   114464193.438        -480.995          32.000  
G 3  21428095.559   114180705.548        -480.665          47.000  
G 9  21382404.183   113940608.343        -480.918          31.000  
G 4  21428097.758   114180715.842        -480.753          46.000  
G18  21521592.641   114672136.464        -481.157          32.000  
G 1  21428105.094   114180755.432        -480.604          39.000  
> 2019  6 16  1 28  1.0000000  0  8                     
G 6  21427960.344   114180093.293        -480.510          39.000  
G 5  21427956.748   114179973.418        -480.558          44.000  
G 2  21482113.947   114464674.017        -480.631          30.000  
G 3  21428186.995   114181186.111        -480.656          47.000  
G 9  21382495.746   113941088.877        -480.621          31.000  
G 4  21428189.241   114181196.411        -480.637          46.000  
G18  21521684.190   114672617.033        -481.101          32.000  
G 1  21428196.610   114181235.983        -480.454          39.000  
> 2019  6 16  1 28  2.0000000  0  8                     
G 6  21428051.820   114180573.861        -480.442          39.000  
G 5  21428048.299   114180453.991        -480.566          44.000  
G 2  21482205.505   114465154.590        -480.895          30.000  
G 3  21428278.553   114181666.698        -480.674          46.000  
G 9  21382587.244   113941569.504        -481.278          31.000  
G 4  21428280.845   114181676.978        -480.718          46.000  
G18  21521775.768   114673097.558        -479.642          32.000  
G 1  21428288.061   114181716.582        -480.529          39.000  
> 2019  6 16  1 28  3.0000000  0  7                     
G 6  21428143.407   114181054.466        -480.461          38.000  
G 5  21428139.820   114180934.607        -480.565          44.000  
G 3  21428370.081   114182147.314        -480.632          46.000  
G 9  21382678.795   113942050.107        -481.279          31.000  
G 4  21428372.347   114182157.598        -480.631          46.000  
G18  21521867.473   114673578.229        -480.720          32.000  
G 1  21428379.613   114182197.188        -480.382          39.000  
> 2019  6 16  1 28  4.0000000  0  7                     
G 6  21428234.974   114181535.004        -480.146          39.000  
G 5  21428231.292   114181415.156        -480.428          44.000  
G 3  21428461.537   114182627.853        -480.459          46.000  
G 9  21382770.392   113942530.650        -480.751          32.000  
G 4  21428463.680   114182638.135        -480.510          46.000  
G18  21521959.035   114674058.751        -480.535          32.000  
G 1  21428471.348   114182677.731        -480.151          39.000  
> 2019  6 16  1 28  5.0000000  0  8                     
G 6  21428326.505   114182015.425        -480.060          39.000  
G 5  21428322.869   114181895.580        -480.245          44.000  
G 2  21482480.068   114466614.1541       -480.233          31.000  
G 3  21428553.066   114183108.285        -480.377          47.000  
G 9  21382861.907   113943011.078        -480.325          31.000  
G 4  21428555.159   114183118.569        -480.347          46.000  
G18  21522050.603   114674539.229        -481.427          32.000  
G 1  21428562.948   114183158.168        -480.187          39.000  
> 2019  6 16  1 28  6.0000000  0  8                     
G 6  21428417.911   114182495.805        -480.000          39.000  
G 5  21428414.427   114182375.961        -480.367          45.000  
G 2  21482571.556   114467094.545        -480.283          31.000  
G 3  21428644.535   114183588.665        -480.400          46.000  
G 9  21382953.481   113943491.480        -480.928          31.000  
G 4  21428646.823   114183598.953        -480.477          46.000  
G18  21522142.021   114675019.538        -480.032          32.000  
G 1  21428654.667   114183638.543        -480.011          39.000  
> 2019  6 16  1 28  7.0000000  0  8                     
G 6  21428509.329   114182976.334        -480.302          38.000  
G 5  21428505.879   114182856.494        -480.637          44.000  
G 2  21482663.064   114467575.094        -480.751          31.000  
G 3  21428736.149   114184069.195        -480.631          46.000  
G 9  21383045.022   113943971.990        -480.796          31.000  
G 4  21428738.487   114184079.483        -480.675          46.000  
G18  21522233.453   114675500.089        -480.923          32.000  
G 1  21428746.182   114184119.071        -480.352          39.000  
> 2019  6 16  1 28  8.0000000  0  8                     
G 6  21428600.797   114183456.857        -480.410          38.000  
G 5  21428597.377   114183337.011        -480.685          44.000  
G 2  21482754.539   114468055.594        -480.529          31.000  
G 3  21428827.722   114184549.722        -480.736          47.000  
G 9  21383136.455   113944452.534        -480.709          31.000  
G 4  21428830.040   114184560.004        -480.726          46.000  
G18  21522324.963   114675980.598        -480.596          33.000  
G 1  21428837.777   114184599.595        -480.309          39.000  
> 2019  6 16  1 28  9.0000000  0  8                     
G 6  21428692.247   114183937.423        -480.470          38.000  
G 5  21428689.059   114183817.573        -480.653          44.000  
G 2  21482846.054   114468536.154        -480.172          31.000  
G 3  21428919.310   114185030.280        -480.676          47.000  
G 9  21383228.000   113944933.065        -480.709          31.000  
G 4  21428921.521   114185040.563        -480.660          45.000  
G18  21522416.453   114676461.181        -480.572          33.000  
G 1  21428929.260   114185080.149        -480.388          39.000  
> 2019  6 16  1 28 10.0000000  0  8                     
G 6  21428783.679   114184417.974        -480.491          38.000  
G 5  21428780.553   114184298.119        -480.638          44.000  
G 2  21482937.616   114469016.696        -480.366          31.000  
G 3  21429010.883   114185510.834        -480.680          47.000  
G 9  21383319.540   113945413.625        -480.356          30.000  
G 4  21429012.992   114185521.119        -480.665          46.000  
G18  21522507.965   114676941.747        -480.883          32.000  
G 1  21429020.734   114185560.705        -480.344          39.000  
> 2019  6 16  1 28 11.0000000  0  8                     
G 6  21428875.259   114184898.479        -480.465          38.000  
G 5  21428872.153   114184778.628        -480.565          45.000  
G 2  21483029.081   114469497.216        -480.580          31.000  
G 3  21429102.355   114185991.337        -480.646          47.000  
G 9  21383410.963   113945894.142        -480.647          30.000  
G 4  21429104.521   114186001.623        -480.675          45.000  
G18  21522599.391   114677422.253        -480.818          32.000  
G 1  21429112.247   114186041.213        -480.365          39.000  
> 2019  6 16  1 28 12.0000000  0  8                     
G 6  21428966.683   114185378.989        -480.347          38.000  
G 5  21428963.663   114185259.126        -480.491          44.000  
G 2  21483120.474   114469977.677        -480.042          31.000  
G 3  21429193.919   114186471.841        -480.553          47.000  
G 9  21383502.504   113946374.647        -480.470          31.000  
G 4  21429195.943   114186482.126        -480.526          45.000  
G18  21522690.827   114677902.763        -480.880          32.000  
G 1  21429203.633   114186521.703        -480.319          39.000  
> 2019  6 16  1 28 13.0000000  0  8                     
G 6  21429058.288   114185880.4183       -480.472          38.000  
G 5  21429055.230   114185739.559        -480.500          44.000  
G 2  21483211.999   114470458.135        -480.339          31.000  
G 3  21429285.456   114186952.265        -480.609          47.000  
G 9  21383594.182   113946855.078        -480.948          31.000  
G 4  21429287.535   114186962.554        -480.548          46.000  
G18  21522782.338   114678383.193        -481.060          32.000  
G 1  21429295.067   114187002.140        -480.509          39.000  
> 2019  6 16  1 28 14.0000000  0  8                     
G 6  21429149.811   114186361.8133       -480.402          38.000  
G 5  21429146.604   114186219.946        -480.394          44.000  
G 2  21483303.401   114470938.480        -480.029          31.000  
G 3  21429377.022   114187432.653        -480.524          47.000  
G 9  21383685.624   113947335.467        -480.260          32.000  
G 4  21429379.047   114187442.932        -480.464          45.000  
G18  21522873.725   114678863.522        -480.258          33.000  
G 1  21429386.560   114187482.520        -480.596          39.000  
> 2019  6 16  1 28 15.0000000  0  8                     
G 6  21429241.563   114186844.1042       -480.272          39.000  
G 5  21429238.078   114186700.243        -480.186          44.000  
G 2  21483394.906   114471418.784        -478.967          31.000  
G 3  21429468.481   114187912.952        -480.242          46.000  
G 9  21383777.151   113947815.705        -480.223          32.000  
G 4  21429470.525   114187923.221        -480.265          46.000  
G18  21522965.212   114679343.838        -480.159          33.000  
G 1  21429477.980   114187962.818        -480.366          39.000  
> 2019  6 16  1 28 16.0000000  0  8                     
G 6  21429333.119   114187325.3283       -480.654          39.000  
G 5  21429329.565   114187180.437        -480.187          44.000  
G 2  21483486.313   114471898.976        -479.569          31.000  
G 3  21429560.039   114188393.137        -480.146          47.000  
G 9  21383868.553   113948295.906        -479.441          31.000  
G 4  21429561.875   114188403.421        -480.132          46.000  
G18  21523056.651   114679824.021        -480.074          32.000  
G 1  21429569.520   114188443.031        -480.396          39.000  
> 2019  6 16  1 28 17.0000000  0  8                     
G 6  21429424.675   114187806.5323       -480.798          39.000  
G 5  21429421.038   114187660.661        -480.455          44.000  
G 2  21483577.723   114472379.168        -479.315          31.000  
G 3  21429651.540   114188873.358        -480.287          46.000  
G 9  21383959.916   113948776.157        -480.214          31.000  
G 4  21429653.364   114188883.643        -480.210          45.000  
G18  21523148.053   114680304.248        -480.124          33.000  
G 1  21429661.045   114188923.254        -480.530          39.000  
> 2019  6 16  1 28 18.0000000  0  8                     
G 6  21429516.212   114188286.9052       -480.797          38.000  
G 5  21429512.518   114188141.031        -480.411          44.000  
G 2  21483669.215   114472859.602        -480.074          30.000  
G 3  21429743.036   114189353.735        -480.361          47.000  
G 9  21384051.452   113949256.486        -479.542          31.000  
G 4  21429744.904   114189364.017        -480.253          46.000  
G18  21523239.424   114680784.619        -480.513          33.000  
G 1  21429752.595   114189403.620        -480.453          39.000  
> 2019  6 16  1 28 19.0000000  0  8                     
G 6  21429607.759   114188768.3593       -480.972          38.000  
G 5  21429604.047   114188621.484        -480.741          44.000  
G 2  21483760.613   114473340.033        -480.218          30.000  
G 3  21429834.542   114189834.188        -480.565          46.000  
G 9  21384142.997   113949736.956        -480.094          31.000  
G 4  21429836.381   114189844.473        -480.552          45.000  
G18  21523330.802   114681265.100        -480.983          32.000  
G 1  21429844.089   114189884.076        -480.725          40.000  
> 2019  6 16  1 28 20.0000000  0  8                     
G 6  21429699.364   114189248.8122       -480.649          38.000  
G 5  21429695.516   114189101.933        -480.338          44.000  
G 2  21483852.131   114473820.491        -479.680          31.000  
G 3  21429926.003   114190314.623        -480.178          47.000  
G 9  21384234.506   113950217.380        -479.468          31.000  
G 4  21429927.877   114190324.904        -480.124          46.000  
G18  21523422.255   114681745.548        -480.255          32.000  
G 1  21429935.523   114190364.509        -480.361          40.000  
> 2019  6 16  1 28 21.0000000  0  8                     
G 6  21429790.826   114189729.1312       -480.986          39.000  
G 5  21429787.159   114189582.260        -480.590          44.000  
G 2  21483943.584   114474300.789        -479.875          30.000  
G 3  21430017.472   114190794.943        -480.477          47.000  
G 9  21384326.049   113950697.699        -479.625          31.000  
G 4  21430019.476   114190805.227        -480.463          46.000  
G18  21523513.792   114682225.858        -480.424          31.000  
G 1  21430027.079   114190844.854        -480.793          38.000  
> 2019  6 16  1 28 22.0000000  0  8                     
G 6  21429882.272   114190209.5752       -481.140          38.000  
G 5  21429878.673   114190062.695        -480.674          44.000  
G 2  21484035.197   114474781.314        -481.797          30.000  
G 3  21430109.013   114191275.390        -480.646          47.000  
G 9  21384417.601   113951178.176        -480.316          31.000  
G 4  21430111.061   114191285.684        -480.619          46.000  
G18  21523605.275   114682706.298        -480.503          32.000  
G 1  21430118.618   114191325.289        -480.867          39.000  
> 2019  6 16  1 28 23.0000000  0  8                     
G 6  21429973.728   114190689.9802       -481.084          38.000  
G 5  21429970.239   114190543.096        -480.621          44.000  
G 2  21484126.643   114475261.663        -480.743          31.000  
G 3  21430200.595   114191755.791        -480.514          47.000  
G 9  21384509.171   113951658.579        -480.344          31.000  
G 4  21430202.545   114191766.073        -480.388          45.000  
G18  21523696.830   114683186.671        -479.860          33.000  
G 1  21430210.219   114191805.673        -480.554          39.000  
> 2019  6 16  1 28 24.0000000  0  8                     
G 6  21430065.273   114191170.3102       -480.900          39.000  
G 5  21430061.721   114191023.434        -480.565          44.000  
G 2  21484218.147   114475742.069        -482.095          31.000  
G 3  21430292.014   114192236.129        -480.496          47.000  
G 9  21384600.713   113952138.913        -480.237          31.000  
G 4  21430294.085   114192246.405        -480.392          46.000  
G18  21523788.333   114683667.008        -480.260          33.000  
G 1  21430301.746   114192286.019        -480.533          39.000  
> 2019  6 16  1 28 25.0000000  0  8                     
G 6  21430156.699   114191650.524        -480.594          39.000  
G 5  21430153.228   114191503.653        -480.258          44.000  
G 2  21484309.633   114476222.223        -480.668          31.000  
G 3  21430383.556   114192716.350        -480.166          46.000  
G 9  21384692.263   113952619.129        -480.338          31.000  
G 4  21430385.564   114192726.614        -479.967          46.000  
G18  21523879.954   114684147.187        -478.905          33.000  
G 1  21430393.292   114192766.241        -480.229          39.000  
> 2019  6 16  1 28 26.0000000  0  8                     
G 6  21430248.207   114192130.751        -480.557          39.000  
G 5  21430244.729   114191983.870        -480.311          44.000  
G 2  21484401.225   114476702.480        -481.380          31.000  
G 3  21430475.053   114193196.567        -480.352          47.000  
G 9  21384783.825   113953099.357        -480.448          31.000  
G 4  21430477.060   114193206.849        -480.104          46.000  
G18  21523971.413   114684627.451        -480.144          32.000  
G 1  21430484.874   114193246.437        -480.109          39.000  
> 2019  6 16  1 28 27.0000000  0  8                     
G 6  21430339.684   114192611.015        -480.851          39.000  
G 5  21430336.199   114192464.136        -480.522          44.000  
G 2  21484492.754   114477182.716        -480.615          31.000  
G 3  21430566.515   114193676.841        -480.569          46.000  
G 9  21384875.258   113953579.630        -480.814          31.000  
G 4  21430568.534   114193687.119        -480.415          46.000  
G18  21524062.977   114685107.702        -479.619          32.000  
G 1  21430576.267   114193726.711        -480.355          39.000  
> 2019  6 16  1 28 28.0000000  0  8                     
G 6  21430431.195   114193091.239        -480.870          38.000  
G 5  21430427.615   114192944.356        -480.388          44.000  
G 2  21484584.314   114477663.015        -482.283          32.000  
G 3  21430657.983   114194157.055        -480.330          46.000  
G 9  21384966.849   113954059.838        -479.952          31.000  
G 4  21430659.949   114194167.328        -480.222          45.000  
G18  21524154.548   114685587.937        -479.761          32.000  
G 1  21430667.678   114194206.927        -480.275          39.000  
> 2019  6 16  1 28 29.0000000  0  8                     
G 6  21430522.642   114193571.592        -480.496          38.000  
G 5  21430519.029   114193424.710        -480.431          44.000  
G 2  21484675.830   114478143.279        -480.217          31.000  
G 3  21430749.556   114194637.415        -480.341          47.000  
G 9  21385058.376   113954540.194        -480.530          31.000  
G 4  21430751.389   114194647.684        -480.345          46.000  
G18  21524246.049   114686068.255        -479.255          32.000  
G 1  21430759.209   114194687.279        -480.267          39.000  
> 2019  6 16  1 28 30.0000000  0  8                     
G 6  21430613.967   114194051.818        -480.270          38.000  
G 5  21430610.505   114193904.963        -480.117          44.000  
G 2  21484767.396   114478623.613        -481.223          30.000  
G 3  21430841.014   114195117.674        -480.151          46.000  
G 9  21385149.825   113955020.464        -480.503          30.000  
G 4  21430842.942   114195127.947        -480.081          46.000  
G18  21524337.583   114686548.557        -480.231          32.000  
G 1  21430850.563   114195167.546        -480.029          40.000  
> 2019  6 16  1 28 31.0000000  0  8                     
G 6  21430705.458   114194532.061        -480.182          38.000  
G 5  21430701.992   114194385.192        -480.186          45.000  
G 2  21484858.722   114479103.766        -480.253          30.000  
G 3  21430932.501   114195597.893        -480.231          47.000  
G 9  21385241.393   113955500.686        -480.485          31.000  
G 4  21430934.439   114195608.186        -480.255          46.000  
G18  21524429.087   114687028.767        -479.976          32.000  
G 1  21430942.013   114195647.779        -480.259          39.000  
> 2019  6 16  1 28 32.0000000  0  8                     
G 6  21430797.089   114195012.331        -480.312          39.000  
G 5  21430793.462   114194865.456        -480.293          44.000  
G 2  21484950.347   114479584.110        -482.147          30.000  
G 3  21431023.974   114196078.156        -480.298          47.000  
G 9  21385332.873   113955980.972        -480.483          31.000  
G 4  21431026.099   114196088.449        -480.311          46.000  
G18  21524520.665   114687509.014        -479.716          32.000  
G 1  21431033.578   114196128.044        -480.280          39.000  
> 2019  6 16  1 28 33.0000000  0  8                     
G 6  21430888.551   114195492.610        -480.342          39.000  
G 5  21430884.969   114195345.750        -480.441          44.000  
G 2  21485041.732   114480064.269        -480.129          30.000  
G 3  21431115.433   114196558.451        -480.526          46.000  
G 9  21385424.415   113956461.249        -480.878          32.000  
G 4  21431117.565   114196568.739        -480.503          45.000  
G18  21524612.247   114687989.317        -479.810          33.000  
G 1  21431125.114   114196608.338        -480.382          40.000  
> 2019  6 16  1 28 34.0000000  0  8                     
G 6  21430980.018   114195972.850        -479.821          39.000  
G 5  21430976.346   114195825.989        -479.971          44.000  
G 2  21485133.358   114480544.634        -481.195          30.000  
G 3  21431206.824   114197038.691        -480.121          47.000  
G 9  21385515.828   113956941.486        -480.164          31.000  
G 4  21431208.940   114197048.980        -480.056          46.000  
G18  21524703.840   114688469.595        -480.128          33.000  
G 1  21431216.566   114197088.577        -480.016          40.000  
> 2019  6 16  1 28 35.0000000  0  8                     
G 6  21431071.524   114196453.053        -480.380          39.000  
G 5  21431067.857   114196306.180        -480.292          44.000  
G 2  21485225.109   114481024.778        -480.635          31.000  
G 3  21431298.350   114197518.873        -480.343          47.000  
G 9  21385607.347   113957421.653        -479.879          31.000  
G 4  21431300.522   114197529.161        -480.353          45.000  
G18  21524795.465   114688949.755        -479.924          32.000  
G 1  21431308.150   114197568.765        -480.427          40.000  
> 2019  6 16  1 28 36.0000000  0  8                     
G 6  21431163.027   114196933.196        -480.249          39.000  
G 5  21431159.453   114196786.320        -480.157          44.000  
G 2  21485316.551   114481504.806        -479.395          31.000  
G 3  21431389.845   114197999.021        -480.204          47.000  
G 9  21385698.896   113957901.813        -480.184          31.000  
G 4  21431391.939   114198009.307        -480.188          45.000  
G18  21524886.897   114689429.909        -480.009          33.000  
G 1  21431399.667   114198048.931        -480.521          39.000  
> 2019  6 16  1 28 37.0000000  0  8                     
G 6  21431254.344   114197413.351        -480.131          39.000  
G 5  21431251.020   114197266.482        -480.123          44.000  
G 2  21485408.130   114481985.054        -480.388          31.000  
G 3  21431481.312   114198479.179        -480.220          47.000  
G 9  21385790.339   113958381.963        -480.283          31.000  
G 4  21431483.441   114198489.471        -480.271          46.000  
G18  21524978.305   114689910.036        -479.778          33.000  
G 1  21431491.195   114198529.079        -480.386          39.000  
> 2019  6 16  1 28 38.0000000  0  8                     
G 6  21431345.825   114197893.498        -480.435          39.000  
G 5  21431342.557   114197746.622        -480.267          44.000  
G 2  21485499.447   114482465.200        -480.892          32.000  
G 3  21431572.767   114198959.317        -480.353          47.000  
G 9  21385881.842   113958862.119        -480.325          31.000  
G 4  21431574.799   114198969.613        -480.356          46.000  
G18  21525069.685   114690390.178        -480.032          33.000  
G 1  21431582.485   114199009.217        -480.531          39.000  
> 2019  6 16  1 28 39.0000000  0  8                     
G 6  21431437.272   114198373.692        -480.146          39.000  
G 5  21431434.041   114198226.829        -480.129          44.000  
G 2  21485591.119   114482945.476        -481.370          31.000  
G 3  21431664.224   114199439.521        -480.184          47.000  
G 9  21385973.281   113959342.309        -480.270          31.000  
G 4  21431666.273   114199449.813        -480.228          46.000  
G18  21525161.209   114690870.387        -479.917          32.000  
G 1  21431673.835   114199489.415        -480.345          39.000  
> 2019  6 16  1 28 40.0000000  0  8                     
G 6  21431528.759   114198853.883        -480.267          39.000  
G 5  21431525.570   114198707.012        -480.284          44.000  
G 2  21485682.495   114483425.556        -480.321          31.000  
G 3  21431755.754   114199919.701        -480.266          47.000  
G 9  21386064.819   113959822.503        -480.526          31.000  
G 4  21431757.848   114199929.996        -480.366          46.000  
G18  21525252.654   114691350.586        -480.087          32.000  
G 1  21431765.385   114199969.616        -480.665          39.000  
> 2019  6 16  1 28 41.0000000  0  8                     
G 6  21431620.209   114199334.097        -480.239          39.000  
G 5  21431616.972   114199187.226        -480.288          44.000  
G 2  21485773.948   114483905.827        -480.975          31.000  
G 3  21431847.197   114200399.918        -480.176          47.000  
G 9  21386156.281   113960302.750        -481.003          31.000  
G 4  21431849.325   114200410.219        -480.480          46.000  
G18  21525344.129   114691830.798        -480.399          32.000  
G 1  21431856.789   114200449.814        -480.471          39.000  
> 2019  6 16  1 28 42.0000000  0  8                     
G 6  21431711.650   114199814.275        -480.131          39.000  
G 5  21431708.422   114199667.394        -479.973          44.000  
G 2  21485865.553   114484385.989        -480.857          31.000  
G 3  21431938.627   114200880.093        -480.010          47.000  
G 9  21386247.693   113960782.892        -480.450          31.000  
G 4  21431940.626   114200890.390        -480.099          46.000  
G18  21525435.656   114692310.961        -479.653          32.000  
G 1  21431948.322   114200929.998        -480.173          39.000  
> 2019  6 16  1 28 43.0000000  0  8                     
G 6  21431803.097   114200294.393        -479.946          38.000  
G 5  21431799.799   114200147.506        -479.897          44.000  
G 2  21485956.915   114484866.086        -481.265          31.000  
G 3  21432030.111   114201360.199        -479.934          47.000  
G 9  21386339.063   113961263.029        -480.455          32.000  
G 4  21432032.066   114201370.496        -480.048          46.000  
G18  21525527.069   114692791.123        -480.739          32.000  
G 1  21432039.796   114201410.115        -480.051          39.000  
> 2019  6 16  1 28 44.0000000  0  8                     
G 6  21431894.540   114200774.400        -480.171          38.000  
G 5  21431891.271   114200627.537        -480.179          44.000  
G 2  21486048.300   114485346.114        -480.630          31.000  
G 3  21432121.572   114201840.225        -480.145          47.000  
G 9  21386430.420   113961743.042        -480.708          31.000  
G 4  21432123.400   114201850.514        -480.280          46.000  
G18  21525618.527   114693271.097        -480.068          32.000  
G 1  21432131.172   114201890.139        -480.338          39.000  
> 2019  6 16  1 28 45.0000000  0  8                     
G 6  21431986.050   114201254.498        -480.082          39.000  
G 5  21431982.685   114201107.621        -479.971          45.000  
G 2  21486139.744   114485826.214        -480.548          31.000  
G 3  21432213.004   114202320.328        -480.037          47.000  
G 9  21386521.878   113962223.154        -480.603          32.000  
G 4  21432214.793   114202330.625        -480.083          46.000  
G18  21525709.902   114693751.194        -479.971          33.000  
G 1  21432222.691   114202370.233        -480.183          39.000  
> 2019  6 16  1 28 46.0000000  0  8                     
G 6  21432077.593   114201734.556        -480.161          39.000  
G 5  21432074.146   114201587.674        -480.105          45.000  
G 2  21486231.303   114486306.257        -480.510          31.000  
G 3  21432304.531   114202800.361        -480.042          47.000  
G 9  21386613.335   113962703.177        -480.621          32.000  
G 4  21432306.329   114202810.651        -480.120          46.000  
G18  21525801.346   114694231.202        -479.462          33.000  
G 1  21432314.093   114202850.270        -479.982          39.000  
> 2019  6 16  1 28 47.0000000  0  8                     
G 6  21432169.091   114202214.685        -480.209          38.000  
G 5  21432165.615   114202067.803        -480.244          45.000  
G 2  21486322.643   114486786.373        -480.792          32.000  
G 3  21432395.966   114203280.506        -480.231          47.000  
G 9  21386704.775   113963183.332        -480.564          32.000  
G 4  21432397.815   114203290.796        -480.203          46.000  
G18  21525892.789   114694711.371        -480.231          32.000  
G 1  21432405.543   114203330.405        -480.327          39.000  
> 2019  6 16  1 28 48.0000000  0  8                     
G 6  21432260.473   114202694.804        -479.871          38.000  
G 5  21432257.016   114202547.933        -480.065          45.000  
G 2  21486413.969   114487266.514        -480.520          32.000  
G 3  21432487.437   114203760.636        -480.137          47.000  
G 9  21386796.330   113963663.475        -480.807          32.000  
G 4  21432489.319   114203770.926        -480.095          46.000  
G18  21525984.188   114695191.514        -480.232          33.000  
G 1  21432496.989   114203810.533        -480.085          39.000  
> 2019  6 16  1 28 49.0000000  0  8                     
G 6  21432352.002   114203174.991        -479.712          38.000  
G 5  21432348.602   114203028.120        -480.150          45.000  
G 2  21486505.412   114487746.699        -480.419          32.000  
G 3  21432578.890   114204240.824        -480.122          47.000  
G 9  21386887.825   113964143.647        -480.522          32.000  
G 4  21432580.909   114204251.117        -480.175          46.000  
G18  21526075.767   114695671.717        -480.585          32.000  
G 1  21432588.514   114204290.721        -480.144          39.000  
> 2019  6 16  1 28 50.0000000  0  8                     
G 6  21432443.442   114203655.203        -479.888          38.000  
G 5  21432440.033   114203508.340        -480.183          45.000  
G 2  21486596.951   114488226.947        -480.413          32.000  
G 3  21432670.350   114204721.050        -480.284          47.000  
G 9  21386979.245   113964623.843        -480.563          31.000  
G 4  21432672.380   114204731.335        -480.232          46.000  
G18  21526167.325   114696151.956        -480.897          32.000  
G 1  21432680.017   114204770.932        -479.989          39.000  
> 2019  6 16  1 28 51.0000000  0  8                     
G 6  21432534.864   114204135.525        -479.947          38.000  
G 5  21432531.609   114203988.661        -480.229          45.000  
G 2  21486688.472   114488707.239        -480.068          31.000  
G 3  21432761.815   114205201.364        -480.328          47.000  
G 9  21387070.705   113965104.168        -480.491          31.000  
G 4  21432763.852   114205211.653        -480.270          46.000  
G18  21526258.779   114696632.251        -480.918          32.000  
G 1  21432771.519   114205251.253        -480.083          39.000  
