     3.02           OBSERVATION DATA    G: GPS              RINEX VERSION / TYPE
RTKCONV 2.4.3                           20200430 010019 UTC PGM / RUN BY / DATE 
log: D:\FastData\IF_Test\0429-C7สตั้\2020-04-29-zhanghan-u  COMMENT             
format: u-blox                                              COMMENT             
                                                            MARKER NAME         
                                                            MARKER NUMBER       
                                                            MARKER TYPE         
                                                            OBSERVER / AGENCY   
                                                            REC # / TYPE / VERS 
                                                            ANT # / TYPE        
        0.0000        0.0000        0.0000                  APPROX POSITION XYZ 
        0.0000        0.0000        0.0000                  ANTENNA: DELTA H/E/N
G    4 C1C L1C D1C S1C                                      SYS / # / OBS TYPES 
  2019     6    16     1    23   23.0000000     GPS         TIME OF FIRST OBS   
  2019     6    16     1    28   59.0000000     GPS         TIME OF LAST OBS    
G                                                           SYS / PHASE SHIFT   
  0                                                         GLONASS SLOT / FRQ #
 C1C    0.000 C1P    0.000 C2C    0.000 C2P    0.000        GLONASS COD/PHS/BIS 
                                                            END OF HEADER       
> 2019  6 16  1 23 23.0000000  0  8                     
G 1  21459252.806   114344473.078        -521.217          38.000  
G 4  21459244.911   114344440.770        -521.455          46.000  
G 2  21459249.596   114344455.029        -521.376          44.000  
G 6  21459020.717   114343250.618        -521.381          45.000  
G11  21624238.581   115211471.190        -522.050          32.000  
G 3  21459244.898   114344428.511        -521.420          44.000  
G22  21513495.294   114629523.541        -521.820          32.000  
G12  21402999.647   114048871.006        -521.499          30.000  
> 2019  6 16  1 23 24.0000000  0  8                     
G 1  21459352.000   114344994.419        -521.202          37.000  
G 4  21459344.201   114344962.104        -521.338          46.000  
G 2  21459348.833   114344976.357        -521.111          43.000  
G 6  21459120.095   114343771.954        -521.295          45.000  
G11  21624337.930   115211992.508        -521.628          32.000  
G 3  21459344.080   114344949.848        -521.372          45.000  
G22  21513594.664   114630044.859        -521.484          32.000  
G12  21403099.096   114049392.349        -521.554          31.000  
> 2019  6 16  1 23 25.0000000  0  8                     
G 1  21459451.304   114345515.717        -521.240          37.000  
G 4  21459443.473   114345483.393        -521.205          46.000  
G 2  21459448.098   114345497.660        -521.390          44.000  
G 6  21459219.443   114344293.252        -521.388          45.000  
G11  21624437.194   115212513.834        -522.360          32.000  
G 3  21459443.397   114345471.147        -521.383          44.000  
G22  21513693.976   114630566.158        -521.573          32.000  
G12  21403198.531   114049913.656        -521.876          30.000  
> 2019  6 16  1 23 26.0000000  0  8                     
G 1  21459550.748   114346037.126        -521.372          37.000  
G 4  21459542.757   114346004.810        -521.436          46.000  
G 2  21459547.476   114346019.069        -521.370          44.000  
G 6  21459318.766   114344814.658        -521.528          46.000  
G11  21624536.385   115213035.212        -521.967          31.000  
G 3  21459542.801   114345992.540        -521.445          45.000  
G22  21513793.234   114631087.566        -521.677          32.000  
G12  21403297.856   114050435.049        -521.191          30.000  
> 2019  6 16  1 23 27.0000000  0  8                     
G 1  21459650.078   114346558.560        -521.282          37.000  
G 4  21459642.060   114346526.245        -521.239          46.000  
G 2  21459646.828   114346540.496        -521.294          44.000  
G 6  21459417.985   114345336.088        -521.371          45.000  
G11  21624635.729   115213556.690        -521.914          31.000  
G 3  21459642.178   114346513.991        -521.398          45.000  
G22  21513892.576   114631609.016        -521.497          33.000  
G12  21403397.167   114050956.482        -520.925          31.000  
> 2019  6 16  1 23 28.0000000  0  8                     
G 1  21459749.429   114347080.002        -521.298          38.000  
G 4  21459741.433   114347047.677        -521.276          46.000  
G 2  21459746.064   114347061.929        -521.265          44.000  
G 6  21459517.218   114345857.520        -521.357          45.000  
G11  21624735.045   115214078.097        -521.691          32.000  
G 3  21459741.555   114347035.417        -521.304          45.000  
G22  21513991.931   114632130.438        -521.412          32.000  
G12  21403496.586   114051477.892        -521.056          31.000  
> 2019  6 16  1 23 29.0000000  0  8                     
G 1  21459848.815   114347601.310        -521.326          38.000  
G 4  21459840.628   114347568.976        -521.145          46.000  
G 2  21459845.373   114347583.231        -521.217          44.000  
G 6  21459616.425   114346378.819        -521.273          45.000  
G11  21624834.306   115214599.434        -522.093          32.000  
G 3  21459840.880   114347556.717        -521.270          44.000  
G22  21514091.192   114632651.732        -521.243          31.000  
G12  21403595.868   114051999.222        -520.972          31.000  
> 2019  6 16  1 23 30.0000000  0  8                     
G 1  21459948.249   114348122.555        -521.407          38.000  
G 4  21459939.955   114348090.218        -521.282          45.000  
G 2  21459944.758   114348104.474        -521.334          44.000  
G 6  21459715.761   114346900.060        -521.438          45.000  
G11  21624933.644   115215120.659        -521.958          31.000  
G 3  21459940.273   114348077.963        -521.466          45.000  
G22  21514190.502   114633172.992        -521.621          32.000  
G12  21403695.101   114052520.475        -521.569          31.000  
> 2019  6 16  1 23 31.0000000  0  8                     
G 1  21460047.844   114348643.825        -521.467          37.000  
G 4  21460039.287   114348611.481        -521.342          46.000  
G 2  21460044.094   114348625.748        -521.489          44.000  
G 6  21459815.035   114347421.325        -521.392          45.000  
G11  21625032.928   115215641.918        -521.417          31.000  
G 3  21460039.559   114348599.224        -521.469          44.000  
G22  21514289.925   114633694.268        -521.622          32.000  
G12  21403794.335   114053041.740        -521.632          31.000  
> 2019  6 16  1 23 32.0000000  0  8                     
G 1  21460147.155   114349165.067        -521.666          37.000  
G 4  21460138.619   114349132.726        -520.999          46.000  
G 2  21460143.398   114349146.984        -521.119          44.000  
G 6  21459914.339   114347942.574        -521.180          45.000  
G11  21625132.107   115216163.114        -521.073          31.000  
G 3  21460138.810   114349120.467        -521.124          44.000  
G22  21514389.127   114634215.497        -521.228          32.000  
G12  21403893.732   114053562.977        -521.260          32.000  
> 2019  6 16  1 23 33.0000000  0  8                     
G 1  21460246.422   114349686.286        -521.483          37.000  
G 4  21460237.759   114349653.959        -521.165          46.000  
G 2  21460242.710   114349668.224        -521.324          44.000  
G 6  21460013.507   114348463.815        -521.372          45.000  
G11  21625231.291   115216684.410        -521.800          31.000  
G 3  21460238.039   114349641.707        -521.189          44.000  
G22  21514488.414   114634736.739        -521.373          33.000  
G12  21403992.967   114054084.193        -521.271          32.000  
> 2019  6 16  1 23 34.0000000  0  8                     
G 1  21460345.616   114350207.674        -521.915          37.000  
G 4  21460336.990   114350175.332        -521.429          45.000  
G 2  21460342.036   114350189.597        -521.611          45.000  
G 6  21460112.917   114348985.185        -521.589          45.000  
G11  21625330.580   115217205.762        -521.904          32.000  
G 3  21460337.352   114350163.085        -521.547          45.000  
G22  21514587.662   114635258.110        -521.687          32.000  
G12  21404092.321   114054605.583        -521.542          31.000  
> 2019  6 16  1 23 35.0000000  0  8                     
G 1  21460444.975   114350729.018        -521.738          37.000  
G 4  21460436.299   114350696.666        -521.257          45.000  
G 2  21460441.373   114350710.927        -521.329          44.000  
G 6  21460212.265   114349506.522        -521.406          45.000  
G11  21625429.892   115217727.075        -521.023          31.000  
G 3  21460436.662   114350684.403        -521.344          44.000  
G22  21514686.774   114635779.435        -521.704          31.000  
G12  21404191.637   114055126.886        -521.276          31.000  
> 2019  6 16  1 23 36.0000000  0  8                     
G 1  21460544.047   114351250.490        -521.842          37.000  
G 4  21460535.648   114351218.117        -521.334          45.000  
G 2  21460540.688   114351232.380        -521.436          44.000  
G 6  21460311.659   114350027.971        -521.426          45.000  
G11  21625529.183   115218248.562        -522.022          32.000  
G 3  21460536.028   114351205.854        -521.183          44.000  
G22  21514786.055   114636300.892        -521.709          32.000  
G12  21404291.089   114055648.370        -521.832          31.000  
> 2019  6 16  1 23 37.0000000  0  8                     
G 1  21460643.301   114351771.799        -521.572          37.000  
G 4  21460634.941   114351739.459        -521.130          46.000  
G 2  21460639.898   114351753.720        -521.218          44.000  
G 6  21460411.032   114350549.318        -521.361          45.000  
G11  21625628.341   115218769.840        -521.030          32.000  
G 3  21460635.353   114351727.199        -521.305          45.000  
G22  21514885.171   114636822.242        -521.903          32.000  
G12  21404390.408   114056169.700        -521.586          31.000  
> 2019  6 16  1 23 38.0000000  0  8                     
G 1  21460742.654   114352293.088        -521.541          38.000  
G 4  21460734.259   114352260.737        -521.323          46.000  
G 2  21460739.238   114352274.999        -521.351          44.000  
G 6  21460510.427   114351070.581        -521.321          44.000  
G11  21625727.498   115219291.186        -521.402          32.000  
G 3  21460734.609   114352248.474        -521.273          44.000  
G22  21514984.319   114637343.506        -521.718          32.000  
G12  21404489.733   114056690.974        -520.822          32.000  
> 2019  6 16  1 23 39.0000000  0  8                     
G 1  21460841.969   114352814.240        -521.411          38.000  
G 4  21460833.543   114352781.893        -521.047          45.000  
G 2  21460838.403   114352796.155        -521.030          44.000  
G 6  21460609.486   114351591.743        -521.205          45.000  
G11  21625826.896   115219812.364        -522.005          31.000  
G 3  21460833.932   114352769.632        -521.085          44.000  
G22  21515083.490   114637864.687        -521.472          32.000  
G12  21404589.171   114057212.135        -521.176          31.000  
> 2019  6 16  1 23 40.0000000  0  8                     
G 1  21460941.205   114353335.381        -521.287          37.000  
G 4  21460932.835   114353303.029        -521.163          45.000  
G 2  21460937.646   114353317.289        -521.174          44.000  
G 6  21460708.743   114352112.883        -521.260          44.000  
G11  21625926.395   115220333.472        -521.674          31.000  
G 3  21460933.211   114353290.767        -521.121          44.000  
G22  21515182.645   114638385.792        -521.315          31.000  
G12  21404688.532   114057733.276        -521.432          31.000  
> 2019  6 16  1 23 41.0000000  0  8                     
G 1  21461040.588   114353856.589        -521.272          37.000  
G 4  21461032.128   114353824.254        -521.262          45.000  
G 2  21461036.842   114353838.516        -521.138          44.000  
G 6  21460808.017   114352634.107        -521.288          44.000  
G11  21626025.694   115220854.707        -521.624          31.000  
G 3  21461032.483   114353811.994        -521.190          44.000  
G22  21515281.893   114638907.034        -521.198          31.000  
G12  21404787.863   114058254.517        -521.300          30.000  
> 2019  6 16  1 23 42.0000000  0  8                     
G 1  21461139.935   114354377.771        -521.208          37.000  
G 4  21461131.364   114354345.442        -521.379          45.000  
G 2  21461136.099   114354359.695        -521.169          44.000  
G 6  21460907.231   114353155.285        -521.200          44.000  
G11  21626124.910   115221375.874        -521.241          31.000  
G 3  21461131.736   114354333.175        -521.178          44.000  
G22  21515381.243   114639428.214        -521.224          32.000  
G12  21404887.219   114058775.687        -521.144          31.000  
> 2019  6 16  1 23 43.0000000  0  8                     
G 1  21461239.318   114354899.023        -521.169          37.000  
G 4  21461230.693   114354866.683        -521.299          46.000  
G 2  21461235.330   114354880.927        -521.040          43.000  
G 6  21461006.572   114353676.525        -521.208          44.000  
G11  21626224.298   115221897.089        -521.122          32.000  
G 3  21461231.055   114354854.416        -521.204          44.000  
G22  21515480.555   114639949.455        -521.389          33.000  
G12  21404986.530   114059296.928        -521.259          31.000  
> 2019  6 16  1 23 44.0000000  0  8                     
G 1  21461338.679   114355420.247        -521.161          37.000  
G 4  21461330.006   114355387.904        -521.293          46.000  
G 2  21461334.693   114355402.164        -521.178          43.000  
G 6  21461105.965   114354197.754        -521.266          45.000  
G11  21626323.582   115222418.308        -521.021          31.000  
G 3  21461330.284   114355375.637        -521.323          44.000  
G22  21515579.879   114640470.658        -521.432          33.000  
G12  21405085.827   114059818.195        -522.212          32.000  
> 2019  6 16  1 23 45.0000000  0  8                     
G 1  21461438.047   114355941.505        -520.934          37.000  
G 4  21461429.343   114355909.175        -521.189          46.000  
G 2  21461433.987   114355923.411        -521.089          44.000  
G 6  21461205.261   114354719.018        -521.127          45.000  
G11  21626422.807   115222939.541        -520.023          31.000  
G 3  21461429.558   114355896.912        -520.996          44.000  
G22  21515679.381   114640991.949        -521.241          32.000  
G12  21405185.121   114060339.428        -521.567          31.000  
> 2019  6 16  1 23 46.0000000  0  8                     
G 1  21461537.251   114356462.814        -521.160          37.000  
G 4  21461528.567   114356430.481        -521.251          45.000  
G 2  21461533.301   114356444.745        -521.299          44.000  
G 6  21461304.512   114355240.332        -521.317          45.000  
G11  21626522.078   115223460.870        -520.906          31.000  
G 3  21461528.808   114356418.215        -521.033          44.000  
G22  21515778.863   114641513.235        -520.602          32.000  
G12  21405284.462   114060860.741        -521.471          31.000  
> 2019  6 16  1 23 47.0000000  0  8                     
G 1  21461636.509   114356984.184        -521.156          37.000  
G 4  21461627.845   114356951.850        -521.417          45.000  
G 2  21461632.567   114356966.106        -521.219          44.000  
G 6  21461403.807   114355761.695        -521.282          45.000  
G11  21626621.476   115223982.252        -520.962          31.000  
G 3  21461628.006   114356939.578        -521.154          44.000  
G22  21515878.184   114642034.648        -521.326          33.000  
G12  21405383.743   114061382.115        -521.776          31.000  
> 2019  6 16  1 23 48.0000000  0  8                     
G 1  21461735.756   114357505.504        -520.839          37.000  
G 4  21461727.154   114357473.185        -521.190          45.000  
G 2  21461731.892   114357487.445        -521.151          44.000  
G 6  21461503.261   114356283.033        -521.227          44.000  
G11  21626720.784   115224503.586        -520.748          31.000  
G 3  21461727.334   114357460.912        -521.033          44.000  
G22  21515977.527   114642555.941        -521.194          33.000  
G12  21405483.018   114061903.456        -521.647          31.000  
> 2019  6 16  1 23 49.0000000  0  8                     
G 1  21461835.181   114358026.682        -521.145          37.000  
G 4  21461826.466   114357994.362        -521.440          45.000  
G 2  21461831.273   114358008.617        -521.418          43.000  
G 6  21461602.510   114356804.200        -521.351          45.000  
G11  21626819.964   115225024.744        -520.418          31.000  
G 3  21461826.677   114357982.086        -521.271          44.000  
G22  21516076.715   114643077.112        -521.270          32.000  
G12  21405582.187   114062424.605        -521.469          31.000  
> 2019  6 16  1 23 50.0000000  0  8                     
G 1  21461934.203   114358547.832        -520.909          37.000  
G 4  21461925.820   114358515.528        -521.321          46.000  
G 2  21461930.559   114358529.775        -521.257          44.000  
G 6  21461701.827   114357325.366        -521.260          45.000  
G11  21626919.101   115225545.883        -520.738          31.000  
G 3  21461925.939   114358503.248        -521.135          44.000  
G22  21516175.926   114643598.273        -521.111          32.000  
G12  21405681.574   114062945.764        -521.155          31.000  
> 2019  6 16  1 23 51.0000000  0  8                     
G 1  21462033.489   114359069.008        -520.892          37.000  
G 4  21462025.174   114359036.701        -521.382          45.000  
G 2  21462029.966   114359050.953        -521.337          44.000  
G 6  21461801.060   114357846.533        -521.322          45.000  
G11  21627018.240   115226067.080        -520.387          31.000  
G 3  21462025.235   114359024.431        -521.281          44.000  
G22  21516275.159   114644119.429        -520.872          32.000  
G12  21405780.828   114063466.923        -521.226          31.000  
> 2019  6 16  1 23 52.0000000  0  8                     
G 1  21462132.845   114359590.201        -521.022          37.000  
G 4  21462124.350   114359557.868        -521.210          45.000  
G 2  21462129.193   114359572.138        -521.328          44.000  
G 6  21461900.228   114358367.721        -521.108          45.000  
G11  21627117.445   115226588.234        -520.304          32.000  
G 3  21462124.560   114359545.607        -521.218          44.000  
G22  21516374.525   114644640.615        -520.813          32.000  
G12  21405880.115   114063988.098        -520.634          31.000  
> 2019  6 16  1 23 53.0000000  0  8                     
G 1  21462232.102   114360111.465        -521.198          37.000  
G 4  21462223.712   114360079.139        -521.489          46.000  
G 2  21462228.465   114360093.395        -521.470          44.000  
G 6  21461999.510   114358888.976        -521.340          45.000  
G11  21627216.648   115227109.495        -520.632          31.000  
G 3  21462223.771   114360066.866        -521.473          44.000  
G22  21516473.958   114645161.900        -521.057          32.000  
G12  21405979.426   114064509.376        -521.151          31.000  
> 2019  6 16  1 23 54.0000000  0  8                     
G 1  21462331.314   114360632.644        -520.817          37.000  
G 4  21462322.957   114360600.341        -521.344          45.000  
G 2  21462327.720   114360614.594        -521.218          44.000  
G 6  21462098.643   114359410.178        -521.151          44.000  
G11  21627315.860   115227630.681        -519.815          31.000  
G 3  21462323.052   114360588.060        -521.232          44.000  
G22  21516573.294   114645683.103        -520.730          32.000  
G12  21406078.692   114065030.576        -521.234          31.000  
> 2019  6 16  1 23 55.0000000  0  8                     
G 1  21462430.586   114361253.2903       -520.692          38.000  
G 4  21462422.269   114361209.9843       -521.218          46.000  
G 2  21462427.044   114361234.7413       -521.102          44.000  
G 6  21462197.917   114360030.3263       -521.201          45.000  
G11  21627415.234   115228253.8463       -520.413          31.000  
G 3  21462422.358   114361210.2093       -521.184          44.000  
G22  21516672.454   114646296.2313       -520.997          33.000  
G12  21406178.135   114065644.7393       -521.233          31.000  
> 2019  6 16  1 23 56.0000000  0  8                     
G 1  21462529.764   114361774.4542       -521.270          37.000  
G 4  21462521.547   114361731.1272       -521.246          45.000  
G 2  21462526.321   114361756.8762       -521.282          43.000  
G 6  21462297.346   114360553.4722       -521.232          44.000  
G11  21627514.400   115228774.9822       -521.057          31.000  
G 3  21462521.622   114361732.3482       -521.243          44.000  
G22  21516771.721   114646818.3792       -520.867          32.000  
G12  21406277.433   114066166.8792       -521.361          32.000  
> 2019  6 16  1 23 57.0000000  0  8                     
G 1  21462629.079   114362295.5892       -520.887          37.000  
G 4  21462620.799   114362252.2762       -521.219          45.000  
G 2  21462625.582   114362278.0272       -521.284          44.000  
G 6  21462396.703   114361074.6152       -521.216          45.000  
G11  21627613.598   115229296.1602       -520.917          32.000  
G 3  21462620.888   114362253.5082       -521.300          44.000  
G22  21516871.000   114647339.5072       -520.784          33.000  
G12  21406376.862   114066688.0002       -520.970          32.000  
> 2019  6 16  1 23 58.0000000  0  8                     
G 1  21462728.352   114362816.7072       -521.272          37.000  
G 4  21462720.039   114362773.3752       -521.281          45.000  
G 2  21462724.769   114362799.1352       -521.244          44.000  
G 6  21462495.972   114361595.7132       -521.259          45.000  
G11  21627712.864   115229817.2592       -521.411          32.000  
G 3  21462720.126   114362774.6142       -521.465          44.000  
G22  21516970.239   114647860.6252       -521.155          32.000  
G12  21406476.309   114067209.1412       -520.981          31.000  
> 2019  6 16  1 23 59.0000000  0  8                     
G 1  21462827.717   114363339.9203       -521.279          37.000  
G 4  21462819.325   114363296.5773       -521.230          46.000  
G 2  21462824.033   114363321.3333       -521.217          44.000  
G 6  21462595.229   114362118.9223       -521.285          45.000  
G11  21627812.114   115230339.4783       -521.589          31.000  
G 3  21462819.396   114363296.8203       -521.465          44.000  
G22  21517069.474   114648382.8513       -521.364          32.000  
G12  21406575.441   114067732.3283       -521.047          31.000  
> 2019  6 16  1 24  0.0000000  0  8                     
G 1  21462927.259   114363863.1482       -521.389          36.000  
G 4  21462918.584   114363817.7932       -521.213          45.000  
G 2  21462923.298   114363842.5542       -521.200          44.000  
G 6  21462694.467   114362640.1382       -521.290          44.000  
G11  21627911.254   115230860.7262       -521.825          31.000  
G 3  21462918.551   114363818.0342       -521.477          44.000  
G22  21517168.768   114648904.0782       -521.520          32.000  
G12  21406674.571   114068253.5392       -520.881          31.000  
> 2019  6 16  1 24  1.0000000  0  8                     
G 1  21463026.783   114364386.4453       -521.271          37.000  
G 4  21463017.897   114364340.1073       -521.191          45.000  
G 2  21463022.525   114364363.8653       -521.211          44.000  
G 6  21462793.653   114363161.4523       -521.327          44.000  
G11  21628010.576   115231382.0093       -521.448          31.000  
G 3  21463017.916   114364340.3523       -521.635          44.000  
G22  21517267.976   114649426.3623       -521.379          32.000  
G12  21406773.916   114068775.8603       -521.301          31.000  
> 2019  6 16  1 24  2.0000000  0  8                     
G 1  21463126.104   114364907.6822       -521.384          37.000  
G 4  21463117.186   114364861.3322       -521.132          45.000  
G 2  21463121.768   114364885.0912       -521.168          44.000  
G 6  21462892.869   114363682.6762       -521.261          44.000  
G11  21628109.853   115231903.2312       -521.217          31.000  
G 3  21463117.271   114364861.5752       -521.418          44.000  
G22  21517367.283   114649947.5882       -521.200          33.000  
G12  21406873.136   114069297.0862       -521.063          31.000  
> 2019  6 16  1 24  3.0000000  0  8                     
G 1  21463225.541   114365428.8632       -521.431          36.000  
G 4  21463216.478   114365382.5072       -521.252          45.000  
G 2  21463221.008   114365406.2692       -521.245          44.000  
G 6  21462992.291   114364203.8502       -521.416          45.000  
G11  21628209.169   115232424.4332       -521.562          32.000  
G 3  21463216.548   114365382.7482       -521.525          44.000  
G22  21517466.489   114650468.7732       -521.405          32.000  
G12  21406972.414   114069818.2482       -521.094          31.000  
> 2019  6 16  1 24  4.0000000  0  8                     
G 1  21463324.792   114365950.0262       -520.957          37.000  
G 4  21463315.673   114365903.6842       -520.868          45.000  
G 2  21463320.289   114365927.4612       -521.150          44.000  
G 6  21463091.483   114364725.0382       -520.942          44.000  
G11  21628308.340   115232945.6262       -521.895          32.000  
G 3  21463315.787   114365903.9282       -521.156          44.000  
G22  21517565.680   114650989.9522       -520.696          31.000  
G12  21407071.621   114070339.4272       -520.874          31.000  
> 2019  6 16  1 24  5.0000000  0  8                     
G 1  21463423.998   114366471.1612       -520.925          37.000  
G 4  21463414.887   114366424.8362       -521.215          45.000  
G 2  21463419.560   114366448.5842       -521.255          43.000  
G 6  21463190.657   114365246.1882       -521.293          45.000  
G11  21628407.737   115233469.7333       -521.891          31.000  
G 3  21463415.009   114366425.0742       -521.356          44.000  
G22  21517665.110   114651511.0812       -520.995          33.000  
G12  21407170.917   114070860.5852       -520.895          31.000  
> 2019  6 16  1 24  6.0000000  0  8                     
G 1  21463523.046   114366992.3092       -520.981          37.000  
G 4  21463514.102   114366945.9802       -521.267          45.000  
G 2  21463518.818   114366969.7282       -521.135          44.000  
G 6  21463289.940   114365767.3242       -521.193          44.000  
G11  21628506.933   115233990.9212       -522.251          31.000  
G 3  21463514.314   114366946.2202       -521.260          44.000  
G22  21517764.530   114652032.2222       -520.935          32.000  
G12  21407270.087   114071381.7312       -521.061          31.000  
> 2019  6 16  1 24  7.0000000  0  8                     
G 1  21463622.355   114367512.9791       -520.978          37.000  
G 4  21463613.447   114367466.6551       -521.163          45.000  
G 2  21463618.084   114367490.907        -521.021          44.000  
G 6  21463389.197   114366288.496        -521.089          44.000  
G11  21628606.134   115234512.090        -522.036          31.000  
G 3  21463613.596   114367467.395        -521.097          43.000  
G22  21517863.726   114652553.390        -520.844          31.000  
G12  21407369.396   114071902.907        -521.182          32.000  
> 2019  6 16  1 24  8.0000000  0  8                     
G 1  21463721.451   114368034.120        -520.959          37.000  
G 4  21463712.706   114367987.811        -521.196          45.000  
G 2  21463717.297   114368012.056        -521.067          44.000  
G 6  21463488.520   114366809.653        -521.161          44.000  
G11  21628705.482   115235033.225        -521.517          32.000  
G 3  21463712.777   114367988.540        -521.058          44.000  
G22  21517962.991   114653074.545        -520.873          31.000  
G12  21407468.613   114072424.072        -521.396          31.000  
> 2019  6 16  1 24  9.0000000  0  8                     
G 1  21463820.492   114368555.372        -521.498          37.000  
G 4  21463811.981   114368509.055        -521.488          45.000  
G 2  21463816.632   114368533.301        -521.277          44.000  
G 6  21463587.830   114367330.891        -521.301          44.000  
G11  21628804.795   115235554.448        -521.585          32.000  
G 3  21463812.056   114368509.788        -521.320          44.000  
G22  21518062.349   114653595.796        -521.359          32.000  
G12  21407567.937   114072945.292        -521.088          31.000  
> 2019  6 16  1 24 10.0000000  0  8                     
G 1  21463919.568   114369076.545        -521.112          37.000  
G 4  21463911.205   114369030.244        -521.287          45.000  
G 2  21463915.896   114369054.495        -521.234          44.000  
G 6  21463687.171   114367852.080        -521.182          44.000  
G11  21628904.022   115236075.668        -521.195          31.000  
G 3  21463911.242   114369030.971        -521.243          44.000  
G22  21518161.577   114654117.002        -521.199          32.000  
G12  21407667.190   114073466.471        -521.158          31.000  
> 2019  6 16  1 24 11.0000000  0  8                     
G 1  21464018.836   114369597.734        -521.583          37.000  
G 4  21464010.338   114369551.390        -521.431          45.000  
G 2  21464015.173   114369575.660        -521.364          44.000  
G 6  21463786.434   114368373.243        -521.355          45.000  
G11  21629003.313   115236596.783        -521.458          31.000  
G 3  21464010.486   114369552.128        -521.281          44.000  
G22  21518260.912   114654638.151        -521.349          32.000  
G12  21407766.464   114073987.630        -521.189          31.000  
> 2019  6 16  1 24 12.0000000  0  8                     
G 1  21464118.053   114370118.826        -521.230          37.000  
G 4  21464109.539   114370072.508        -521.344          45.000  
G 2  21464114.428   114370096.748        -521.293          44.000  
G 6  21463885.656   114368894.358        -521.360          44.000  
G11  21629102.559   115237117.913        -521.866          32.000  
G 3  21464109.701   114370073.258        -521.250          44.000  
G22  21518360.297   114655159.245        -521.143          32.000  
G12  21407865.759   114074508.754        -521.415          31.000  
> 2019  6 16  1 24 13.0000000  0  8                     
G 1  21464217.341   114370639.965        -521.531          37.000  
G 4  21464208.819   114370593.637        -521.418          45.000  
G 2  21464213.628   114370617.881        -521.401          43.000  
G 6  21463984.994   114369415.474        -521.260          44.000  
G11  21629201.880   115237639.070        -522.386          32.000  
G 3  21464208.999   114370594.382        -521.287          44.000  
G22  21518459.577   114655680.390        -521.614          33.000  
G12  21407964.962   114075029.860        -520.844          31.000  
> 2019  6 16  1 24 14.0000000  0  8                     
G 1  21464316.810   114371161.163        -521.177          37.000  
G 4  21464308.155   114371114.839        -521.161          45.000  
G 2  21464312.904   114371139.087        -521.248          43.000  
G 6  21464084.297   114369936.683        -521.259          44.000  
G11  21629301.218   115238160.286        -521.584          32.000  
G 3  21464308.327   114371115.588        -521.052          44.000  
G22  21518558.955   114656201.586        -521.196          32.000  
G12  21408064.296   114075551.053        -520.582          31.000  
> 2019  6 16  1 24 15.0000000  0  8                     
G 1  21464416.157   114371682.370        -521.346          37.000  
G 4  21464407.447   114371636.047        -521.230          45.000  
G 2  21464412.179   114371660.297        -521.290          43.000  
G 6  21464183.517   114370457.894        -521.305          45.000  
G11  21629400.560   115238681.469        -521.538          32.000  
G 3  21464407.605   114371636.795        -521.191          44.000  
G22  21518658.232   114656722.771        -521.068          32.000  
G12  21408163.674   114076072.260        -520.874          31.000  
> 2019  6 16  1 24 16.0000000  0  8                     
G 1  21464515.277   114372203.736        -521.364          37.000  
G 4  21464506.735   114372157.405        -521.162          45.000  
G 2  21464511.485   114372181.644        -521.173          43.000  
G 6  21464282.817   114370979.253        -521.217          45.000  
G11  21629499.905   115239202.810        -521.426          32.000  
G 3  21464506.890   114372158.158        -521.204          44.000  
G22  21518757.561   114657244.154        -521.324          32.000  
G12  21408263.029   114076593.632        -521.057          31.000  
> 2019  6 16  1 24 17.0000000  0  8                     
G 1  21464614.639   114372725.024        -521.479          37.000  
G 4  21464605.979   114372678.706        -521.464          45.000  
G 2  21464610.706   114372702.955        -521.544          43.000  
G 6  21464382.205   114371500.552        -521.602          44.000  
G11  21629599.223   115239724.129        -522.176          31.000  
G 3  21464606.175   114372679.452        -521.527          44.000  
G22  21518856.937   114657765.470        -521.643          33.000  
G12  21408362.414   114077114.966        -521.659          31.000  
> 2019  6 16  1 24 18.0000000  0  8                     
G 1  21464713.726   114373246.339        -520.977          37.000  
G 4  21464705.288   114373200.029        -521.237          45.000  
G 2  21464709.935   114373224.279        -521.215          43.000  
G 6  21464481.396   114372021.878        -521.267          44.000  
G11  21629698.500   115240245.450        -521.208          31.000  
G 3  21464705.464   114373200.788        -521.246          44.000  
G22  21518956.411   114658286.793        -521.044          32.000  
G12  21408461.782   114077636.273        -521.578          31.000  
> 2019  6 16  1 24 19.0000000  0  8                     
G 1  21464813.104   114373767.629        -521.147          37.000  
G 4  21464804.591   114373721.299        -521.140          45.000  
G 2  21464809.161   114373745.547        -521.189          43.000  
G 6  21464580.539   114372543.148        -521.227          45.000  
G11  21629797.685   115240766.711        -521.589          31.000  
G 3  21464804.721   114373722.063        -521.261          44.000  
G22  21519055.801   114658808.066        -521.243          31.000  
G12  21408561.069   114078157.543        -521.133          31.000  
> 2019  6 16  1 24 20.0000000  0  8                     
G 1  21464912.395   114374288.900        -521.172          36.000  
G 4  21464903.801   114374242.558        -521.104          45.000  
G 2  21464908.440   114374266.817        -521.176          43.000  
G 6  21464679.862   114373064.423        -521.271          45.000  
G11  21629896.933   115241287.977        -521.432          32.000  
G 3  21464903.996   114374243.323        -521.255          44.000  
G22  21519155.091   114659329.348        -521.329          32.000  
G12  21408660.354   114078678.784        -520.981          31.000  
> 2019  6 16  1 24 21.0000000  0  8                     
G 1  21465011.759   114374810.155        -521.401          37.000  
G 4  21465003.042   114374763.817        -521.202          45.000  
G 2  21465007.716   114374788.065        -521.259          43.000  
G 6  21464779.071   114373585.664        -521.150          45.000  
G11  21629996.342   115241809.249        -521.697          32.000  
G 3  21465003.296   114374764.567        -521.237          44.000  
G22  21519254.444   114659850.564        -521.205          32.000  
G12  21408759.536   114079200.055        -520.986          31.000  
> 2019  6 16  1 24 22.0000000  0  8                     
G 1  21465111.243   114375331.349        -521.252          37.000  
G 4  21465102.302   114375284.997        -521.208          45.000  
G 2  21465106.976   114375309.234        -521.179          43.000  
G 6  21464878.306   114374106.844        -521.173          45.000  
G11  21630095.559   115242330.414        -520.925          32.000  
G 3  21465102.627   114375285.747        -521.187          44.000  
G22  21519353.892   114660371.778        -521.620          32.000  
G12  21408858.728   114079721.216        -520.555          31.000  
> 2019  6 16  1 24 23.0000000  0  8                     
G 1  21465210.732   114375852.526        -521.448          37.000  
G 4  21465201.601   114375806.190        -521.259          45.000  
G 2  21465206.201   114375830.429        -521.006          43.000  
G 6  21464977.566   114374628.031        -521.169          45.000  
G11  21630194.836   115242851.599        -521.272          31.000  
G 3  21465201.838   114375806.940        -521.337          44.000  
G22  21519453.277   114660892.957        -521.702          32.000  
G12  21408958.034   114080242.411        -521.154          31.000  
> 2019  6 16  1 24 24.0000000  0  8                     
G 1  21465310.011   114376373.713        -521.172          37.000  
G 4  21465300.818   114376327.354        -521.205          45.000  
G 2  21465305.452   114376351.595        -521.071          43.000  
G 6  21465076.729   114375149.203        -521.124          45.000  
G11  21630293.986   115243372.754        -520.769          31.000  
G 3  21465301.079   114376328.101        -521.035          44.000  
G22  21519552.608   114661414.115        -521.423          32.000  
G12  21409057.445   114080763.568        -520.850          30.000  
> 2019  6 16  1 24 25.0000000  0  8                     
G 1  21465409.397   114376894.797        -521.224          37.000  
G 4  21465400.127   114376848.460        -520.994          45.000  
G 2  21465404.652   114376872.705        -520.862          43.000  
G 6  21465176.057   114375670.314        -521.085          44.000  
G11  21630393.278   115243893.854        -520.961          32.000  
G 3  21465400.284   114376849.212        -521.028          44.000  
G22  21519651.789   114661935.219        -521.388          32.000  
G12  21409156.731   114081284.695        -521.233          30.000  
> 2019  6 16  1 24 26.0000000  0  8                     
G 1  21465508.623   114377415.888        -521.263          37.000  
G 4  21465499.363   114377369.550        -520.901          45.000  
G 2  21465503.983   114377393.795        -520.961          43.000  
G 6  21465275.295   114376191.394        -520.912          45.000  
G11  21630492.531   115244414.947        -520.750          32.000  
G 3  21465499.548   114377370.290        -520.895          44.000  
G22  21519750.894   114662456.328        -521.260          32.000  
G12  21409255.945   114081805.803        -521.685          31.000  
> 2019  6 16  1 24 27.0000000  0  8                     
G 1  21465607.540   114377937.071        -521.775          38.000  
G 4  21465598.576   114377890.721        -521.079          45.000  
G 2  21465603.209   114377914.967        -521.151          43.000  
G 6  21465374.654   114376712.575        -521.283          45.000  
G11  21630591.949   115244936.138        -521.212          31.000  
G 3  21465598.743   114377891.471        -521.049          44.000  
G22  21519850.282   114662977.500        -521.564          32.000  
G12  21409355.189   114082326.963        -521.134          31.000  
> 2019  6 16  1 24 28.0000000  0  8                     
G 1  21465706.746   114378458.285        -521.604          37.000  
G 4  21465697.996   114378411.948        -521.320          45.000  
G 2  21465702.459   114378436.210        -521.250          43.000  
G 6  21465474.020   114377233.801        -521.326          45.000  
G11  21630691.170   115245457.360        -520.950          31.000  
G 3  21465698.139   114378412.684        -521.215          44.000  
G22  21519949.568   114663498.701        -521.501          32.000  
G12  21409454.537   114082848.184        -521.532          31.000  
> 2019  6 16  1 24 29.0000000  0  8                     
G 1  21465806.189   114378979.466        -521.462          37.000  
G 4  21465797.318   114378933.115        -521.334          45.000  
G 2  21465801.781   114378957.380        -521.362          44.000  
G 6  21465573.303   114377754.969        -521.310          44.000  
G11  21630790.524   115245978.539        -521.222          31.000  
G 3  21465797.460   114378933.864        -521.249          44.000  
G22  21520048.640   114664019.870        -521.361          33.000  
G12  21409553.845   114083369.350        -521.553          31.000  
> 2019  6 16  1 24 30.0000000  0  8                     
G 1  21465905.318   114379500.578        -521.210          36.000  
G 4  21465896.598   114379454.253        -521.360          45.000  
G 2  21465901.063   114379478.512        -521.268          44.000  
G 6  21465672.542   114378276.101        -521.173          44.000  
G11  21630889.806   115246499.674        -521.188          32.000  
G 3  21465896.770   114379455.001        -521.180          44.000  
G22  21520147.825   114664541.033        -521.312          32.000  
G12  21409653.040   114083890.517        -521.385          31.000  
> 2019  6 16  1 24 31.0000000  0  8                     
G 1  21466004.548   114380021.822        -521.302          37.000  
G 4  21465995.860   114379975.490        -521.362          45.000  
G 2  21466000.354   114379999.744        -521.407          44.000  
G 6  21465771.757   114378797.332        -521.111          44.000  
G11  21630989.163   115247020.896        -520.901          32.000  
G 3  21465996.073   114379976.223        -520.946          44.000  
G22  21520246.952   114665062.262        -521.718          32.000  
G12  21409752.263   114084411.717        -521.222          31.000  
> 2019  6 16  1 24 32.0000000  0  8                     
G 1  21466103.748   114380543.043        -521.317          37.000  
G 4  21466095.022   114380496.696        -521.143          45.000  
G 2  21466099.617   114380520.963        -521.097          44.000  
G 6  21465871.015   114379318.546        -521.265          44.000  
G11  21631088.401   115247542.099        -521.041          32.000  
G 3  21466095.345   114380497.438        -521.133          44.000  
G22  21520346.175   114665583.459        -521.001          32.000  
G12  21409851.559   114084932.911        -520.718          30.000  
> 2019  6 16  1 24 33.0000000  0  8                     
G 1  21466203.054   114381064.251        -521.202          37.000  
G 4  21466194.211   114381017.897        -521.095          45.000  
G 2  21466198.858   114381042.183        -521.097          44.000  
G 6  21465970.178   114379839.767        -521.097          44.000  
G11  21631187.679   115248063.301        -520.618          31.000  
G 3  21466194.589   114381018.654        -520.994          44.000  
G22  21520445.387   114666104.693        -521.202          32.000  
G12  21409950.860   114085454.168        -521.541          30.000  
> 2019  6 16  1 24 34.0000000  0  8                     
G 1  21466302.135   114381585.538        -521.595          37.000  
G 4  21466293.484   114381539.192        -521.466          45.000  
G 2  21466298.135   114381563.472        -521.582          43.000  
G 6  21466069.590   114380361.053        -521.588          44.000  
G11  21631287.008   115248584.620        -521.661          31.000  
G 3  21466293.882   114381539.945        -521.428          44.000  
G22  21520544.771   114666625.970        -521.495          32.000  
G12  21410050.164   114085975.454        -521.803          30.000  
> 2019  6 16  1 24 35.0000000  0  8                     
G 1  21466401.498   114382106.937        -521.285          37.000  
G 4  21466392.720   114382060.581        -521.338          45.000  
G 2  21466397.387   114382084.856        -521.255          43.000  
G 6  21466168.870   114380882.444        -521.282          44.000  
G11  21631386.332   115249105.968        -520.942          31.000  
G 3  21466393.167   114382061.334        -521.058          44.000  
G22  21520644.051   114667147.352        -520.973          32.000  
G12  21410149.402   114086496.833        -521.361          31.000  
> 2019  6 16  1 24 36.0000000  0  8                     
G 1  21466500.634   114382628.188        -521.531          38.000  
G 4  21466492.109   114382581.872        -521.428          45.000  
G 2  21466496.635   114382606.121        -521.268          43.000  
G 6  21466268.167   114381403.714        -521.270          45.000  
G11  21631485.607   115249627.279        -521.241          31.000  
G 3  21466492.499   114382582.614        -521.277          44.000  
G22  21520743.254   114667668.640        -521.294          32.000  
G12  21410248.670   114087018.122        -521.527          31.000  
> 2019  6 16  1 24 37.0000000  0  8                     
G 1  21466600.025   114383149.381        -521.560          37.000  
G 4  21466591.360   114383103.061        -521.305          45.000  
G 2  21466595.970   114383127.316        -521.154          43.000  
G 6  21466367.617   114381924.901        -521.180          45.000  
G11  21631584.877   115250148.487        -521.330          31.000  
G 3  21466591.834   114383103.804        -521.276          44.000  
G22  21520842.469   114668189.839        -521.361          32.000  
G12  21410347.907   114087539.324        -521.792          31.000  
> 2019  6 16  1 24 38.0000000  0  8                     
G 1  21466699.293   114383670.601        -521.523          38.000  
G 4  21466690.738   114383624.271        -521.224          45.000  
G 2  21466695.254   114383648.526        -521.349          43.000  
G 6  21466466.908   114382446.119        -521.340          45.000  
G11  21631684.081   115250669.684        -521.219          32.000  
G 3  21466691.170   114383625.021        -521.404          44.000  
G22  21520941.769   114668711.026        -521.323          32.000  
G12  21410447.117   114088060.520        -521.263          31.000  
> 2019  6 16  1 24 39.0000000  0  8                     
G 1  21466798.370   114384191.785        -521.172          38.000  
G 4  21466790.043   114384145.477        -521.278          45.000  
G 2  21466794.465   114384169.728        -521.392          43.000  
G 6  21466566.168   114382967.319        -521.299          45.000  
G11  21631783.258   115251190.871        -521.135          32.000  
G 3  21466790.550   114384146.221        -521.331          44.000  
G22  21521040.877   114669232.237        -521.044          32.000  
G12  21410546.432   114088581.710        -521.173          31.000  
> 2019  6 16  1 24 40.0000000  0  8                     
G 1  21466897.497   114384712.952        -521.151          38.000  
G 4  21466889.298   114384666.644        -521.179          45.000  
G 2  21466893.726   114384690.900        -521.357          43.000  
G 6  21466665.405   114383488.481        -521.140          45.000  
G11  21631882.422   115251712.049        -521.185          31.000  
G 3  21466889.765   114384667.396        -521.205          44.000  
G22  21521139.965   114669753.394        -520.459          31.000  
G12  21410645.589   114089102.889        -521.198          30.000  
> 2019  6 16  1 24 41.0000000  0  8                     
G 1  21466996.633   114385234.037        -520.800          37.000  
G 4  21466988.586   114385187.726        -520.961          45.000  
G 2  21466992.948   114385211.982        -521.090          43.000  
G 6  21466764.623   114384009.578        -521.116          45.000  
G11  21631981.596   115252233.152        -521.304          31.000  
G 3  21466988.945   114385188.487        -521.135          44.000  
G22  21521239.194   114670274.490        -520.778          32.000  
G12  21410744.720   114089623.974        -521.183          31.000  
> 2019  6 16  1 24 42.0000000  0  8                     
G 1  21467095.720   114385755.155        -521.127          37.000  
G 4  21467088.004   114385708.839        -521.184          46.000  
G 2  21467092.130   114385733.103        -521.202          43.000  
G 6  21466863.900   114384530.685        -521.207          44.000  
G11  21632080.753   115252754.261        -521.096          32.000  
G 3  21467088.261   114385709.601        -521.237          44.000  
G22  21521338.470   114670795.593        -521.176          32.000  
G12  21410843.989   114090145.099        -521.029          31.000  
> 2019  6 16  1 24 43.0000000  0  8                     
G 1  21467195.054   114386276.344        -520.900          38.000  
G 4  21467187.159   114386230.030        -521.097          45.000  
G 2  21467191.348   114386254.289        -521.078          43.000  
G 6  21466963.161   114385051.877        -521.104          45.000  
G11  21632180.003   115253275.423        -520.517          32.000  
G 3  21467187.642   114386230.782        -521.229          44.000  
G22  21521437.781   114671316.784        -521.320          32.000  
G12  21410943.227   114090666.279        -520.984          31.000  
> 2019  6 16  1 24 44.0000000  0  8                     
G 1  21467294.482   114386797.516        -520.986          37.000  
G 4  21467286.522   114386751.191        -521.311          45.000  
G 2  21467290.681   114386775.448        -521.215          43.000  
G 6  21467062.472   114385573.033        -521.310          45.000  
G11  21632279.132   115253796.625        -521.214          32.000  
G 3  21467286.874   114386751.933        -521.230          44.000  
G22  21521537.063   114671837.974        -521.613          32.000  
G12  21411042.483   114091187.424        -521.135          31.000  
> 2019  6 16  1 24 45.0000000  0  8                     
G 1  21467393.803   114387318.831        -521.226          37.000  
G 4  21467385.822   114387272.523        -521.421          45.000  
G 2  21467390.002   114387296.773        -521.249          43.000  
G 6  21467161.713   114386094.364        -521.381          45.000  
G11  21632378.518   115254317.936        -521.669          32.000  
G 3  21467386.249   114387273.273        -521.439          44.000  
G22  21521636.312   114672359.277        -521.230          32.000  
G12  21411141.891   114091708.770        -521.735          31.000  
> 2019  6 16  1 24 46.0000000  0  8                     
G 1  21467492.893   114387840.059        -521.146          37.000  
G 4  21467485.124   114387793.738        -521.241          45.000  
G 2  21467489.244   114387817.996        -521.311          43.000  
G 6  21467260.984   114386615.591        -521.350          45.000  
G11  21632477.901   115254839.163        -521.366          32.000  
G 3  21467485.617   114387794.502        -521.417          44.000  
G22  21521735.595   114672880.497        -521.140          31.000  
G12  21411241.172   114092229.971        -521.260          31.000  
> 2019  6 16  1 24 47.0000000  0  8                     
G 1  21467592.231   114388361.265        -520.861          38.000  
G 4  21467584.465   114388314.956        -521.196          45.000  
G 2  21467588.490   114388339.205        -521.018          43.000  
G 6  21467360.240   114387136.799        -521.123          45.000  
G11  21632577.339   115255360.370        -521.174          32.000  
G 3  21467584.881   114388315.710        -521.145          44.000  
G22  21521834.913   114673401.712        -521.019          31.000  
G12  21411340.562   114092751.195        -521.143          31.000  
> 2019  6 16  1 24 48.0000000  0  8                     
G 1  21467691.450   114388882.459        -521.300          38.000  
G 4  21467683.773   114388836.137        -521.384          45.000  
G 2  21467687.890   114388860.391        -521.412          43.000  
G 6  21467459.588   114387657.993        -521.401          44.000  
G11  21632676.501   115255881.511        -520.933          32.000  
G 3  21467684.176   114388836.885        -521.405          44.000  
G22  21521934.292   114673922.887        -521.010          31.000  
G12  21411439.893   114093272.399        -521.519          31.000  
> 2019  6 16  1 24 49.0000000  0  8                     
G 1  21467790.850   114389403.761        -521.001          37.000  
G 4  21467783.024   114389357.464        -521.484          45.000  
G 2  21467787.196   114389381.711        -521.147          43.000  
G 6  21467558.863   114388179.315        -521.405          45.000  
G11  21632775.942   115256402.852        -521.322          31.000  
G 3  21467783.401   114389358.201        -521.399          44.000  
G22  21522033.621   114674444.219        -521.619          32.000  
G12  21411539.207   114093793.706        -521.381          32.000  
> 2019  6 16  1 24 50.0000000  0  8                     
G 1  21467889.902   114389924.898        -520.791          37.000  
G 4  21467882.262   114389878.591        -521.125          45.000  
G 2  21467886.528   114389902.863        -521.136          43.000  
G 6  21467658.296   114388700.449        -521.089          45.000  
G11  21632875.219   115256924.041        -521.920          31.000  
G 3  21467882.748   114389879.342        -521.093          44.000  
G22  21522132.866   114674965.347        -521.049          32.000  
G12  21411638.407   114094314.799        -520.382          31.000  
> 2019  6 16  1 24 51.0000000  0  8                     
G 1  21467989.185   114390446.029        -521.027          37.000  
G 4  21467981.589   114390399.735        -521.377          45.000  
G 2  21467985.799   114390423.982        -521.278          43.000  
G 6  21467757.648   114389221.569        -521.366          45.000  
G11  21632974.429   115257445.178        -522.479          32.000  
G 3  21467982.009   114390400.469        -521.296          44.000  
G22  21522231.915   114675486.467        -521.102          32.000  
G12  21411737.726   114094835.959        -520.769          31.000  
> 2019  6 16  1 24 52.0000000  0  8                     
G 1  21468088.573   114390967.172        -520.947          37.000  
G 4  21468080.911   114390920.849        -521.091          45.000  
G 2  21468085.045   114390945.101        -521.014          43.000  
G 6  21467856.650   114389742.693        -521.057          45.000  
G11  21633073.640   115257966.257        -521.425          32.000  
G 3  21468081.165   114390921.585        -521.084          43.000  
G22  21522331.150   114676007.598        -521.046          32.000  
G12  21411837.063   114095357.058        -520.817          31.000  
> 2019  6 16  1 24 53.0000000  0  8                     
G 1  21468187.905   114391488.293        -520.953          38.000  
G 4  21468180.117   114391441.997        -521.017          45.000  
G 2  21468184.185   114391466.242        -521.042          43.000  
G 6  21467955.901   114390263.826        -520.931          45.000  
G11  21633172.860   115258487.419        -521.306          32.000  
G 3  21468180.459   114391442.747        -521.031          44.000  
G22  21522430.549   114676528.737        -521.062          31.000  
G12  21411936.398   114095878.190        -520.815          31.000  
> 2019  6 16  1 24 54.0000000  0  8                     
G 1  21468287.219   114392009.389        -520.819          38.000  
G 4  21468279.333   114391963.073        -521.094          45.000  
G 2  21468283.321   114391987.322        -521.082          43.000  
G 6  21468055.199   114390784.915        -520.996          45.000  
G11  21633272.026   115259008.473        -520.945          32.000  
G 3  21468279.721   114391963.826        -521.154          44.000  
G22  21522529.760   114677049.817        -521.007          32.000  
G12  21412035.715   114096399.290        -520.593          30.000  
> 2019  6 16  1 24 55.0000000  0  8                     
G 1  21468386.707   114392530.521        -520.831          37.000  
G 4  21468378.681   114392484.211        -521.041          45.000  
G 2  21468382.503   114392508.459        -521.008          43.000  
G 6  21468154.462   114391306.052        -521.028          45.000  
G11  21633371.297   115259529.633        -521.081          31.000  
G 3  21468378.896   114392484.969        -521.075          44.000  
G22  21522628.994   114677570.941        -520.647          32.000  
G12  21412134.909   114096920.432        -519.918          31.000  
> 2019  6 16  1 24 56.0000000  0  8                     
G 1  21468485.864   114393051.662        -521.063          37.000  
G 4  21468477.913   114393005.356        -521.232          45.000  
G 2  21468481.798   114393029.610        -521.230          43.000  
G 6  21468253.642   114391827.195        -521.168          44.000  
G11  21633470.506   115260050.766        -521.283          32.000  
G 3  21468478.108   114393006.108        -521.251          44.000  
G22  21522728.345   114678092.112        -521.025          32.000  
G12  21412234.158   114097441.581        -520.532          31.000  
> 2019  6 16  1 24 57.0000000  0  8                     
G 1  21468584.960   114393572.820        -521.086          37.000  
G 4  21468577.141   114393526.493        -520.856          45.000  
G 2  21468580.994   114393550.766        -521.013          43.000  
G 6  21468352.884   114392348.343        -521.038          44.000  
G11  21633569.661   115260571.925        -520.929          32.000  
G 3  21468577.335   114393527.253        -520.917          44.000  
G22  21522827.621   114678613.247        -520.938          32.000  
G12  21412333.345   114097962.740        -520.767          31.000  
> 2019  6 16  1 24 58.0000000  0  8                     
G 1  21468684.316   114394093.910        -521.180          37.000  
G 4  21468676.290   114394047.586        -521.029          45.000  
G 2  21468680.331   114394071.853        -521.107          44.000  
G 6  21468452.236   114392869.440        -521.104          44.000  
G11  21633668.946   115261093.027        -521.637          32.000  
G 3  21468676.511   114394048.344        -521.133          44.000  
G22  21522926.925   114679134.349        -520.901          32.000  
G12  21412432.693   114098483.837        -521.174          31.000  
> 2019  6 16  1 24 59.0000000  0  8                     
G 1  21468783.650   114394614.905        -521.005          37.000  
G 4  21468775.521   114394568.575        -520.859          45.000  
G 2  21468779.652   114394592.835        -520.884          43.000  
G 6  21468551.396   114393390.430        -520.920          44.000  
G11  21633768.280   115261614.008        -521.122          31.000  
G 3  21468775.717   114394569.338        -520.841          44.000  
G22  21523026.146   114679655.343        -520.730          32.000  
G12  21412531.939   114099004.801        -520.748          31.000  
> 2019  6 16  1 25  0.0000000  0  8                     
G 1  21468882.728   114395135.973        -521.520          37.000  
G 4  21468874.869   114395089.667        -521.288          45.000  
G 2  21468878.800   114395113.912        -521.226          43.000  
G 6  21468650.823   114393911.513        -521.331          44.000  
G11  21633867.535   115262135.071        -521.742          32.000  
G 3  21468874.958   114395090.417        -521.327          44.000  
G22  21523125.468   114680176.405        -521.198          32.000  
G12  21412631.183   114099525.912        -521.283          30.000  
> 2019  6 16  1 25  1.0000000  0  8                     
G 1  21468981.894   114395657.127        -520.756          37.000  
G 4  21468974.174   114395610.829        -520.945          45.000  
G 2  21468977.988   114395635.081        -521.008          44.000  
G 6  21468749.978   114394432.674        -520.925          44.000  
G11  21633966.847   115262656.227        -520.767          32.000  
G 3  21468974.222   114395611.589        -521.001          44.000  
G22  21523224.737   114680697.582        -520.758          32.000  
G12  21412730.459   114100047.087        -520.895          30.000  
> 2019  6 16  1 25  2.0000000  0  8                     
G 1  21469081.156   114396178.255        -521.312          38.000  
G 4  21469073.424   114396131.937        -521.140          45.000  
G 2  21469077.307   114396156.195        -521.125          43.000  
G 6  21468849.227   114394953.784        -521.156          44.000  
G11  21634066.061   115263177.330        -520.826          31.000  
G 3  21469073.494   114396132.696        -521.191          44.000  
G22  21523323.986   114681218.697        -521.041          32.000  
G12  21412829.760   114100568.211        -521.366          30.000  
> 2019  6 16  1 25  3.0000000  0  8                     
G 1  21469180.504   114396699.366        -521.185          37.000  
G 4  21469172.694   114396653.042        -521.152          45.000  
G 2  21469176.575   114396677.298        -521.115          43.000  
G 6  21468948.381   114395474.886        -521.036          44.000  
G11  21634165.357   115263698.437        -520.701          32.000  
G 3  21469172.749   114396653.797        -521.046          44.000  
G22  21523423.246   114681739.817        -521.011          33.000  
G12  21412929.014   114101089.301        -521.489          31.000  
> 2019  6 16  1 25  4.0000000  0  8                     
G 1  21469279.759   114397220.431        -521.149          38.000  
G 4  21469271.820   114397174.097        -520.912          45.000  
G 2  21469275.776   114397198.358        -520.953          43.000  
G 6  21469047.647   114395995.946        -520.906          44.000  
G11  21634264.521   115264219.493        -520.272          32.000  
G 3  21469272.017   114397174.850        -520.968          44.000  
G22  21523522.287   114682260.840        -520.681          33.000  
G12  21413028.271   114101610.340        -521.320          31.000  
> 2019  6 16  1 25  5.0000000  0  8                     
G 1  21469378.994   114397741.503        -521.064          37.000  
G 4  21469370.936   114397695.184        -521.178          45.000  
G 2  21469375.054   114397719.447        -521.216          43.000  
G 6  21469146.905   114396517.036        -521.229          44.000  
G11  21634363.672   115264740.577        -520.692          32.000  
G 3  21469371.305   114397695.944        -521.254          44.000  
G22  21523621.508   114682781.939        -521.086          32.000  
G12  21413127.552   114102131.468        -521.808          30.000  
> 2019  6 16  1 25  6.0000000  0  8                     
G 1  21469478.192   114398262.614        -520.980          37.000  
G 4  21469470.234   114398216.294        -521.030          45.000  
G 2  21469474.406   114398240.558        -521.093          43.000  
G 6  21469246.043   114397038.137        -521.041          44.000  
G11  21634462.932   115265261.694        -520.424          32.000  
G 3  21469470.535   114398217.048        -521.053          44.000  
G22  21523720.759   114683303.045        -521.053          32.000  
G12  21413226.745   114102652.547        -521.324          31.000  
> 2019  6 16  1 25  7.0000000  0  8                     
G 1  21469577.622   114398783.708        -520.995          37.000  
G 4  21469569.623   114398737.397        -521.281          45.000  
G 2  21469573.694   114398761.658        -521.178          43.000  
G 6  21469345.393   114397559.238        -521.154          44.000  
G11  21634562.131   115265782.800        -520.850          32.000  
G 3  21469569.866   114398738.154        -521.302          44.000  
G22  21523819.927   114683824.146        -521.298          32.000  
G12  21413325.880   114103173.635        -521.417          30.000  
> 2019  6 16  1 25  8.0000000  0  8                     
G 1  21469676.850   114399304.787        -521.134          37.000  
G 4  21469668.884   114399258.466        -521.327          45.000  
G 2  21469672.864   114399282.727        -521.179          43.000  
G 6  21469444.683   114398080.313        -521.130          45.000  
G11  21634661.318   115266303.872        -520.905          32.000  
G 3  21469669.211   114399259.227        -521.205          44.000  
G22  21523919.153   114684345.230        -521.504          32.000  
G12  21413425.117   114103694.705        -521.271          31.000  
> 2019  6 16  1 25  9.0000000  0  8                     
G 1  21469776.076   114399825.968        -521.144          37.000  
G 4  21469768.200   114399779.665        -521.399          45.000  
G 2  21469772.186   114399803.914        -521.217          43.000  
G 6  21469543.950   114398601.506        -521.313          44.000  
G11  21634760.633   115266825.038        -520.518          32.000  
G 3  21469768.607   114399780.412        -521.144          44.000  
G22  21524018.368   114684866.425        -521.464          32.000  
G12  21413524.275   114104215.918        -521.445          31.000  
> 2019  6 16  1 25 10.0000000  0  8                     
G 1  21469875.236   114400347.124        -520.757          37.000  
G 4  21469867.439   114400300.838        -521.368          45.000  
G 2  21469871.442   114400325.087        -521.141          43.000  
G 6  21469643.126   114399122.676        -521.182          44.000  
G11  21634859.726   115267346.209        -520.437          32.000  
G 3  21469867.803   114400301.577        -521.101          44.000  
G22  21524117.593   114685387.585        -521.267          32.000  
G12  21413623.548   114104737.068        -521.274          30.000  
> 2019  6 16  1 25 11.0000000  0  8                     
G 1  21469974.419   114400868.230        -521.161          37.000  
G 4  21469966.584   114400821.920        -521.338          45.000  
G 2  21469970.646   114400846.176        -521.193          43.000  
G 6  21469742.341   114399643.767        -521.290          45.000  
G11  21634958.944   115267867.282        -520.570          32.000  
G 3  21469967.058   114400822.670        -521.240          44.000  
G22  21524216.911   114685908.674        -521.024          31.000  
G12  21413722.778   114105258.171        -521.632          30.000  
> 2019  6 16  1 25 12.0000000  0  8                     
G 1  21470073.560   114401389.389        -520.916          37.000  
G 4  21470065.856   114401343.097        -521.373          45.000  
G 2  21470069.842   114401367.350        -521.102          43.000  
G 6  21469841.568   114400164.939        -521.134          44.000  
G11  21635058.150   115268388.456        -520.709          32.000  
G 3  21470066.375   114401343.838        -521.041          44.000  
G22  21524316.268   114686429.856        -521.295          32.000  
G12  21413822.162   114105779.379        -521.759          30.000  
> 2019  6 16  1 25 13.0000000  0  8                     
G 1  21470172.841   114401910.556        -521.116          37.000  
G 4  21470165.214   114401864.259        -521.342          45.000  
G 2  21470169.180   114401888.507        -521.180          43.000  
G 6  21469940.818   114400686.088        -521.057          44.000  
G11  21635157.410   115268909.605        -520.530          32.000  
G 3  21470165.649   114401864.999        -521.123          44.000  
G22  21524415.552   114686951.005        -521.267          33.000  
G12  21413921.433   114106300.522        -521.267          31.000  
> 2019  6 16  1 25 14.0000000  0  8                     
G 1  21470272.299   114402431.757        -521.008          37.000  
G 4  21470264.439   114402385.457        -521.331          45.000  
G 2  21470268.449   114402409.702        -521.246          43.000  
G 6  21470040.177   114401207.284        -521.195          45.000  
G11  21635256.652   115269430.852        -521.409          32.000  
G 3  21470264.881   114402386.199        -521.340          44.000  
G22  21524514.897   114687472.184        -521.271          33.000  
G12  21414020.772   114106821.716        -521.589          31.000  
> 2019  6 16  1 25 15.0000000  0  8                     
G 1  21470371.483   114402952.982        -521.127          38.000  
G 4  21470363.568   114402906.687        -521.324          45.000  
G 2  21470367.689   114402930.947        -521.265          43.000  
G 6  21470139.396   114401728.523        -521.254          45.000  
G11  21635355.876   115269952.075        -521.425          32.000  
G 3  21470364.031   114402907.425        -521.267          44.000  
G22  21524614.380   114687993.432        -521.201          33.000  
G12  21414120.073   114107342.951        -521.666          31.000  
> 2019  6 16  1 25 16.0000000  0  8                     
G 1  21470470.855   114403474.255        -521.086          38.000  
G 4  21470462.856   114403427.956        -521.322          45.000  
G 2  21470466.990   114403452.219        -521.169          43.000  
G 6  21470238.812   114402249.797        -521.227          45.000  
G11  21635455.149   115270473.364        -521.331          32.000  
G 3  21470463.193   114403428.702        -521.187          44.000  
G22  21524713.644   114688514.700        -521.082          32.000  
G12  21414219.427   114107864.198        -521.162          32.000  
> 2019  6 16  1 25 17.0000000  0  8                     
G 1  21470570.188   114403995.511        -521.683          37.000  
G 4  21470562.203   114403949.181        -521.472          45.000  
G 2  21470566.322   114403973.448        -521.418          43.000  
G 6  21470338.090   114402771.027        -521.414          45.000  
G11  21635554.508   115270994.616        -521.946          31.000  
G 3  21470562.435   114403949.915        -521.207          44.000  
G22  21524812.954   114689035.939        -521.362          32.000  
G12  21414318.784   114108385.428        -521.290          32.000  
> 2019  6 16  1 25 18.0000000  0  8                     
G 1  21470669.551   114404516.701        -521.533          37.000  
G 4  21470661.434   114404470.363        -521.349          45.000  
G 2  21470665.583   114404494.630        -521.470          44.000  
G 6  21470437.395   114403292.213        -521.362          45.000  
G11  21635653.909   115271515.782        -522.070          31.000  
G 3  21470661.659   114404471.098        -521.202          44.000  
G22  21524912.227   114689557.114        -521.256          32.000  
G12  21414418.077   114108906.651        -521.542          31.000  
> 2019  6 16  1 25 19.0000000  0  8                     
G 1  21470768.703   114405037.993        -521.339          37.000  
G 4  21470760.810   114404991.691        -521.385          46.000  
G 2  21470764.900   114405015.952        -521.256          43.000  
G 6  21470536.669   114403813.529        -521.350          45.000  
G11  21635753.356   115272037.108        -521.902          31.000  
G 3  21470760.958   114404992.434        -521.274          44.000  
G22  21525011.470   114690078.446        -521.362          32.000  
G12  21414517.346   114109427.942        -521.248          31.000  
> 2019  6 16  1 25 20.0000000  0  8                     
G 1  21470868.016   114405559.301        -521.259          37.000  
G 4  21470860.094   114405512.973        -521.267          45.000  
G 2  21470864.207   114405537.236        -521.176          44.000  
G 6  21470635.955   114404334.817        -521.271          45.000  
G11  21635852.624   115272558.396        -521.445          32.000  
G 3  21470860.290   114405513.720        -521.278          44.000  
G22  21525110.812   114690599.739        -521.597          32.000  
G12  21414616.539   114109949.238        -521.343          31.000  
> 2019  6 16  1 25 21.0000000  0  8                     
G 1  21470967.398   114406080.660        -521.637          37.000  
G 4  21470959.303   114406034.329        -521.323          45.000  
G 2  21470963.619   114406058.597        -521.383          43.000  
G 6  21470735.258   114404856.175        -521.429          45.000  
G11  21635952.004   115273079.741        -521.824          32.000  
G 3  21470959.525   114406035.074        -521.332          44.000  
G22  21525210.087   114691121.072        -521.471          32.000  
G12  21414715.800   114110470.570        -521.169          32.000  
> 2019  6 16  1 25 22.0000000  0  8                     
G 1  21471066.672   114406601.990        -521.453          37.000  
G 4  21471058.650   114406555.664        -521.246          45.000  
G 2  21471062.876   114406579.929        -521.327          43.000  
G 6  21470834.319   114405377.507        -521.252          45.000  
G11  21636051.292   115273601.086        -521.598          32.000  
G 3  21471058.722   114406556.404        -521.086          44.000  
G22  21525309.304   114691642.429        -521.500          33.000  
G12  21414815.030   114110991.911        -521.272          31.000  
> 2019  6 16  1 25 23.0000000  0  8                     
G 1  21471165.817   114407123.279        -521.554          37.000  
G 4  21471157.880   114407076.954        -521.144          45.000  
G 2  21471162.168   114407101.214        -521.232          44.000  
G 6  21470933.599   114405898.797        -521.124          45.000  
G11  21636150.561   115274122.366        -521.872          32.000  
G 3  21471158.071   114407077.711        -521.185          44.000  
G22  21525408.509   114692163.731        -521.136          33.000  
G12  21414914.249   114111513.222        -521.658          30.000  
> 2019  6 16  1 25 24.0000000  0  8                     
G 1  21471265.049   114407644.509        -521.445          37.000  
G 4  21471257.093   114407598.192        -521.355          45.000  
G 2  21471261.389   114407622.464        -521.487          44.000  
G 6  21471033.008   114406420.043        -521.263          44.000  
G11  21636249.774   115274643.607        -522.085          32.000  
G 3  21471257.388   114407598.943        -521.238          44.000  
G22  21525507.703   114692684.958        -521.260          33.000  
G12  21415013.562   114112034.445        -521.299          31.000  
> 2019  6 16  1 25 25.0000000  0  8                     
G 1  21471364.193   114408165.732        -521.248          37.000  
G 4  21471356.285   114408119.418        -521.140          45.000  
G 2  21471360.652   114408143.685        -521.124          43.000  
G 6  21471132.207   114406941.262        -521.205          45.000  
G11  21636349.096   115275164.845        -521.819          32.000  
G 3  21471356.696   114408120.159        -521.089          44.000  
G22  21525607.082   114693206.167        -521.110          32.000  
G12  21415112.727   114112555.676        -521.268          30.000  
> 2019  6 16  1 25 26.0000000  0  8                     
G 1  21471463.364   114408686.965        -521.492          37.000  
G 4  21471455.573   114408640.654        -521.025          45.000  
G 2  21471459.891   114408664.895        -520.957          43.000  
G 6  21471231.601   114407462.494        -521.099          44.000  
G11  21636448.471   115275686.056        -521.338          31.000  
G 3  21471455.999   114408641.424        -521.238          44.000  
G22  21525706.338   114693727.403        -521.320          32.000  
G12  21415211.885   114113076.876        -520.201          30.000  
> 2019  6 16  1 25 27.0000000  0  8                     
G 1  21471562.572   114409208.078        -521.252          37.000  
G 4  21471554.835   114409161.752        -521.022          46.000  
G 2  21471559.129   114409186.005        -521.025          43.000  
G 6  21471330.855   114407983.606        -521.250          45.000  
G11  21636547.663   115276207.180        -521.520          32.000  
G 3  21471555.360   114409162.499        -521.146          44.000  
G22  21525805.728   114694248.513        -521.206          32.000  
G12  21415311.148   114113598.033        -521.753          30.000  
> 2019  6 16  1 25 28.0000000  0  8                     
G 1  21471662.110   114409729.171        -521.361          37.000  
G 4  21471654.249   114409682.852        -520.962          45.000  
G 2  21471658.424   114409707.114        -521.207          43.000  
G 6  21471430.080   114408504.700        -521.262          45.000  
G11  21636646.930   115276728.280        -521.368          32.000  
G 3  21471654.662   114409683.595        -521.187          44.000  
G22  21525904.896   114694769.638        -521.635          32.000  
G12  21415410.404   114114119.119        -521.414          31.000  
> 2019  6 16  1 25 29.0000000  0  8                     
G 1  21471761.330   114410250.192        -521.373          38.000  
G 4  21471753.540   114410203.872        -520.879          45.000  
G 2  21471757.722   114410228.137        -521.079          43.000  
G 6  21471529.297   114409025.728        -521.187          45.000  
G11  21636746.223   115277249.320        -521.651          31.000  
G 3  21471753.969   114410204.613        -521.056          44.000  
G22  21526004.075   114695290.692        -521.697          32.000  
G12  21415509.583   114114640.165        -521.785          30.000  
> 2019  6 16  1 25 30.0000000  0  8                     
G 1  21471860.407   114410771.236        -521.007          37.000  
G 4  21471852.810   114410724.923        -520.710          45.000  
G 2  21471856.998   114410749.187        -520.826          43.000  
G 6  21471628.565   114409546.765        -520.806          44.000  
G11  21636845.392   115277770.364        -521.200          32.000  
G 3  21471853.265   114410725.686        -520.990          44.000  
G22  21526103.244   114695811.690        -521.061          31.000  
G12  21415608.876   114115161.181        -521.154          30.000  
> 2019  6 16  1 25 31.0000000  0  8                     
G 1  21471959.537   114411292.181        -520.702          37.000  
G 4  21471952.096   114411245.884        -520.895          45.000  
G 2  21471956.267   114411270.149        -521.028          43.000  
G 6  21471727.901   114410067.730        -521.025          45.000  
G11  21636944.528   115278291.321        -521.708          31.000  
G 3  21471952.515   114411246.636        -521.171          44.000  
G22  21526202.395   114696332.660        -521.024          31.000  
G12  21415708.061   114115682.143        -521.102          30.000  
> 2019  6 16  1 25 32.0000000  0  8                     
G 1  21472058.802   114411813.253        -520.939          37.000  
G 4  21472051.295   114411766.945        -521.055          46.000  
G 2  21472055.581   114411791.210        -521.102          43.000  
G 6  21471827.158   114410588.796        -521.086          44.000  
G11  21637043.642   115278812.389        -521.783          31.000  
G 3  21472051.799   114411767.719        -521.342          44.000  
G22  21526301.617   114696853.708        -520.829          31.000  
G12  21415807.521   114116203.179        -520.990          30.000  
> 2019  6 16  1 25 33.0000000  0  8                     
G 1  21472158.004   114412334.369        -521.028          37.000  
G 4  21472150.575   114412288.056        -521.083          45.000  
G 2  21472154.906   114412312.328        -521.129          43.000  
G 6  21471926.272   114411109.918        -521.155          45.000  
G11  21637143.042   115279333.511        -521.673          32.000  
G 3  21472151.088   114412288.824        -521.248          44.000  
G22  21526400.766   114697374.843        -520.874          31.000  
G12  21415906.753   114116724.332        -521.171          30.000  
> 2019  6 16  1 25 34.0000000  0  8                     
G 1  21472257.178   114412855.519        -520.944          37.000  
G 4  21472249.777   114412809.203        -520.953          45.000  
G 2  21472254.204   114412833.468        -520.906          43.000  
G 6  21472025.636   114411631.056        -520.994          45.000  
G11  21637242.398   115279854.646        -521.353          32.000  
G 3  21472250.373   114412809.959        -520.950          44.000  
G22  21526499.950   114697895.971        -520.962          31.000  
G12  21416005.982   114117245.465        -521.282          30.000  
> 2019  6 16  1 25 35.0000000  0  8                     
G 1  21472356.371   114413376.745        -521.208          36.000  
G 4  21472349.092   114413330.442        -521.211          45.000  
G 2  21472353.503   114413354.714        -521.390          43.000  
G 6  21472124.901   114412152.291        -521.248          45.000  
G11  21637341.610   115280375.914        -521.361          32.000  
G 3  21472349.521   114413331.198        -521.340          44.000  
G22  21526599.232   114698417.213        -521.428          31.000  
G12  21416105.230   114117766.693        -520.940          30.000  
> 2019  6 16  1 25 36.0000000  0  8                     
G 1  21472455.591   114413898.031        -521.241          36.000  
G 4  21472448.294   114413851.709        -521.259          45.000  
G 2  21472452.789   114413875.980        -521.259          43.000  
G 6  21472224.173   114412673.558        -521.228          45.000  
G11  21637440.946   115280897.129        -520.903          32.000  
G 3  21472448.809   114413852.468        -521.342          44.000  
G22  21526698.450   114698938.472        -521.354          32.000  
G12  21416204.438   114118287.959        -520.378          30.000  
> 2019  6 16  1 25 37.0000000  0  8                     
G 1  21472554.904   114414419.282        -521.127          37.000  
G 4  21472547.469   114414372.963        -521.075          45.000  
G 2  21472552.006   114414397.231        -521.168          43.000  
G 6  21472323.473   114413194.815        -521.074          45.000  
G11  21637540.264   115281418.365        -521.009          32.000  
G 3  21472548.082   114414373.716        -521.218          44.000  
G22  21526797.694   114699459.742        -521.655          32.000  
G12  21416303.567   114118809.202        -520.708          30.000  
> 2019  6 16  1 25 38.0000000  0  8                     
G 1  21472654.196   114414940.510        -521.167          37.000  
G 4  21472646.780   114414894.188        -521.050          45.000  
G 2  21472651.300   114414918.457        -521.167          44.000  
G 6  21472422.812   114413716.034        -521.042          44.000  
G11  21637639.622   115281939.618        -521.190          32.000  
G 3  21472647.447   114414894.932        -521.003          44.000  
G22  21526896.949   114699980.945        -521.277          32.000  
G12  21416402.749   114119330.427        -521.005          31.000  
> 2019  6 16  1 25 39.0000000  0  8                     
G 1  21472753.458   114415461.653        -521.157          37.000  
G 4  21472746.118   114415415.352        -521.144          45.000  
G 2  21472750.655   114415439.623        -521.206          43.000  
G 6  21472522.188   114414237.200        -521.167          44.000  
G11  21637738.963   115282460.787        -521.062          32.000  
G 3  21472746.719   114415416.103        -521.088          44.000  
G22  21526996.083   114700502.133        -520.990          32.000  
G12  21416501.929   114119851.622        -521.125          31.000  
> 2019  6 16  1 25 40.0000000  0  8                     
G 1  21472852.717   114415982.787        -521.377          37.000  
G 4  21472845.388   114415936.468        -521.138          46.000  
G 2  21472849.833   114415960.735        -521.296          43.000  
G 6  21472621.322   114414758.316        -521.171          44.000  
G11  21637838.193   115282981.911        -521.365          32.000  
G 3  21472845.935   114415937.204        -521.210          44.000  
G22  21527095.361   114701023.229        -520.914          32.000  
G12  21416601.144   114120372.740        -521.108          30.000  
> 2019  6 16  1 25 41.0000000  0  8                     
G 1  21472951.913   114416503.922        -521.260          38.000  
G 4  21472944.677   114416457.604        -521.283          45.000  
G 2  21472949.072   114416481.883        -521.595          43.000  
G 6  21472720.595   114415279.455        -521.338          44.000  
G11  21637937.586   115283503.059        -521.226          32.000  
G 3  21472945.122   114416458.352        -521.392          44.000  
G22  21527194.665   114701544.361        -521.068          32.000  
G12  21416700.425   114120893.870        -521.202          30.000  
> 2019  6 16  1 25 42.0000000  0  8                     
G 1  21473051.190   114417025.174        -521.260          37.000  
G 4  21473044.046   114416978.859        -521.432          46.000  
G 2  21473048.391   114417003.121        -521.279          43.000  
G 6  21472819.869   114415800.707        -521.202          44.000  
G11  21638036.972   115284024.292        -521.132          32.000  
G 3  21473044.406   114416979.597        -521.184          44.000  
G22  21527294.077   114702065.604        -520.742          32.000  
G12  21416799.610   114121415.108        -520.973          30.000  
> 2019  6 16  1 25 43.0000000  0  8                     
G 1  21473150.593   114417546.361        -521.455          37.000  
G 4  21473143.362   114417500.023        -521.294          46.000  
G 2  21473147.657   114417524.297        -521.393          43.000  
G 6  21472919.031   114416321.879        -521.195          44.000  
G11  21638136.256   115284545.451        -520.688          33.000  
G 3  21473143.615   114417500.784        -521.313          44.000  
G22  21527393.300   114702586.762        -520.306          32.000  
G12  21416898.808   114121936.273        -520.923          31.000  
> 2019  6 16  1 25 44.0000000  0  8                     
G 1  21473249.782   114418067.581        -521.316          37.000  
G 4  21473242.621   114418021.259        -521.178          46.000  
G 2  21473246.883   114418093.5223       -521.182          43.000  
G 6  21473018.280   114416843.108        -521.173          45.000  
G11  21638235.520   115285066.689        -521.096          32.000  
G 3  21473242.852   114418022.002        -521.195          45.000  
G22  21527492.361   114703108.010        -521.204          32.000  
G12  21416998.126   114122457.487        -520.792          31.000  
> 2019  6 16  1 25 45.0000000  0  8                     
G 1  21473348.974   114418588.805        -521.218          37.000  
G 4  21473341.927   114418542.493        -521.300          46.000  
G 2  21473346.141   114418614.7682       -521.340          43.000  
G 6  21473117.549   114417364.347        -521.323          45.000  
G11  21638334.900   115285587.901        -520.624          32.000  
G 3  21473342.185   114418543.227        -521.278          44.000  
G22  21527591.592   114703629.265        -521.396          32.000  
G12  21417097.298   114122978.732        -520.797          31.000  
> 2019  6 16  1 25 46.0000000  0  8                     
G 1  21473448.212   114419109.986        -521.427          37.000  
G 4  21473441.274   114419063.653        -521.195          47.000  
G 2  21473445.456   114419135.9272       -521.263          43.000  
G 6  21473216.860   114417885.504        -521.210          45.000  
G11  21638434.187   115286109.086        -520.287          31.000  
G 3  21473441.439   114419064.388        -521.255          44.000  
G22  21527690.896   114704150.390        -520.933          32.000  
G12  21417196.542   114123499.865        -521.309          31.000  
> 2019  6 16  1 25 47.0000000  0  8                     
G 1  21473547.510   114419631.259        -521.565          37.000  
G 4  21473540.563   114419584.939        -521.479          47.000  
G 2  21473544.752   114419659.1983       -521.492          43.000  
G 6  21473316.196   114418406.785        -521.290          46.000  
G11  21638533.550   115286630.355        -521.107          31.000  
G 3  21473540.678   114419585.675        -521.311          44.000  
G22  21527790.288   114704671.690        -521.177          32.000  
G12  21417295.937   114124021.200        -521.510          31.000  
> 2019  6 16  1 25 48.0000000  0  8                     
G 1  21473646.761   114420152.515        -521.680          37.000  
G 4  21473639.750   114420106.142        -520.837          47.000  
G 2  21473644.063   114420180.4332       -521.472          43.000  
G 6  21473415.594   114418928.025        -521.399          45.000  
G11  21638632.836   115287151.580        -520.973          31.000  
G 3  21473639.871   114420106.928        -521.460          44.000  
G22  21527889.677   114705192.917        -521.281          31.000  
G12  21417395.044   114124542.434        -521.559          31.000  
> 2019  6 16  1 25 49.0000000  0  8                     
G 1  21473746.165   114420673.734        -521.539          37.000  
G 4  21473739.089   114420627.421        -521.283          47.000  
G 2  21473743.397   114420701.690        -521.279          44.000  
G 6  21473514.831   114419449.274        -521.083          45.000  
G11  21638732.085   115287672.776        -520.711          31.000  
G 3  21473739.117   114420628.164        -521.350          44.000  
G22  21527988.893   114705714.193        -521.655          32.000  
G12  21417494.205   114125063.652        -521.149          31.000  
> 2019  6 16  1 25 50.0000000  0  8                     
G 1  21473845.750   114421194.902        -521.055          37.000  
G 4  21473838.327   114421148.563        -521.045          46.000  
G 2  21473842.672   114421222.822        -520.923          44.000  
G 6  21473614.058   114419970.408        -520.989          45.000  
G11  21638831.361   115288193.966        -520.771          31.000  
G 3  21473838.389   114421149.307        -521.176          44.000  
G22  21528088.044   114706235.300        -521.034          32.000  
G12  21417593.491   114125584.805        -521.213          31.000  
> 2019  6 16  1 25 51.0000000  0  8                     
G 1  21473945.109   114421716.078        -521.378          37.000  
G 4  21473937.557   114421669.751        -521.320          47.000  
G 2  21473941.957   114421744.007        -521.218          44.000  
G 6  21473713.236   114420491.591        -521.207          46.000  
G11  21638930.674   115288715.112        -520.417          31.000  
G 3  21473937.649   114421670.480        -521.389          43.000  
G22  21528187.257   114706756.471        -521.061          32.000  
G12  21417692.700   114126105.971        -521.102          31.000  
> 2019  6 16  1 25 52.0000000  0  8                     
G 1  21474044.523   114422237.270        -521.101          37.000  
G 4  21474036.766   114422190.959        -521.199          46.000  
G 2  21474041.299   114422265.216        -521.124          44.000  
G 6  21473812.432   114421012.805        -521.172          46.000  
G11  21639029.980   115289236.320        -520.362          31.000  
G 3  21474036.936   114422191.693        -521.238          43.000  
G22  21528286.536   114707277.719        -521.224          31.000  
G12  21417791.888   114126627.182        -520.667          31.000  
> 2019  6 16  1 25 53.0000000  0  8                     
G 1  21474143.811   114422758.557        -521.184          38.000  
G 4  21474136.117   114422712.239        -521.329          46.000  
G 2  21474140.645   114422786.514        -521.085          44.000  
G 6  21473911.803   114421534.083        -521.173          45.000  
G11  21639129.344   115289757.634        -520.476          32.000  
G 3  21474136.177   114422712.982        -521.333          44.000  
G22  21528385.879   114707798.979        -520.924          32.000  
G12  21417891.274   114127148.474        -521.426          31.000  
> 2019  6 16  1 25 54.0000000  0  8                     
G 1  21474243.200   114423279.742        -520.839          37.000  
G 4  21474235.413   114423233.439        -521.172          46.000  
G 2  21474239.973   114423307.686        -521.187          44.000  
G 6  21474011.079   114422055.283        -521.121          46.000  
G11  21639228.378   115290278.816        -520.786          32.000  
G 3  21474235.453   114423234.160        -521.222          43.000  
G22  21528485.249   114708320.184        -520.853          32.000  
G12  21417990.568   114127669.668        -521.155          31.000  
> 2019  6 16  1 25 55.0000000  0  8                     
G 1  21474342.354   114423800.883        -521.124          37.000  
G 4  21474334.704   114423754.577        -521.136          46.000  
G 2  21474339.348   114423828.835        -521.108          44.000  
G 6  21474110.391   114422631.4203       -521.006          45.000  
G11  21639327.525   115290799.950        -520.467          32.000  
G 3  21474334.675   114423755.310        -521.083          43.000  
G22  21528584.528   114708841.342        -521.141          32.000  
G12  21418089.911   114128190.808        -520.986          30.000  
> 2019  6 16  1 25 56.0000000  0  8                     
G 1  21474441.490   114424322.064        -521.021          37.000  
G 4  21474433.966   114424275.782        -521.241          47.000  
G 2  21474438.647   114424350.035        -521.182          45.000  
G 6  21474209.724   114423153.6162       -521.121          45.000  
G11  21639426.850   115291321.164        -520.902          32.000  
G 3  21474433.983   114424276.507        -521.335          43.000  
G22  21528683.858   114709362.521        -521.294          32.000  
G12  21418189.209   114128712.011        -521.222          30.000  
> 2019  6 16  1 25 57.0000000  0  8                     
G 1  21474540.619   114424843.270        -521.130          37.000  
G 4  21474533.270   114424796.974        -521.282          47.000  
G 2  21474537.993   114424871.236        -521.193          44.000  
G 6  21474309.081   114423674.8212       -521.202          45.000  
G11  21639526.137   115291842.346        -520.488          31.000  
G 3  21474533.191   114424797.708        -521.265          43.000  
G22  21528783.181   114709883.737        -521.199          33.000  
G12  21418288.394   114129233.219        -520.922          30.000  
> 2019  6 16  1 25 58.0000000  0  8                     
G 1  21474639.960   114425364.555        -521.099          39.000  
G 4  21474632.460   114425318.253        -521.528          46.000  
G 2  21474637.290   114425392.509        -521.355          45.000  
G 6  21474408.400   114424197.0813       -521.107          46.000  
G11  21639625.036                        -519.656          31.000  
G 3  21474632.431   114425318.977        -521.323          43.000  
G22  21528882.138   114710404.872        -519.623          28.000  
G12  21418387.424   114129754.427        -520.415          30.000  
> 2019  6 16  1 25 59.0000000  0  7                     
G 1  21474738.995   114425885.722        -521.047          37.000  
G 4  21474731.672   114425839.419        -521.024          46.000  
G 2  21474736.599   114425913.683        -521.029          44.000  
G 6  21474507.535   114424718.2723       -521.036          45.000  
G11  21639721.642                        -520.288          31.000  
G 3  21474731.719   114425840.157        -521.122          43.000  
G12  21418486.791   114130275.665        -521.038          31.000  
> 2019  6 16  1 26  0.0000000  0  8                     
G 1  21474838.266   114426406.921        -521.034          37.000  
G 4  21474831.068   114426360.616        -521.183          47.000  
G 2  21474835.921   114426434.868        -521.224          44.000  
G 6  21474606.917   114425239.4582       -521.091          45.000  
G11  21639822.359   115293453.5323       -522.276          31.000  
G 3  21474830.927   114426361.343        -521.187          44.000  
G22  21529080.392   114711500.3611       -521.102          32.000  
G12  21418586.039   114130796.840        -520.730          32.000  
> 2019  6 16  1 26  1.0000000  0  8                     
G 1  21474937.676   114426928.238        -521.285          37.000  
G 4  21474930.278   114426881.930        -521.371          46.000  
G 2  21474935.275   114426956.182        -521.348          44.000  
G 6  21474706.228   114425762.7683       -521.404          45.000  
G11  21639923.903   115293986.8192       -521.384          31.000  
G 3  21474930.205   114426882.661        -521.149          44.000  
G22  21529179.859   114712021.6872       -521.567          32.000  
G12  21418685.417   114131318.176        -521.512          31.000  
> 2019  6 16  1 26  2.0000000  0  8                     
G 1  21475037.145   114427449.521        -521.252          37.000  
G 4  21475029.530   114427403.193        -521.201          46.000  
G 2  21475034.540   114427477.454        -521.403          45.000  
G 6  21474805.443   114426284.0412       -521.259          46.000  
G11  21640022.816   115294508.0692       -521.266          31.000  
G 3  21475029.494   114427403.924        -521.075          44.000  
G22  21529279.279   114712542.9382       -520.931          32.000  
G12  21418784.804   114131839.437        -521.483          31.000  
> 2019  6 16  1 26  3.0000000  0  8                     
G 1  21475136.343   114427970.643        -520.885          37.000  
G 4  21475128.794   114427924.342        -521.002          46.000  
G 2  21475133.796   114427998.594        -521.033          44.000  
G 6  21474904.831   114426805.1962       -521.212          46.000  
G11  21640121.531   115295029.2202       -521.008          32.000  
G 3  21475128.828   114427925.078        -520.970          43.000  
G22  21529378.668   114713064.0972       -520.917          33.000  
G12  21418884.102   114132360.576        -521.205          31.000  
> 2019  6 16  1 26  4.0000000  0  8                     
G 1  21475235.732   114428491.784        -520.714          37.000  
G 4  21475228.016   114428445.501        -521.278          46.000  
G 2  21475233.079   114428519.746        -521.107          45.000  
G 6  21475004.147   114427326.3482       -521.309          46.000  
G11  21640222.357   115295550.4222       -521.900          31.000  
G 3  21475228.084   114428446.241        -521.154          44.000  
G22  21529478.011   114713585.2282       -520.602          32.000  
G12  21418983.345   114132881.772        -521.544          32.000  
> 2019  6 16  1 26  5.0000000  0  8                     
G 1  21475335.001   114429012.980        -521.381          37.000  
G 4  21475327.354   114428966.664        -521.444          47.000  
G 2  21475332.354   114429040.918        -521.346          45.000  
G 6  21475103.327   114427847.5112       -521.417          45.000  
G11  21640320.875   115296073.5683       -521.714          32.000  
G 3  21475327.306   114428967.405        -521.318          44.000  
G22  21529577.333   114714106.3902       -521.257          32.000  
G12  21419082.589   114133402.926        -521.764          31.000  
> 2019  6 16  1 26  6.0000000  0  8                     
G 1  21475434.187   114429534.177        -521.244          37.000  
G 4  21475426.737   114429487.883        -521.398          46.000  
G 2  21475431.562   114429562.129        -521.256          44.000  
G 6  21475202.704   114428368.7262       -521.365          45.000  
G11  21640419.881   115296594.7702       -521.750          32.000  
G 3  21475426.630   114429488.609        -521.233          44.000  
G22  21529676.613   114714627.6192       -521.034          32.000  
G12  21419181.828   114133924.156        -521.829          31.000  
> 2019  6 16  1 26  7.0000000  0  8                     
G 1  21475533.368   114430055.419        -521.083          38.000  
G 4  21475525.995   114430009.140        -521.406          47.000  
G 2  21475530.774   114430083.375        -521.205          45.000  
G 6  21475302.014   114428889.976        -521.375          45.000  
G11  21640519.088   115297115.5581       -522.578          32.000  
G 3  21475525.994   114430009.856        -521.226          44.000  
G22  21529775.962   114715148.871        -521.252          32.000  
G12  21419281.146   114134445.379        -521.560          31.000  
> 2019  6 16  1 26  8.0000000  0  8                     
G 1  21475632.837   114430576.740        -521.447          37.000  
G 4  21475625.278   114430530.438        -521.493          46.000  
G 2  21475630.142   114430604.684        -521.266          44.000  
G 6  21475401.212   114429411.274        -521.334          45.000  
G11  21640618.411   115297636.873        -521.796          32.000  
G 3  21475625.199   114430531.160        -521.304          44.000  
G22  21529875.323   114715670.153        -521.243          32.000  
G12  21419380.432   114134966.674        -521.543          31.000  
> 2019  6 16  1 26  9.0000000  0  8                     
G 1  21475732.064   114431097.958        -521.195          37.000  
G 4  21475724.548   114431051.657        -521.213          46.000  
G 2  21475729.435   114431125.910        -521.110          45.000  
G 6  21475500.326   114429932.504        -521.326          45.000  
G11  21640717.659   115298158.086        -521.780          31.000  
G 3  21475724.390   114431052.386        -521.146          43.000  
G22  21529974.775   114716191.441        -521.301          32.000  
G12  21419479.714   114135487.933        -521.538          31.000  
> 2019  6 16  1 26 10.0000000  0  8                     
G 1  21475831.393   114431619.197        -521.143          37.000  
G 4  21475823.858   114431572.896        -521.166          47.000  
G 2  21475828.716   114431647.157        -521.219          44.000  
G 6  21475599.632   114430453.734        -521.204          46.000  
G11  21640816.819   115298679.302        -521.261          31.000  
G 3  21475823.659   114431573.624        -521.117          44.000  
G22  21530074.048   114716712.641        -521.232          31.000  
G12  21419579.023   114136009.167        -521.632          30.000  
> 2019  6 16  1 26 11.0000000  0  8                     
G 1  21475930.600   114432140.318        -521.033          37.000  
G 4  21475923.005   114432094.018        -521.277          47.000  
G 2  21475928.075   114432168.275        -520.989          44.000  
G 6  21475698.923   114430974.858        -521.217          46.000  
G11  21640915.986   115299200.451        -521.746          31.000  
G 3  21475922.864   114432094.744        -520.939          44.000  
G22  21530173.148   114717233.776        -521.418          32.000  
G12  21419678.325   114136530.174        -519.625          31.000  
> 2019  6 16  1 26 12.0000000  0  8                     
G 1  21476029.896   114432661.407        -521.122          37.000  
G 4  21476022.203   114432615.093        -521.311          46.000  
G 2  21476027.336   114432689.351        -521.359          44.000  
G 6  21475798.094   114431495.928        -521.261          46.000  
G11  21641015.241   115299721.460        -520.287          31.000  
G 3  21476022.164   114432615.804        -521.091          44.000  
G22  21530272.498   114717754.834        -521.443          32.000  
G12  21419777.472   114137051.353        -521.378          31.000  
> 2019  6 16  1 26 13.0000000  0  8                     
G 1  21476129.271   114433182.520        -521.458          37.000  
G 4  21476121.463   114433136.203        -521.333          46.000  
G 2  21476126.557   114433210.456        -521.056          44.000  
G 6  21475897.245   114432017.042        -521.161          45.000  
G11  21641114.586   115300242.631        -521.467          32.000  
G 3  21476121.487   114433136.925        -521.057          44.000  
G22  21530371.770   114718275.963        -521.333          32.000  
G12  21419876.649   114137572.436        -521.086          31.000  
> 2019  6 16  1 26 14.0000000  0  8                     
G 1  21476228.622   114433703.736        -521.255          37.000  
G 4  21476220.664   114433657.423        -521.249          46.000  
G 2  21476225.826   114433731.673        -521.152          45.000  
G 6  21475996.535   114432538.260        -521.171          45.000  
G11  21641213.822   115300763.830        -521.189          32.000  
G 3  21476220.838   114433658.155        -521.245          44.000  
G22  21530471.039   114718797.175        -521.388          32.000  
G12  21419975.924   114138093.657        -521.093          31.000  
> 2019  6 16  1 26 15.0000000  0  8                     
G 1  21476327.975   114434224.982        -520.797          37.000  
G 4  21476319.901   114434178.688        -521.150          46.000  
G 2  21476325.124   114434252.936        -521.031          45.000  
G 6  21476095.764   114433059.526        -521.057          45.000  
G11  21641313.163   115301285.124        -522.050          31.000  
G 3  21476320.079   114434179.412        -521.118          44.000  
G22  21530570.226   114719318.440        -521.522          32.000  
G12  21420075.236   114138614.927        -521.060          31.000  
> 2019  6 16  1 26 16.0000000  0  8                     
G 1  21476427.504   114434746.250        -521.023          37.000  
G 4  21476419.297   114434699.938        -521.357          46.000  
G 2  21476424.402   114434774.189        -521.251          44.000  
G 6  21476195.076   114433580.770        -521.237          45.000  
G11  21641412.486   115301806.341        -520.823          31.000  
G 3  21476419.326   114434700.672        -521.288          44.000  
G22  21530669.478   114719839.685        -521.639          32.000  
G12  21420174.462   114139136.186        -521.172          31.000  
> 2019  6 16  1 26 17.0000000  0  8                     
G 1  21476526.748   114435267.445        -521.248          37.000  
G 4  21476518.548   114435221.125        -521.143          46.000  
G 2  21476523.570   114435295.388        -521.216          45.000  
G 6  21476294.278   114434101.965        -521.063          45.000  
G11  21641511.715   115302327.525        -521.067          32.000  
G 3  21476518.548   114435221.861        -521.094          43.000  
G22  21530768.617   114720360.878        -521.326          31.000  
G12  21420273.646   114139657.365        -520.900          31.000  
> 2019  6 16  1 26 18.0000000  0  8                     
G 1  21476625.833   114435788.588        -521.328          38.000  
G 4  21476617.694   114435742.290        -521.486          47.000  
G 2  21476622.815   114435816.542        -521.266          45.000  
G 6  21476393.675   114434623.129        -521.342          46.000  
G11  21641610.991   115302848.693        -521.681          31.000  
G 3  21476617.788   114435743.021        -521.434          44.000  
G22  21530867.878   114720882.018        -521.311          31.000  
G12  21420372.897   114140178.527        -521.357          30.000  
> 2019  6 16  1 26 19.0000000  0  8                     
G 1  21476724.959   114436309.801        -520.916          37.000  
G 4  21476716.966   114436263.504        -520.973          46.000  
G 2  21476722.099   114436337.768        -521.146          45.000  
G 6  21476492.923   114435144.354        -521.156          46.000  
G11  21641710.219   115303369.887        -520.819          32.000  
G 3  21476717.034   114436264.236        -521.127          44.000  
G22  21530967.284   114721403.272        -520.995          32.000  
G12  21420472.137   114140699.752        -521.046          31.000  
> 2019  6 16  1 26 20.0000000  0  8                     
G 1  21476823.935   114436831.059        -521.152          37.000  
G 4  21476816.267   114436784.765        -521.218          46.000  
G 2  21476821.302   114436859.015        -521.229          44.000  
G 6  21476592.157   114435665.619        -521.232          46.000  
G11  21641809.451   115303891.135        -520.751          31.000  
G 3  21476816.286   114436785.500        -521.371          43.000  
G22  21531066.766   114721924.535        -521.104          31.000  
G12  21420571.570   114141221.010        -520.577          31.000  
> 2019  6 16  1 26 21.0000000  0  8                     
G 1  21476923.102   114437352.361        -521.196          37.000  
G 4  21476915.531   114437306.053        -521.183          46.000  
G 2  21476920.522   114437380.299        -521.342          44.000  
G 6  21476691.565   114436186.894        -521.265          46.000  
G11  21641908.608   115304412.432        -520.971          31.000  
G 3  21476915.661   114437306.782        -521.278          44.000  
G22  21531165.989   114722445.811        -521.178          32.000  
G12  21420670.809   114141742.300        -521.290          31.000  
> 2019  6 16  1 26 22.0000000  0  8                     
G 1  21477022.523   114437873.648        -521.399          37.000  
G 4  21477014.872   114437827.326        -521.139          47.000  
G 2  21477019.832   114437901.588        -521.301          44.000  
G 6  21476790.921   114436708.180        -521.329          46.000  
G11  21642007.953   115304933.714        -521.065          31.000  
G 3  21477014.958   114437828.064        -521.255          44.000  
G22  21531265.302   114722967.080        -521.074          31.000  
G12  21420770.068   114142263.585        -521.151          31.000  
> 2019  6 16  1 26 23.0000000  0  8                     
G 1  21477121.851   114438394.861        -521.218          37.000  
G 4  21477114.307   114438348.553        -521.210          46.000  
G 2  21477119.124   114438422.807        -521.332          44.000  
G 6  21476890.217   114437229.399        -521.345          46.000  
G11  21642107.277   115305454.923        -520.742          32.000  
G 3  21477114.285   114438349.288        -521.410          44.000  
G22  21531364.663   114723488.290        -520.806          31.000  
G12  21420869.372   114142784.747        -520.295          31.000  
> 2019  6 16  1 26 24.0000000  0  8                     
G 1  21477221.258   114438916.051        -521.096          37.000  
G 4  21477213.569   114438869.746        -521.105          46.000  
G 2  21477218.408   114438944.014        -521.299          44.000  
G 6  21476989.409   114437750.592        -521.187          46.000  
G11  21642206.567   115305976.116        -520.706          31.000  
G 3  21477213.570   114438870.470        -521.116          43.000  
G22  21531463.956   114724009.494        -521.250          32.000  
G12  21420968.614   114143305.995        -521.342          31.000  
> 2019  6 16  1 26 25.0000000  0  8                     
G 1  21477320.499   114439437.396        -521.664          37.000  
G 4  21477312.885   114439391.070        -521.219          46.000  
G 2  21477317.788   114439465.327        -521.429          45.000  
G 6  21477088.751   114438271.910        -521.252          46.000  
G11  21642305.957   115306497.439        -520.500          32.000  
G 3  21477312.911   114439391.789        -521.244          43.000  
G22  21531563.334   114724530.827        -521.160          32.000  
G12  21421067.873   114143827.317        -521.960          31.000  
> 2019  6 16  1 26 26.0000000  0  8                     
G 1  21477419.683   114439958.636        -520.934          37.000  
G 4  21477412.248   114439912.343        -520.955          46.000  
G 2  21477417.114   114439986.612        -521.165          44.000  
G 6  21477188.052   114438793.194        -521.019          46.000  
G11  21642405.297   115307018.736        -521.286          31.000  
G 3  21477412.099   114439913.062        -521.135          43.000  
G22  21531662.702   114725052.088        -520.946          32.000  
G12  21421167.082   114144348.598        -521.171          31.000  
> 2019  6 16  1 26 27.0000000  0  8                     
G 1  21477518.869   114440479.806        -521.246          37.000  
G 4  21477511.471   114440433.494        -521.088          47.000  
G 2  21477516.355   114440507.769        -521.544          44.000  
G 6  21477287.327   114439314.353        -521.356          46.000  
G11  21642504.409   115307539.900        -520.866          32.000  
G 3  21477511.316   114440434.250        -521.428          43.000  
G22  21531762.009   114725573.241        -521.331          32.000  
G12  21421266.352   114144869.744        -521.978          31.000  
> 2019  6 16  1 26 28.0000000  0  8                     
G 1  21477618.130   114441000.932        -521.268          37.000  
G 4  21477610.684   114440954.642        -521.321          46.000  
G 2  21477615.572   114441028.899        -521.534          44.000  
G 6  21477386.579   114439835.477        -521.324          46.000  
G11  21642603.609   115308061.035        -521.382          32.000  
G 3  21477610.599   114440955.378        -521.360          43.000  
G22  21531861.376   114726094.379        -521.111          31.000  
G12  21421365.663   114145390.843        -521.020          30.000  
> 2019  6 16  1 26 29.0000000  0  8                     
G 1  21477717.286   114441522.157        -521.356          37.000  
G 4  21477710.000   114441475.841        -521.094          46.000  
G 2  21477714.771   114441550.106        -521.310          44.000  
G 6  21477485.745   114440356.688        -521.238          46.000  
G11  21642702.818   115308582.220        -520.612          31.000  
G 3  21477709.971   114441476.571        -521.184          44.000  
G22  21531960.504   114726615.591        -521.086          32.000  
G12  21421464.845   114145912.101        -521.595          30.000  
> 2019  6 16  1 26 30.0000000  0  8                     
G 1  21477816.770   114442043.438        -521.482          37.000  
G 4  21477809.183   114441997.110        -521.102          46.000  
G 2  21477814.156   114442071.377        -521.222          44.000  
G 6  21477585.089   114440877.955        -521.178          46.000  
G11  21642802.076   115309103.511        -520.914          31.000  
G 3  21477809.217   114441997.850        -521.211          44.000  
G22  21532059.723   114727136.877        -521.132          32.000  
G12  21421564.061   114146433.343        -521.062          30.000  
> 2019  6 16  1 26 31.0000000  0  8                     
G 1  21477916.074   114442564.607        -521.569          37.000  
G 4  21477908.394   114442518.290        -521.261          46.000  
G 2  21477913.405   114442592.562        -521.284          44.000  
G 6  21477684.377   114441399.130        -521.182          46.000  
G11  21642901.277   115309624.686        -521.063          32.000  
G 3  21477908.515   114442519.018        -521.204          44.000  
G22  21532159.189   114727658.034        -520.903          33.000  
G12  21421663.249   114146954.534        -521.228          31.000  
> 2019  6 16  1 26 32.0000000  0  8                     
G 1  21478015.279   114443085.817        -521.349          37.000  
G 4  21478007.611   114443039.519        -521.483          46.000  
G 2  21478012.602   114443113.784        -521.517          44.000  
G 6  21477783.713   114441920.364        -521.289          46.000  
G11  21643000.528   115310145.911        -521.141          31.000  
G 3  21478007.793   114443040.248        -521.323          44.000  
G22  21532258.669   114728179.283        -521.395          32.000  
G12  21421762.506   114147475.750        -521.621          30.000  
> 2019  6 16  1 26 33.0000000  0  8                     
G 1  21478114.451   114443607.062        -521.595          37.000  
G 4  21478106.876   114443560.748        -521.202          46.000  
G 2  21478111.882   114443635.012        -521.241          45.000  
G 6  21477882.966   114442441.592        -520.997          45.000  
G11  21643099.801   115310667.144        -521.115          32.000  
G 3  21478107.109   114443561.487        -521.257          43.000  
G22  21532357.899   114728700.531        -521.368          32.000  
G12  21421861.716   114147996.995        -521.819          30.000  
> 2019  6 16  1 26 34.0000000  0  8                     
G 1  21478213.789   114444128.285        -521.609          37.000  
G 4  21478206.160   114444081.981        -521.602          46.000  
G 2  21478211.191   114444156.251        -521.670          44.000  
G 6  21477982.366   114442962.828        -521.522          46.000  
G11  21643198.992   115311188.347        -521.293          32.000  
G 3  21478206.401   114444082.711        -521.562          43.000  
G22  21532457.132   114729221.727        -521.521          32.000  
G12  21421961.148   114148518.194        -521.487          31.000  
> 2019  6 16  1 26 35.0000000  0  8                     
G 1  21478312.995   114444649.538        -521.332          37.000  
G 4  21478305.351   114444603.236        -521.345          46.000  
G 2  21478310.517   114444677.504        -521.334          44.000  
G 6  21478081.600   114443484.078        -521.149          46.000  
G11  21643298.259   115311709.641        -521.360          31.000  
G 3  21478305.674   114444603.978        -521.351          44.000  
G22  21532556.366   114729743.012        -521.472          32.000  
G12  21422060.491   114149039.440        -521.177          31.000  
> 2019  6 16  1 26 36.0000000  0  8                     
G 1  21478412.089   114445170.683        -521.097          37.000  
G 4  21478404.711   114445124.392        -521.292          46.000  
G 2  21478409.805   114445198.653        -521.127          44.000  
G 6  21478180.812   114444005.225        -521.071          46.000  
G11  21643397.572   115312230.791        -521.425          31.000  
G 3  21478404.950   114445125.112        -521.245          43.000  
G22  21532655.617   114730264.138        -521.508          31.000  
G12  21422159.637   114149560.602        -521.133          31.000  
> 2019  6 16  1 26 37.0000000  0  8                     
G 1  21478511.299   114445691.831        -521.326          37.000  
G 4  21478504.092   114445645.525        -521.199          46.000  
G 2  21478509.055   114445719.787        -521.082          44.000  
G 6  21478280.096   114444526.364        -521.095          46.000  
G11  21643496.803   115312751.912        -520.840          32.000  
G 3  21478504.262   114445646.244        -521.017          44.000  
G22  21532754.669   114730785.293        -521.635          31.000  
G12  21422258.824   114150081.773        -521.311          31.000  
> 2019  6 16  1 26 38.0000000  0  8                     
G 1  21478610.630   114446212.952        -521.301          37.000  
G 4  21478603.393   114446166.656        -521.179          47.000  
G 2  21478608.384   114446240.911        -521.107          44.000  
G 6  21478379.271   114445047.489        -521.063          46.000  
G11  21643596.011   115313273.035        -521.497          31.000  
G 3  21478603.478   114446167.368        -521.112          44.000  
G22  21532853.976   114731306.411        -521.357          32.000  
G12  21422357.990   114150602.878        -520.664          31.000  
> 2019  6 16  1 26 39.0000000  0  8                     
G 1  21478709.786   114446734.155        -521.488          37.000  
G 4  21478702.754   114446687.845        -521.379          46.000  
G 2  21478707.619   114446762.109        -521.359          45.000  
G 6  21478478.480   114445568.682        -521.276          46.000  
G11  21643695.237   115313794.219        -521.278          32.000  
G 3  21478702.642   114446688.570        -521.165          44.000  
G22  21532953.157   114731827.601        -521.285          32.000  
G12  21422457.169   114151124.073        -521.516          30.000  
> 2019  6 16  1 26 40.0000000  0  8                     
G 1  21478809.010   114447255.343        -521.478          37.000  
G 4  21478802.060   114447209.032        -521.345          47.000  
G 2  21478806.829   114447283.297        -521.295          44.000  
G 6  21478577.737   114446089.865        -521.177          46.000  
G11  21643794.524   115314315.467        -521.573          31.000  
G 3  21478801.968   114447209.761        -521.326          44.000  
G22  21533052.489   114732348.798        -521.655          32.000  
G12  21422556.513   114151645.264        -521.343          31.000  
> 2019  6 16  1 26 41.0000000  0  8                     
G 1  21478908.342   114447776.532        -521.527          37.000  
G 4  21478901.305   114447730.232        -521.472          46.000  
G 2  21478906.115   114447804.482        -521.327          44.000  
G 6  21478677.193   114446611.064        -521.361          46.000  
G11  21643893.842   115314836.618        -521.899          31.000  
G 3  21478901.172   114447730.950        -521.460          44.000  
G22  21533151.803   114732869.989        -521.538          32.000  
G12  21422655.757   114152166.454        -521.516          31.000  
> 2019  6 16  1 26 42.0000000  0  8                     
G 1  21479007.707   114448297.755        -520.997          37.000  
G 4  21479000.557   114448251.461        -521.091          47.000  
G 2  21479005.415   114448325.721        -521.010          44.000  
G 6  21478776.480   114447132.297        -521.055          46.000  
G11  21643993.161   115315357.874        -521.381          31.000  
G 3  21479000.445   114448252.183        -521.152          44.000  
G22  21533251.137   114733391.205        -521.018          31.000  
G12  21422755.033   114152687.700        -521.293          30.000  
> 2019  6 16  1 26 43.0000000  0  8                     
G 1  21479106.829   114448818.987        -521.029          37.000  
G 4  21479099.809   114448772.698        -521.265          47.000  
G 2  21479104.751   114448846.957        -520.991          44.000  
G 6  21478875.765   114447653.538        -521.208          46.000  
G11  21644092.397   115315879.116        -521.544          31.000  
G 3  21479099.770   114448773.428        -521.260          44.000  
G22  21533350.412   114733912.459        -521.497          31.000  
G12  21422854.270   114153208.919        -520.857          30.000  
> 2019  6 16  1 26 44.0000000  0  8                     
G 1  21479206.149   114449340.013        -520.817          37.000  
G 4  21479199.066   114449293.712        -520.880          46.000  
G 2  21479203.953   114449367.977        -520.942          44.000  
G 6  21478975.028   114448174.564        -520.919          46.000  
G11  21644191.641   115316400.124        -521.102          32.000  
G 3  21479199.012   114449294.451        -520.980          43.000  
G22  21533449.601   114734433.482        -521.118          31.000  
G12  21422953.505   114153729.962        -521.127          31.000  
> 2019  6 16  1 26 45.0000000  0  8                     
G 1  21479305.387   114449861.002        -520.891          37.000  
G 4  21479298.234   114449814.702        -520.867          47.000  
G 2  21479303.197   114449888.977        -521.017          45.000  
G 6  21479074.280   114448695.545        -520.959          46.000  
G11  21644290.916   115316921.129        -521.424          32.000  
G 3  21479298.188   114449815.435        -520.906          44.000  
G22  21533548.863   114734954.467        -521.108          31.000  
G12  21423052.692   114154250.947        -521.084          31.000  
> 2019  6 16  1 26 46.0000000  0  8                     
G 1  21479404.713   114450382.122        -520.636          37.000  
G 4  21479397.455   114450335.837        -521.211          46.000  
G 2  21479402.417   114450410.087        -520.862          44.000  
G 6  21479173.456   114449216.675        -521.211          46.000  
G11  21644390.170   115317442.278        -522.083          32.000  
G 3  21479397.426   114450336.565        -521.119          44.000  
G22  21533648.143   114735475.582        -521.312          31.000  
G12  21423151.913   114154772.091        -521.403          31.000  
> 2019  6 16  1 26 47.0000000  0  8                     
G 1  21479503.859   114450903.141        -520.748          37.000  
G 4  21479496.650   114450856.861        -520.964          46.000  
G 2  21479501.638   114450931.117        -520.830          44.000  
G 6  21479272.677   114449737.698        -520.792          45.000  
G11  21644489.367   115317963.260        -521.509          32.000  
G 3  21479496.724   114450857.581        -520.884          44.000  
G22  21533747.520   114735996.596        -520.815          32.000  
G12  21423251.121   114155293.079        -520.493          32.000  
> 2019  6 16  1 26 48.0000000  0  8                     
G 1  21479603.070   114451424.295        -521.151          37.000  
G 4  21479596.020   114451378.002        -521.167          47.000  
G 2  21479600.923   114451452.259        -521.178          44.000  
G 6  21479372.055   114450258.847        -521.243          45.000  
G11  21644588.574   115318484.426        -521.893          32.000  
G 3  21479595.944   114451378.736        -521.167          44.000  
G22  21533846.754   114736517.773        -521.138          32.000  
G12  21423350.357   114155814.259        -521.116          32.000  
> 2019  6 16  1 26 49.0000000  0  8                     
G 1  21479702.160   114451945.383        -521.088          37.000  
G 4  21479695.258   114451899.092        -521.151          46.000  
G 2  21479700.150   114451973.344        -521.047          44.000  
G 6  21479471.267   114450779.937        -521.232          45.000  
G11  21644687.674   115319005.507        -521.965          32.000  
G 3  21479695.146   114451899.824        -521.196          44.000  
G22  21533946.145   114737038.835        -521.184          32.000  
G12  21423449.643   114156335.323        -521.013          31.000  
> 2019  6 16  1 26 50.0000000  0  8                     
G 1  21479801.261   114452466.519        -521.202          37.000  
G 4  21479794.544   114452420.208        -520.878          46.000  
G 2  21479799.402   114452494.475        -521.017          44.000  
G 6  21479570.461   114451301.056        -521.030          46.000  
G11  21644786.893   115319526.602        -520.997          32.000  
G 3  21479794.385   114452420.941        -521.017          44.000  
G22  21534045.280   114737559.986        -521.212          32.000  
G12  21423548.882   114156856.448        -521.193          31.000  
> 2019  6 16  1 26 51.0000000  0  8                     
G 1  21479900.516   114452987.636        -521.710          37.000  
G 4  21479893.782   114452941.306        -520.922          46.000  
G 2  21479898.724   114453015.572        -521.014          44.000  
G 6  21479669.813   114451822.156        -521.147          46.000  
G11  21644886.205   115320047.705        -520.903          32.000  
G 3  21479893.732   114452942.047        -521.130          44.000  
G22  21534144.516   114738081.069        -521.338          33.000  
G12  21423648.221   114157377.571        -521.354          31.000  
> 2019  6 16  1 26 52.0000000  0  8                     
G 1  21479999.954   114453508.759        -521.207          37.000  
G 4  21479992.981   114453462.446        -521.007          46.000  
G 2  21479997.927   114453536.712        -521.106          44.000  
G 6  21479769.012   114452343.300        -521.188          46.000  
G11  21644985.482   115320568.869        -521.510          32.000  
G 3  21479993.033   114453463.181        -521.041          44.000  
G22  21534243.799   114738602.211        -521.202          32.000  
G12  21423747.500   114157898.714        -521.489          31.000  
> 2019  6 16  1 26 53.0000000  0  8                     
G 1  21480099.146   114454029.828        -521.245          37.000  
G 4  21480092.276   114453983.517        -520.938          46.000  
G 2  21480097.178   114454057.774        -520.980          44.000  
G 6  21479868.216   114452864.363        -521.086          45.000  
G11  21645084.661   115321089.940        -521.168          31.000  
G 3  21480092.317   114453984.248        -520.963          44.000  
G22  21534342.887   114739123.284        -521.379          31.000  
G12  21423846.768   114158419.757        -521.140          31.000  
> 2019  6 16  1 26 54.0000000  0  8                     
G 1  21480198.404   114454550.957        -521.467          37.000  
G 4  21480191.511   114454504.620        -520.917          46.000  
G 2  21480196.412   114454578.888        -521.038          44.000  
G 6  21479967.374   114453385.470        -521.028          46.000  
G11  21645183.962   115321611.001        -520.229          31.000  
G 3  21480191.536   114454505.349        -520.941          44.000  
G22  21534442.179   114739644.381        -521.375          33.000  
G12  21423945.998   114158940.876        -521.082          31.000  
> 2019  6 16  1 26 55.0000000  0  8                     
G 1  21480297.517   114455072.065        -521.553          37.000  
G 4  21480290.737   114455025.745        -521.138          46.000  
G 2  21480295.685   114455100.008        -521.204          44.000  
G 6  21480066.666   114453906.592        -521.121          45.000  
G11  21645283.274   115322132.170        -521.822          31.000  
G 3  21480290.778   114455026.470        -520.957          44.000  
G22  21534541.448   114740165.526        -521.260          31.000  
G12  21424045.241   114159461.992        -521.079          31.000  
> 2019  6 16  1 26 56.0000000  0  8                     
G 1  21480396.846   114455593.284        -521.671          37.000  
G 4  21480390.152   114455546.967        -521.343          46.000  
G 2  21480394.984   114455621.229        -521.323          44.000  
G 6  21480165.832   114454427.817        -521.453          45.000  
G11  21645382.621   115322653.340        -521.054          31.000  
G 3  21480389.974   114455547.695        -521.373          44.000  
G22  21534640.856   114740686.744        -521.709          31.000  
G12  21424144.496   114159983.198        -521.432          30.000  
> 2019  6 16  1 26 57.0000000  0  8                     
G 1  21480496.096   114456114.469        -521.512          37.000  
G 4  21480489.390   114456068.145        -521.234          46.000  
G 2  21480494.241   114456142.413        -521.293          44.000  
G 6  21480265.136   114454948.993        -521.288          45.000  
G11  21645481.892   115323174.553        -521.018          31.000  
G 3  21480489.159   114456068.875        -521.183          44.000  
G22  21534740.146   114741207.920        -521.659          32.000  
G12  21424243.904   114160504.358        -520.465          30.000  
> 2019  6 16  1 26 58.0000000  0  8                     
G 1  21480595.329   114456635.608        -521.630          37.000  
G 4  21480588.599   114456589.289        -521.396          46.000  
G 2  21480593.454   114456663.555        -521.345          44.000  
G 6  21480364.529   114455470.139        -521.420          45.000  
G11  21645581.097   115323695.693        -521.228          32.000  
G 3  21480588.495   114456590.016        -521.321          44.000  
G22  21534839.431   114741729.064        -521.724          32.000  
G12  21424343.101   114161025.549        -521.587          30.000  
> 2019  6 16  1 26 59.0000000  0  8                     
G 1  21480694.800   114457156.748        -521.561          37.000  
G 4  21480687.913   114457110.409        -521.100          46.000  
G 2  21480692.642   114457184.676        -521.260          44.000  
G 6  21480463.729   114455991.266        -521.232          45.000  
G11  21645680.392   115324216.832        -521.781          31.000  
G 3  21480687.725   114457111.134        -521.001          44.000  
G22  21534938.718   114742250.174        -521.359          32.000  
G12  21424442.368   114161546.647        -521.482          31.000  
> 2019  6 16  1 27  0.0000000  0  8                     
G 1  21480794.254   114457677.882        -520.812          37.000  
G 4  21480787.195   114457631.553        -521.252          46.000  
G 2  21480791.898   114457705.841        -520.894          44.000  
G 6  21480563.012   114456512.426        -521.178          45.000  
G11  21645779.712   115324737.979        -520.924          31.000  
G 3  21480786.948   114457632.290        -520.804          44.000  
G22  21535037.859   114742771.321        -520.792          32.000  
G12  21424541.545   114162067.820        -520.970          31.000  
> 2019  6 16  1 27  1.0000000  0  8                     
G 1  21480893.539   114458199.059        -520.793          37.000  
G 4  21480886.532   114458152.735        -521.161          46.000  
G 2  21480891.151   114458227.005        -521.239          43.000  
G 6  21480662.347   114457033.590        -521.053          45.000  
G11  21645878.983   115325259.174        -521.269          31.000  
G 3  21480886.178   114458153.473        -521.216          44.000  
G22  21535137.040   114743292.493        -521.090          32.000  
G12  21424640.751   114162588.991        -521.207          31.000  
> 2019  6 16  1 27  2.0000000  0  8                     
G 1  21480992.808   114458720.118        -520.575          37.000  
G 4  21480985.785   114458673.808        -521.041          46.000  
G 2  21480990.362   114458748.085        -521.016          43.000  
G 6  21480761.621   114457554.659        -520.940          45.000  
G11  21645978.260   115325780.247        -520.773          31.000  
G 3  21480985.473   114458674.561        -521.140          44.000  
G22  21535236.342   114743813.593        -521.031          33.000  
G12  21424739.962   114163110.066        -521.357          31.000  
> 2019  6 16  1 27  3.0000000  0  8                     
G 1  21481092.051   114459241.163        -521.084          37.000  
G 4  21481084.898   114459194.839        -521.067          46.000  
G 2  21481089.583   114459269.100        -521.051          44.000  
G 6  21480860.833   114458075.684        -521.057          45.000  
G11  21646077.542   115326301.265        -521.140          31.000  
G 3  21481084.657   114459195.570        -520.938          44.000  
G22  21535335.607   114744334.616        -521.251          32.000  
G12  21424839.182   114163631.089        -521.481          31.000  
> 2019  6 16  1 27  4.0000000  0  8                     
G 1  21481191.193   114459762.147        -520.924          37.000  
G 4  21481184.109   114459715.847        -521.035          45.000  
G 2  21481188.898   114459790.103        -520.884          44.000  
G 6  21480959.963   114458596.686        -520.991          44.000  
G11  21646176.782   115326822.223        -519.974          31.000  
G 3  21481183.884   114459716.570        -520.724          44.000  
G22  21535434.745   114744855.620        -521.060          31.000  
G12  21424938.368   114164152.108        -521.356          31.000  
> 2019  6 16  1 27  5.0000000  0  8                     
G 1  21481290.174   114460283.192        -520.743          37.000  
G 4  21481283.352   114460236.885        -520.956          45.000  
G 2  21481288.114   114460311.149        -520.825          44.000  
G 6  21481059.127   114459117.736        -520.813          45.000  
G11  21646276.045   115327343.298        -520.560          31.000  
G 3  21481283.138   114460237.620        -520.673          44.000  
G22  21535533.989   114745376.657        -520.740          32.000  
G12  21425037.601   114164673.113        -520.588          31.000  
> 2019  6 16  1 27  6.0000000  0  8                     
G 1  21481389.544   114460804.251        -520.795          37.000  
G 4  21481382.673   114460757.928        -520.930          45.000  
G 2  21481387.403   114460832.184        -520.852          44.000  
G 6  21481158.490   114459638.785        -521.039          45.000  
G11  21646375.257   115327864.291        -520.176          31.000  
G 3  21481382.438   114460758.667        -520.906          44.000  
G22  21535633.187   114745897.696        -521.045          33.000  
G12  21425137.052   114165194.180        -521.614          31.000  
> 2019  6 16  1 27  7.0000000  0  8                     
G 1  21481488.876   114461325.398        -520.781          37.000  
G 4  21481481.817   114461279.089        -521.147          45.000  
G 2  21481486.695   114461353.355        -521.024          44.000  
G 6  21481257.775   114460159.943        -521.062          45.000  
G11  21646474.454   115328385.484        -520.728          32.000  
G 3  21481481.732   114461279.823        -520.881          44.000  
G22  21535732.436   114746418.874        -521.089          33.000  
G12  21425236.271   114165715.385        -521.407          30.000  
> 2019  6 16  1 27  8.0000000  0  8                     
G 1  21481588.174   114461846.616        -521.107          37.000  
G 4  21481580.922   114461800.301        -521.282          45.000  
G 2  21481585.911   114461874.568        -521.323          44.000  
G 6  21481357.061   114460681.153        -521.260          45.000  
G11  21646573.908   115328906.692        -520.897          32.000  
G 3  21481581.009   114461801.041        -521.150          44.000  
G22  21535831.795   114746940.069        -521.274          32.000  
G12  21425335.595   114166236.565        -521.632          30.000  
> 2019  6 16  1 27  9.0000000  0  8                     
G 1  21481687.464   114462367.816        -520.663          37.000  
G 4  21481680.116   114462321.504        -521.073          45.000  
G 2  21481685.133   114462395.759        -520.981          44.000  
G 6  21481456.187   114461202.352        -520.953          45.000  
G11  21646673.214   115329427.868        -520.259          32.000  
G 3  21481680.374   114462322.225        -520.829          44.000  
G22  21535931.073   114747461.254        -520.759          32.000  
G12  21425434.798   114166757.755        -521.562          30.000  
> 2019  6 16  1 27 10.0000000  0  8                     
G 1  21481786.779   114462888.888        -520.823          37.000  
G 4  21481779.451   114462842.590        -521.255          45.000  
G 2  21481784.340   114462916.853        -521.265          44.000  
G 6  21481555.400   114461723.437        -521.165          45.000  
G11  21646772.475   115329948.948        -520.271          32.000  
G 3  21481779.810   114462843.330        -521.085          44.000  
G22  21536030.091   114747982.356        -521.039          32.000  
G12  21425534.058   114167278.807        -521.263          30.000  
> 2019  6 16  1 27 11.0000000  0  8                     
G 1  21481885.940   114463409.949        -520.985          37.000  
G 4  21481878.621   114463363.641        -521.367          45.000  
G 2  21481883.564   114463437.923        -521.481          44.000  
G 6  21481654.684   114462244.493        -521.320          45.000  
G11  21646871.822   115330470.017        -520.474          32.000  
G 3  21481879.020   114463364.390        -521.296          44.000  
G22  21536129.344   114748503.414        -521.001          32.000  
G12  21425633.375   114167799.902        -520.979          30.000  
> 2019  6 16  1 27 12.0000000  0  8                     
G 1  21481985.153   114463931.098        -520.868          37.000  
G 4  21481977.813   114463884.803        -521.178          45.000  
G 2  21481982.791   114463959.069        -521.177          44.000  
G 6  21481753.887   114462765.645        -520.974          45.000  
G11  21646971.227   115330991.135        -519.795          32.000  
G 3  21481978.245   114463885.546        -521.100          44.000  
G22  21536228.603   114749024.541        -520.619          32.000  
G12  21425732.668   114168321.034        -520.815          31.000  
> 2019  6 16  1 27 13.0000000  0  8                     
G 1  21482084.156   114464452.287        -521.263          36.000  
G 4  21482077.131   114464405.994        -521.328          45.000  
G 2  21482081.997   114464480.253        -521.312          44.000  
G 6  21481853.176   114463286.831        -521.254          45.000  
G11  21647070.348   115331512.325        -520.017          32.000  
G 3  21482077.444   114464406.727        -521.121          44.000  
G22  21536327.918   114749545.720        -520.410          32.000  
G12  21425831.879   114168842.242        -521.180          30.000  
> 2019  6 16  1 27 14.0000000  0  8                     
G 1  21482183.485   114464973.459        -521.147          37.000  
G 4  21482176.420   114464927.169        -521.281          45.000  
G 2  21482181.274   114465001.427        -521.335          43.000  
G 6  21481952.500   114463808.001        -521.067          45.000  
G11  21647169.543   115332033.506        -520.395          31.000  
G 3  21482176.668   114464927.901        -521.241          44.000  
G22  21536427.188   114750066.928        -521.075          32.000  
G12  21425931.050   114169363.385        -521.171          30.000  
> 2019  6 16  1 27 15.0000000  0  8                     
G 1  21482282.506   114465494.543        -521.183          37.000  
G 4  21482275.716   114465448.244        -521.195          45.000  
G 2  21482280.546   114465522.496        -521.261          44.000  
G 6  21482051.787   114464329.084        -521.127          45.000  
G11  21647268.742   115332554.611        -520.939          31.000  
G 3  21482275.878   114465448.982        -521.199          44.000  
G22  21536526.454   114750587.992        -520.979          31.000  
G12  21426030.413   114169884.454        -520.870          31.000  
> 2019  6 16  1 27 16.0000000  0  8                     
G 1  21482381.887   114466015.627        -521.014          37.000  
G 4  21482374.942   114465969.316        -521.105          45.000  
G 2  21482379.795   114466043.588        -521.271          44.000  
G 6  21482151.039   114464850.163        -521.235          45.000  
G11  21647368.037   115333075.708        -521.375          32.000  
G 3  21482375.181   114465970.058        -521.224          44.000  
G22  21536625.681   114751109.038        -520.538          32.000  
G12  21426129.820   114170405.544        -520.635          30.000  
> 2019  6 16  1 27 17.0000000  0  8                     
G 1  21482481.360   114466536.803        -521.208          37.000  
G 4  21482474.211   114466490.488        -521.304          45.000  
G 2  21482478.983   114466564.744        -521.255          44.000  
G 6  21482250.389   114465371.333        -521.270          45.000  
G11  21647467.259   115333596.856        -521.361          32.000  
G 3  21482474.462   114466491.233        -521.433          44.000  
G22  21536724.875   114751630.256        -521.080          32.000  
G12  21426229.041   114170926.717        -521.021          30.000  
> 2019  6 16  1 27 18.0000000  0  8                     
G 1  21482581.065   114467057.968        -520.940          37.000  
G 4  21482573.459   114467011.645        -520.975          46.000  
G 2  21482578.340   114467085.905        -520.876          44.000  
G 6  21482349.713   114465892.489        -520.977          45.000  
G11  21647566.518   115334118.051        -521.218          32.000  
G 3  21482573.769   114467012.385        -521.055          44.000  
G22  21536824.059   114752151.388        -521.011          32.000  
G12  21426328.350   114171447.888        -520.824          31.000  
> 2019  6 16  1 27 19.0000000  0  8                     
G 1  21482680.505   114467579.135        -521.514          37.000  
G 4  21482672.774   114467532.813        -521.248          45.000  
G 2  21482677.676   114467607.073        -521.243          44.000  
G 6  21482449.061   114466413.647        -521.248          45.000  
G11  21647665.746   115334639.196        -521.490          31.000  
G 3  21482673.073   114467533.550        -521.429          44.000  
G22  21536923.160   114752672.556        -521.545          32.000  
G12  21426427.531   114171969.060        -520.964          31.000  
> 2019  6 16  1 27 20.0000000  0  8                     
G 1  21482779.751   114468100.320        -521.091          37.000  
G 4  21482772.096   114468054.023        -521.219          45.000  
G 2  21482776.895   114468128.288        -521.223          44.000  
G 6  21482548.243   114466934.876        -521.431          45.000  
G11  21647765.045   115335160.420        -520.943          31.000  
G 3  21482772.360   114468054.773        -521.667          44.000  
G22  21537022.457   114753193.807        -522.028          32.000  
G12  21426526.814   114172490.268        -521.351          31.000  
> 2019  6 16  1 27 21.0000000  0  8                     
G 1  21482878.815   114468621.574        -521.193          37.000  
G 4  21482871.460   114468575.265        -521.064          46.000  
G 2  21482876.213   114468649.532        -521.167          44.000  
G 6  21482647.388   114467456.112        -521.185          45.000  
G11  21647864.319   115335681.668        -521.212          32.000  
G 3  21482871.662   114468576.016        -521.420          44.000  
G22  21537121.737   114753715.011        -521.106          33.000  
G12  21426626.286   114173011.500        -521.023          31.000  
> 2019  6 16  1 27 22.0000000  0  8                     
G 1  21482978.112   114469142.723        -521.066          37.000  
G 4  21482970.732   114469096.418        -521.050          45.000  
G 2  21482975.509   114469170.677        -521.091          44.000  
G 6  21482746.719   114467977.268        -521.199          45.000  
G11  21647963.590   115336202.822        -521.220          32.000  
G 3  21482970.957   114469097.164        -521.312          44.000  
G22  21537220.933   114754236.167        -521.083          32.000  
G12  21426725.559   114173532.655        -521.195          31.000  
> 2019  6 16  1 27 23.0000000  0  8                     
G 1  21483077.122   114469663.841        -521.003          37.000  
G 4  21483069.933   114469617.550        -521.158          45.000  
G 2  21483074.838   114469691.826        -521.300          44.000  
G 6  21482845.962   114468498.402        -521.249          45.000  
G11  21648062.927   115336723.966        -521.404          32.000  
G 3  21483070.275   114469618.297        -521.323          44.000  
G22  21537320.247   114754757.296        -520.969          32.000  
G12  21426824.922   114174053.770        -521.125          31.000  
> 2019  6 16  1 27 24.0000000  0  8                     
G 1  21483176.313   114470184.941        -521.171          37.000  
G 4  21483169.236   114470138.643        -521.322          45.000  
G 2  21483174.074   114470212.910        -521.377          44.000  
G 6  21482945.141   114469019.491        -521.456          45.000  
G11  21648162.169   115337245.036        -521.560          32.000  
G 3  21483169.561   114470139.388        -521.515          44.000  
G22  21537419.607   114755278.373        -520.983          32.000  
G12  21426924.207   114174574.877        -520.857          31.000  
> 2019  6 16  1 27 25.0000000  0  8                     
G 1  21483275.690   114470706.127        -520.804          37.000  
G 4  21483268.546   114470659.836        -521.108          45.000  
G 2  21483273.303   114470734.084        -521.017          44.000  
G 6  21483044.511   114469540.678        -521.047          45.000  
G11  21648261.467   115337766.243        -521.941          32.000  
G 3  21483268.702   114470660.567        -521.012          44.000  
G22  21537518.986   114755799.575        -520.741          32.000  
G12  21427023.431   114175096.096        -521.182          31.000  
> 2019  6 16  1 27 26.0000000  0  8                     
G 1  21483374.957   114471227.306        -520.938          37.000  
G 4  21483367.856   114471181.020        -521.248          45.000  
G 2  21483372.502   114471255.276        -521.121          44.000  
G 6  21483143.825   114470061.865        -521.177          45.000  
G11  21648360.676   115338287.408        -521.904          32.000  
G 3  21483367.908   114471181.760        -521.155          44.000  
G22  21537618.275   114756320.772        -520.768          33.000  
G12  21427122.575   114175617.279        -521.089          31.000  
> 2019  6 16  1 27 27.0000000  0  8                     
G 1  21483474.285   114471748.445        -520.935          37.000  
G 4  21483467.155   114471702.157        -521.287          46.000  
G 2  21483471.732   114471776.414        -521.206          44.000  
G 6  21483243.130   114470583.004        -521.271          45.000  
G11  21648459.972   115338808.543        -521.734          32.000  
G 3  21483467.126   114471702.886        -521.118          44.000  
G22  21537717.510   114756841.896        -520.673          32.000  
G12  21427221.794   114176138.413        -521.229          31.000  
> 2019  6 16  1 27 28.0000000  0  8                     
G 1  21483573.595   114472269.579        -520.909          37.000  
G 4  21483566.516   114472223.283        -521.215          45.000  
G 2  21483571.007   114472297.536        -521.149          44.000  
G 6  21483342.490   114471104.127        -521.073          45.000  
G11  21648559.235   115339329.657        -521.380          32.000  
G 3  21483566.291   114472224.005        -520.979          44.000  
G22  21537816.772   114757363.018        -520.852          32.000  
G12  21427320.985   114176659.515        -520.642          31.000  
> 2019  6 16  1 27 29.0000000  0  8                     
G 1  21483672.847   114472790.641        -521.008          37.000  
G 4  21483665.672   114472744.332        -521.133          45.000  
G 2  21483670.161   114472818.606        -521.075          44.000  
G 6  21483441.627   114471625.184        -521.038          45.000  
G11  21648658.498   115339850.734        -521.361          32.000  
G 3  21483665.491   114472745.080        -521.017          44.000  
G22  21537916.009   114757884.099        -520.815          32.000  
G12  21427420.267   114177180.607        -521.288          30.000  
> 2019  6 16  1 27 30.0000000  0  8                     
G 1  21483771.994   114473311.835        -521.351          37.000  
G 4  21483764.937   114473265.543        -521.313          45.000  
G 2  21483769.412   114473339.805        -521.306          44.000  
G 6  21483540.931   114472146.379        -521.229          45.000  
G11  21648757.800   115340371.932        -521.587          32.000  
G 3  21483764.671   114473266.277        -521.180          44.000  
G22  21538015.397   114758405.292        -521.221          32.000  
G12  21427519.598   114177701.800        -521.345          31.000  
> 2019  6 16  1 27 31.0000000  0  8                     
G 1  21483871.024   114473832.970        -520.978          37.000  
G 4  21483864.254   114473786.687        -521.173          46.000  
G 2  21483868.656   114473860.951        -521.273          44.000  
G 6  21483640.277   114472667.525        -521.042          45.000  
G11  21648857.042   115340893.098        -521.930          31.000  
G 3  21483863.930   114473787.431        -521.124          44.000  
G22  21538114.621   114758926.432        -520.929          32.000  
G12  21427618.664   114178222.926        -520.953          30.000  
> 2019  6 16  1 27 32.0000000  0  8                     
G 1  21483970.276   114474354.070        -521.267          37.000  
G 4  21483963.559   114474307.788        -521.409          46.000  
G 2  21483967.951   114474382.049        -521.388          44.000  
G 6  21483739.506   114473232.6193       -521.222          45.000  
G11  21648956.285   115341414.176        -521.707          32.000  
G 3  21483963.192   114474308.532        -521.219          44.000  
G22  21538213.808   114759447.520        -520.842          32.000  
G12  21427717.891   114178744.015        -520.966          31.000  
> 2019  6 16  1 27 33.0000000  0  8                     
G 1  21484069.478   114474875.289        -521.381          37.000  
G 4  21484062.885   114474828.998        -521.233          46.000  
G 2  21484067.167   114474903.241        -521.309          44.000  
G 6  21483838.685   114473753.8202       -521.122          45.000  
G11  21649055.492   115341935.416        -522.661          31.000  
G 3  21484062.475   114474829.720        -521.085          44.000  
G22  21538313.107   114759968.738        -520.986          33.000  
G12  21427817.218   114179265.232        -521.083          32.000  
> 2019  6 16  1 27 34.0000000  0  8                     
G 1  21484168.545   114475396.415        -521.510          37.000  
G 4  21484162.270   114475350.116        -521.177          46.000  
G 2  21484166.478   114475424.377        -521.288          44.000  
G 6  21483937.923   114474274.9552       -521.144          45.000  
G11  21649154.708   115342456.511        -521.371          31.000  
G 3  21484161.826   114475350.850        -521.184          44.000  
G22  21538412.308   114760489.853        -520.735          33.000  
G12  21427916.399   114179786.338        -520.948          32.000  
> 2019  6 16  1 27 35.0000000  0  8                     
G 1  21484267.503   114475917.494        -521.263          37.000  
G 4  21484261.513   114475871.197        -521.130          46.000  
G 2  21484265.749   114475945.462        -521.208          43.000  
G 6  21484037.232   114474796.0492       -521.185          45.000  
G11  21649253.927   115342977.604        -521.541          31.000  
G 3  21484261.121   114475871.925        -521.205          44.000  
G22  21538511.567   114761010.950        -520.828          32.000  
G12  21428015.655   114180307.429        -520.840          32.000  
> 2019  6 16  1 27 36.0000000  0  8                     
G 1  21484366.834   114476438.694        -521.575          37.000  
G 4  21484360.752   114476392.375        -521.318          45.000  
G 2  21484365.018   114476466.640        -521.428          43.000  
G 6  21484136.433   114475317.2312       -521.388          45.000  
G11  21649353.152   115343498.802        -521.747          31.000  
G 3  21484360.374   114476393.112        -521.433          44.000  
G22  21538610.794   114761532.121        -521.400          32.000  
G12  21428114.931   114180828.629        -521.874          31.000  
> 2019  6 16  1 27 37.0000000  0  8                     
G 1  21484466.154   114476959.831        -520.925          37.000  
G 4  21484459.987   114476913.521        -520.829          45.000  
G 2  21484464.252   114476987.781        -520.880          43.000  
G 6  21484235.715   114475840.3813       -521.049          45.000  
G11  21649452.410   115344059.4383       -520.709          31.000  
G 3  21484459.600   114476914.266        -520.986          44.000  
G22  21538709.923   114762053.259        -520.911          32.000  
G12  21428214.290   114181349.767        -521.118          31.000  
> 2019  6 16  1 27 38.0000000  0  8                     
G 1  21484565.477   114477480.996        -521.429          37.000  
G 4  21484559.250   114477434.675        -521.244          46.000  
G 2  21484563.505   114477508.942        -521.372          43.000  
G 6  21484335.063   114476361.5402       -521.334          45.000  
G11  21649551.731   115344580.6042       -521.643          32.000  
G 3  21484558.865   114477435.417        -521.281          44.000  
G22  21538809.148   114762574.421        -520.992          31.000  
G12  21428313.690   114181870.917        -521.259          30.000  
> 2019  6 16  1 27 39.0000000  0  8                     
G 1  21484664.674   114478002.134        -521.216          37.000  
G 4  21484658.503   114477955.827        -520.890          46.000  
G 2  21484662.795   114478030.099        -521.064          44.000  
G 6  21484434.269   114476882.6862       -520.994          44.000  
G11  21649651.094   115345101.7542       -521.351          32.000  
G 3  21484658.139   114477956.579        -521.028          44.000  
G22  21538908.453   114763095.598        -521.096          31.000  
G12  21428412.937   114182392.085        -521.138          30.000  
> 2019  6 16  1 27 40.0000000  0  8                     
G 1  21484764.048   114478523.318        -521.112          37.000  
G 4  21484757.989   114478477.026        -521.132          46.000  
G 2  21484762.129   114478551.275        -521.038          44.000  
G 6  21484533.501   114477403.8652       -521.079          44.000  
G11  21649750.412   115345622.9182       -520.639          31.000  
G 3  21484757.407   114478477.751        -521.053          44.000  
G22  21539007.728   114763616.794        -521.405          32.000  
G12  21428512.012   114182913.246        -520.779          31.000  
> 2019  6 16  1 27 41.0000000  0  8                     
G 1  21484863.312   114479044.504        -521.323          37.000  
G 4  21484857.135   114478998.195        -521.012          45.000  
G 2  21484861.400   114479072.443        -521.005          43.000  
G 6  21484632.787   114477925.0402       -521.050          44.000  
G11  21649849.603   115346147.1293       -521.261          31.000  
G 3  21484856.768   114478998.936        -521.031          44.000  
G22  21539107.020   114764137.959        -521.417          32.000  
G12  21428611.304   114183434.457        -521.165          31.000  
> 2019  6 16  1 27 42.0000000  0  8                     
G 1  21484962.692   114479565.568        -521.343          37.000  
G 4  21484956.382   114479519.237        -521.100          45.000  
G 2  21484960.627   114479593.492        -521.046          43.000  
G 6  21484732.078   114478446.0942       -521.158          45.000  
G11  21649948.909   115346668.1482       -520.994          31.000  
G 3  21484956.059   114479519.985        -521.150          44.000  
G22  21539206.283   114764659.014        -521.600          32.000  
G12  21428710.559   114183955.467        -521.218          31.000  
> 2019  6 16  1 27 43.0000000  0  8                     
G 1  21485062.206   114480086.713        -521.261          37.000  
G 4  21485055.650   114480040.378        -521.122          46.000  
G 2  21485059.824   114480114.632        -521.051          44.000  
G 6  21484831.330   114478967.236        -521.156          45.000  
G11  21650048.277   115347188.7681       -521.103          32.000  
G 3  21485055.331   114480041.123        -521.135          44.000  
G22  21539305.646   114765180.159        -521.486          32.000  
G12  21428809.770   114184476.597        -520.864          31.000  
> 2019  6 16  1 27 44.0000000  0  8                     
G 1  21485161.692   114480607.751        -521.324          37.000  
G 4  21485154.808   114480561.403        -521.078          46.000  
G 2  21485159.084   114480635.664        -520.895          44.000  
G 6  21484930.627   114479488.257        -521.022          45.000  
G11  21650147.556   115347709.823        -521.083          31.000  
G 3  21485154.611   114480562.157        -521.105          44.000  
G22  21539404.829   114765701.180        -521.602          32.000  
G12  21428909.074   114184997.651        -521.154          31.000  
> 2019  6 16  1 27 45.0000000  0  8                     
G 1  21485260.804   114481128.813        -521.493          37.000  
G 4  21485254.008   114481082.481        -521.128          45.000  
G 2  21485258.260   114481156.745        -521.135          43.000  
G 6  21485029.796   114480009.336        -521.139          45.000  
G11  21650246.755   115348230.877        -520.624          32.000  
G 3  21485253.871   114481083.222        -520.997          44.000  
G22  21539504.092   114766222.249        -521.531          32.000  
G12  21429008.429   114185518.740        -521.775          31.000  
> 2019  6 16  1 27 46.0000000  0  8                     
G 1  21485360.017   114481649.967        -521.522          37.000  
G 4  21485353.059   114481603.629        -521.223          45.000  
G 2  21485357.479   114481677.884        -521.277          43.000  
G 6  21485129.090   114480530.497        -521.385          45.000  
G11  21650345.967   115348752.029        -521.222          32.000  
G 3  21485353.149   114481604.369        -521.277          44.000  
G22  21539603.424   114766743.418        -521.926          32.000  
G12  21429107.694   114186039.872        -521.439          31.000  
> 2019  6 16  1 27 47.0000000  0  8                     
G 1  21485459.391   114482171.094        -521.423          37.000  
G 4  21485452.432   114482124.780        -521.304          45.000  
G 2  21485456.678   114482199.036        -521.259          43.000  
G 6  21485228.363   114481051.625        -521.279          45.000  
G11  21650445.143   115349273.171        -521.232          31.000  
G 3  21485452.396   114482125.523        -521.310          44.000  
G22  21539702.533   114767264.534        -521.389          33.000  
G12  21429206.897   114186561.034        -521.539          31.000  
> 2019  6 16  1 27 48.0000000  0  8                     
G 1  21485558.768   114482692.307        -521.404          37.000  
G 4  21485551.835   114482645.995        -521.118          45.000  
G 2  21485555.900   114482720.251        -521.143          43.000  
G 6  21485327.576   114481572.837        -521.246          45.000  
G11  21650544.355   115349794.382        -521.182          31.000  
G 3  21485551.609   114482646.732        -521.179          44.000  
G22  21539801.759   114767785.746        -521.199          33.000  
G12  21429306.156   114187082.220        -521.282          31.000  
> 2019  6 16  1 27 49.0000000  0  8                     
G 1  21485658.004   114483213.587        -521.122          37.000  
G 4  21485651.048   114483167.281        -521.324          45.000  
G 2  21485655.153   114483241.528        -521.263          44.000  
G 6  21485426.903   114482094.115        -521.217          45.000  
G11  21650643.549   115350315.646        -520.415          31.000  
G 3  21485650.897   114483168.008        -521.224          44.000  
G22  21539901.081   114768307.047        -521.648          32.000  
G12  21429405.432   114187603.494        -520.815          31.000  
> 2019  6 16  1 27 50.0000000  0  8                     
G 1  21485757.355   114483734.752        -521.031          37.000  
G 4  21485750.339   114483688.441        -521.024          45.000  
G 2  21485754.345   114483762.704        -521.075          43.000  
G 6  21485526.024   114482615.278        -520.963          45.000  
G11  21650742.763   115350836.837        -521.019          31.000  
G 3  21485750.180   114483689.178        -520.984          44.000  
G22  21540000.281   114768828.178        -520.704          32.000  
G12  21429504.787   114188124.685        -521.210          31.000  
> 2019  6 16  1 27 51.0000000  0  8                     
G 1  21485856.749   114484256.008        -521.139          37.000  
G 4  21485849.613   114484209.689        -521.113          45.000  
G 2  21485853.677   114484283.946        -521.095          44.000  
G 6  21485625.319   114483136.536        -521.049          45.000  
G11  21650841.956   115351358.086        -520.944          32.000  
G 3  21485849.466   114484210.433        -521.162          44.000  
G22  21540099.603   114769349.422        -520.642          32.000  
G12  21429603.955   114188645.916        -520.891          31.000  
> 2019  6 16  1 27 52.0000000  0  8                     
G 1  21485956.021   114484777.213        -521.173          37.000  
G 4  21485948.967   114484730.905        -521.313          45.000  
G 2  21485952.964   114484805.151        -521.226          43.000  
G 6  21485724.656   114483657.753        -521.180          45.000  
G11  21650941.412   115351879.300        -520.735          32.000  
G 3  21485948.734   114484731.635        -521.128          44.000  
G22  21540198.860   114769870.646        -521.023          32.000  
G12  21429703.209   114189167.186        -521.871          31.000  
> 2019  6 16  1 27 53.0000000  0  8                     
G 1  21486055.164   114485298.441        -521.434          37.000  
G 4  21486048.182   114485252.116        -521.213          45.000  
G 2  21486052.206   114485326.376        -521.187          43.000  
G 6  21485823.915   114484178.970        -521.205          45.000  
G11  21651040.746   115352400.521        -521.204          32.000  
G 3  21486048.073   114485252.869        -521.106          44.000  
G22  21540298.286   114770391.863        -520.917          32.000  
G12  21429802.506   114189688.374        -521.176          31.000  
> 2019  6 16  1 27 54.0000000  0  8                     
G 1  21486154.572   114485819.622        -521.404          37.000  
G 4  21486147.532   114485773.308        -521.273          46.000  
G 2  21486151.380   114485847.551        -521.205          43.000  
G 6  21485923.258   114484700.151        -521.284          45.000  
G11  21651140.102   115352921.726        -521.440          32.000  
G 3  21486147.379   114485774.038        -521.027          44.000  
G22  21540397.633   114770913.057        -521.127          32.000  
G12  21429901.884   114190209.547        -521.410          31.000  
> 2019  6 16  1 27 55.0000000  0  8                     
G 1  21486253.837   114486340.791        -521.300          37.000  
G 4  21486246.831   114486294.473        -521.140          45.000  
G 2  21486250.725   114486368.728        -521.249          44.000  
G 6  21486022.514   114485221.318        -521.145          44.000  
G11  21651239.421   115353442.898        -521.207          32.000  
G 3  21486246.651   114486295.206        -521.028          44.000  
G22  21540497.024   114771434.246        -521.417          32.000  
G12  21430001.126   114190730.726        -521.577          31.000  
> 2019  6 16  1 27 56.0000000  0  8                     
G 1  21486353.034   114486861.997        -521.296          37.000  
G 4  21486346.081   114486815.697        -521.294          45.000  
G 2  21486350.024   114486889.957        -521.335          44.000  
G 6  21486121.692   114485742.531        -521.251          44.000  
G11  21651338.809   115353964.128        -521.486          31.000  
G 3  21486345.879   114486816.420        -521.232          44.000  
G22  21540596.233   114771955.456        -521.250          32.000  
G12  21430100.416   114191251.922        -521.309          31.000  
> 2019  6 16  1 27 57.0000000  0  8                     
G 1  21486452.076   114487383.116        -521.287          37.000  
G 4  21486445.328   114487336.797        -521.138          45.000  
G 2  21486449.340   114487411.059        -521.254          44.000  
G 6  21486220.851   114486263.645        -521.069          44.000  
G11  21651437.977   115354485.225        -521.324          32.000  
G 3  21486445.171   114487337.553        -521.301          43.000  
G22  21540695.400   114772476.534        -520.806          33.000  
G12  21430199.532   114191773.016        -520.929          31.000  
> 2019  6 16  1 27 58.0000000  0  8                     
G 1  21486551.390   114487904.195        -521.060          37.000  
G 4  21486544.474   114487857.878        -521.056          45.000  
G 2  21486548.653   114487932.147        -521.437          44.000  
G 6  21486320.171   114486784.725        -521.075          45.000  
G11  21651537.204   115355006.284        -521.291          31.000  
G 3  21486544.372   114487858.626        -521.248          44.000  
G22  21540794.743   114772997.611        -520.637          33.000  
G12  21430298.906   114192294.097        -520.831          31.000  
> 2019  6 16  1 27 59.0000000  0  8                     
G 1  21486650.742   114488425.310        -521.061          37.000  
G 4  21486643.727   114488378.979        -520.988          45.000  
G 2  21486647.940   114488453.244        -521.108          43.000  
G 6  21486419.422   114487305.845        -521.149          45.000  
G11  21651636.364   115355527.436        -521.055          32.000  
G 3  21486643.550   114488379.736        -521.198          44.000  
G22  21540893.918   114773518.735        -520.679          32.000  
G12  21430398.203   114192815.222        -520.999          31.000  
> 2019  6 16  1 28  0.0000000  0  8                     
G 1  21486749.957   114488946.385        -520.881          36.000  
G 4  21486743.023   114488900.088        -521.029          45.000  
G 2  21486747.247   114488974.348        -521.113          43.000  
G 6  21486518.754   114487826.936        -521.096          45.000  
G11  21651735.704   115356048.524        -521.347          31.000  
G 3  21486742.808   114488900.842        -521.113          44.000  
G22  21540993.116   114774039.838        -521.058          32.000  
G12  21430497.403   114193336.344        -521.152          31.000  
> 2019  6 16  1 28  1.0000000  0  8                     
G 1  21486849.259   114489467.548        -520.818          37.000  
G 4  21486842.225   114489421.243        -520.928          45.000  
G 2  21486846.514   114489495.488        -520.878          43.000  
G 6  21486618.127   114488348.085        -521.018          45.000  
G11  21651834.882   115356569.652        -521.045          31.000  
G 3  21486842.088   114489421.989        -521.160          44.000  
G22  21541092.367   114774560.990        -521.069          32.000  
G12  21430596.593   114193857.469        -520.643          31.000  
> 2019  6 16  1 28  2.0000000  0  8                     
G 1  21486948.642   114489988.623        -520.938          37.000  
G 4  21486941.489   114489942.300        -521.034          45.000  
G 2  21486945.808   114490016.568        -521.006          43.000  
G 6  21486717.299   114488869.155        -521.158          45.000  
G11  21651934.222   115357090.711        -520.586          31.000  
G 3  21486941.399   114489943.048        -521.084          44.000  
G22  21541191.550   114775082.087        -521.163          32.000  
G12  21430695.852   114194378.584        -521.130          31.000  
> 2019  6 16  1 28  3.0000000  0  8                     
G 1  21487048.001   114490509.715        -521.244          37.000  
G 4  21487040.812   114490463.399        -521.206          45.000  
G 2  21487045.149   114490537.660        -521.267          43.000  
G 6  21486816.513   114489390.256        -521.259          44.000  
G11  21652033.441   115357611.794        -520.798          32.000  
G 3  21487040.731   114490464.164        -521.320          44.000  
G22  21541290.807   114775603.167        -521.274          32.000  
G12  21430795.093   114194899.680        -521.626          31.000  
> 2019  6 16  1 28  4.0000000  0  8                     
G 1  21487147.280   114491030.710        -520.767          37.000  
G 4  21487140.088   114490984.396        -521.115          45.000  
G 2  21487144.307   114491058.656        -520.933          43.000  
G 6  21486915.780   114489911.250        -521.060          45.000  
G11  21652132.722   115358132.816        -521.164          31.000  
G 3  21487140.054   114490985.152        -521.083          44.000  
G22  21541390.037   114776124.161        -520.951          32.000  
G12  21430894.337   114195420.669        -521.090          31.000  
> 2019  6 16  1 28  5.0000000  0  8                     
G 1  21487246.362   114491551.610        -520.776          37.000  
G 4  21487239.254   114491505.319        -521.046          45.000  
G 2  21487243.449   114491579.565        -520.909          43.000  
G 6  21487015.010   114490432.168        -521.038          44.000  
G11  21652231.975   115358653.729        -520.803          32.000  
G 3  21487239.383   114491506.071        -520.980          44.000  
G22  21541489.175   114776645.070        -520.619          32.000  
G12  21430993.527   114195941.574        -521.010          31.000  
> 2019  6 16  1 28  6.0000000  0  8                     
G 1  21487345.581   114492072.512        -520.625          37.000  
G 4  21487338.452   114492026.222        -520.968          45.000  
G 2  21487342.756   114492100.470        -520.869          43.000  
G 6  21487114.185   114490953.062        -520.929          44.000  
G11  21652331.121   115359174.636        -521.351          32.000  
G 3  21487338.629   114492026.961        -520.929          44.000  
G22  21541588.305   114777165.954        -520.540          32.000  
G12  21431092.805   114196462.462        -520.817          31.000  
> 2019  6 16  1 28  7.0000000  0  8                     
G 1  21487444.748   114492593.430        -520.773          37.000  
G 4  21487437.645   114492547.124        -520.887          45.000  
G 2  21487441.859   114492621.381        -520.913          43.000  
G 6  21487213.450   114491473.978        -520.867          44.000  
G11  21652430.223   115359695.512        -520.597          32.000  
G 3  21487437.901   114492547.865        -520.875          44.000  
G22  21541687.502   114777686.885        -520.790          32.000  
G12  21431192.052   114196983.361        -521.049          31.000  
> 2019  6 16  1 28  8.0000000  0  8                     
G 1  21487543.916   114493114.470        -521.055          37.000  
G 4  21487536.878   114493068.161        -521.235          45.000  
G 2  21487541.100   114493142.419        -521.248          43.000  
G 6  21487312.771   114491995.010        -521.232          45.000  
G11  21652529.436   115360216.574        -521.084          31.000  
G 3  21487537.120   114493068.911        -521.179          44.000  
G22  21541786.790   114778207.922        -521.188          31.000  
G12  21431291.403   114197504.402        -520.885          31.000  
> 2019  6 16  1 28  9.0000000  0  8                     
G 1  21487643.218   114493635.635        -521.029          37.000  
G 4  21487636.117   114493589.331        -521.204          45.000  
G 2  21487640.312   114493663.586        -521.237          43.000  
G 6  21487412.002   114492516.180        -521.174          45.000  
G11  21652628.649   115360737.778        -522.185          31.000  
G 3  21487636.379   114493590.078        -521.157          44.000  
G22  21541886.150   114778729.078        -520.782          32.000  
G12  21431390.641   114198025.556        -520.516          31.000  
> 2019  6 16  1 28 10.0000000  0  8                     
G 1  21487742.522   114494156.809        -520.977          37.000  
G 4  21487735.357   114494110.514        -521.246          45.000  
G 2  21487739.506   114494184.768        -521.146          44.000  
G 6  21487511.257   114493037.365        -521.165          45.000  
G11  21652727.899   115361258.934        -521.882          32.000  
G 3  21487735.557   114494111.260        -521.174          44.000  
G22  21541985.507   114779250.237        -520.706          32.000  
G12  21431489.912   114198546.731        -520.573          31.000  
> 2019  6 16  1 28 11.0000000  0  8                     
G 1  21487841.755   114494677.973        -521.277          37.000  
G 4  21487834.545   114494631.659        -521.086          45.000  
G 2  21487838.721   114494705.915        -521.156          43.000  
G 6  21487610.687   114493558.508        -521.106          45.000  
G11  21652827.010   115361780.089        -521.881          32.000  
G 3  21487834.798   114494632.409        -521.241          44.000  
G22  21542084.828   114779771.410        -520.945          33.000  
G12  21431589.146   114199067.907        -520.994          31.000  
> 2019  6 16  1 28 12.0000000  0  8                     
G 1  21487940.860   114495198.975        -520.979          37.000  
G 4  21487933.910   114495152.689        -521.136          45.000  
G 2  21487937.982   114495226.936        -521.058          43.000  
G 6  21487709.952   114494079.533        -521.012          45.000  
G11  21652926.283   115362301.130        -521.918          31.000  
G 3  21487934.091   114495153.434        -521.169          44.000  
G22  21542184.074   114780292.449        -520.989          33.000  
G12  21431688.350   114199588.905        -520.828          31.000  
> 2019  6 16  1 28 13.0000000  0  8                     
G 1  21488039.995   114495719.989        -520.823          37.000  
G 4  21488033.189   114495673.704        -521.019          45.000  
G 2  21488037.355   114495747.960        -520.994          43.000  
G 6  21487809.170   114494618.5463       -520.959          45.000  
G11  21653025.549   115362822.122        -521.340          31.000  
G 3  21488033.381   114495674.460        -521.093          44.000  
G22  21542283.282   114780813.445        -520.574          32.000  
G12  21431787.583   114200109.916        -520.526          31.000  
> 2019  6 16  1 28 14.0000000  0  8                     
G 1  21488139.208   114496240.973        -520.760          37.000  
G 4  21488132.535   114496194.663        -520.836          45.000  
G 2  21488136.627   114496268.925        -520.929          43.000  
G 6  21487908.267   114495139.5183       -520.901          44.000  
G11  21653116.929   115363316.5623       -520.881          31.000  
G 3  21488132.574   114496195.419        -520.908          44.000  
G22  21542382.396   114781403.4353       -520.652          32.000  
G12  21431886.828   114200630.882        -520.491          30.000  
> 2019  6 16  1 28 15.0000000  0  8                     
G 1  21488238.574   114496761.931        -520.757          37.000  
G 4  21488231.607   114496715.606        -520.818          45.000  
G 2  21488235.797   114496789.876        -520.889          43.000  
G 6  21488007.479   114495660.4632       -520.891          45.000  
G11  21653222.118   115363837.5252       -520.844          30.000  
G 3  21488231.840   114496716.361        -520.938          44.000  
G22  21542481.471   114781924.3662       -520.690          31.000  
G12  21431986.217   114201151.816        -520.343          31.000  
> 2019  6 16  1 28 16.0000000  0  8                     
G 1  21488337.823   114497282.924        -520.991          37.000  
G 4  21488330.852   114497236.600        -520.873          46.000  
G 2  21488335.064   114497310.866        -520.854          43.000  
G 6  21488106.809   114496182.4623       -520.968          45.000  
G11  21653323.708   115364358.5562       -520.844          31.000  
G 3  21488331.091   114497237.360        -520.970          44.000  
G22  21542580.466   114782445.3422       -520.498          31.000  
G12  21432085.427   114201672.822        -520.576          32.000  
> 2019  6 16  1 28 17.0000000  0  8                     
G 1  21488437.169   114497803.875        -521.055          36.000  
G 4  21488430.184   114497757.557        -520.931          45.000  
G 2  21488434.405   114497831.827        -521.027          44.000  
G 6  21488206.094   114496704.4123       -520.969          45.000  
G11  21653424.386                        -521.206          31.000  
G 3  21488430.309   114497758.306        -520.945          44.000  
G22  21542679.742   114782966.3002       -520.347          31.000  
G12  21432184.815   114202193.789        -521.227          31.000  
> 2019  6 16  1 28 18.0000000  0  8                     
G 1  21488536.306   114498324.944        -521.351          36.000  
G 4  21488529.366   114498278.618        -521.025          45.000  
G 2  21488533.664   114498352.887        -521.093          43.000  
G 6  21488305.205   114497225.4772       -521.121          45.000  
G11  21653523.009   115365450.5623       -521.427          31.000  
G 3  21488529.517   114498279.377        -521.030          44.000  
G22  21542779.099   114783487.4012       -520.927          31.000  
G12  21432284.200   114202714.882        -521.169          31.000  
> 2019  6 16  1 28 19.0000000  0  7                     
G 1  21488635.197   114498846.079        -521.304          36.000  
G 4  21488628.617   114498799.755        -521.047          45.000  
G 2  21488632.832   114498874.027        -521.171          43.000  
G 6  21488404.460   114497746.6143       -521.124          44.000  
G 3  21488628.940   114498800.515        -521.085          44.000  
G22  21542878.339   114784008.505        -520.995          32.000  
G12  21432383.612   114203235.999        -521.482          31.000  
> 2019  6 16  1 28 20.0000000  0  8                     
G 1  21488734.443   114499367.164        -521.130          36.000  
G 4  21488727.848   114499320.845        -521.064          46.000  
G 2  21488732.100   114499395.115        -521.064          43.000  
G 6  21488503.630   114498267.7082       -521.145          44.000  
G11  21653721.961   115366496.7643       -521.029          32.000  
G 3  21488728.229   114499321.604        -521.115          44.000  
G22  21542977.655   114784529.619        -520.811          32.000  
G12  21432483.096   114203757.095        -521.145          31.000  
> 2019  6 16  1 28 21.0000000  0  8                     
G 1  21488833.740   114499888.256        -521.112          36.000  
G 4  21488827.252   114499841.937        -520.958          45.000  
G 2  21488831.409   114499916.202        -520.931          43.000  
G 6  21488602.788   114498788.7952       -520.970          44.000  
G11  21653820.444   115367017.8582       -520.620          31.000  
G 3  21488827.402   114499842.695        -521.021          44.000  
G22  21543076.982   114785050.706        -520.994          32.000  
G12  21432582.497   114204278.186        -520.734          30.000  
> 2019  6 16  1 28 22.0000000  0  8                     
G 1  21488933.113   114500409.348        -521.403          36.000  
G 4  21488926.441   114500363.020        -521.162          45.000  
G 2  21488930.684   114500437.289        -521.241          43.000  
G 6  21488702.029   114499309.8732       -521.161          45.000  
G11  21653920.677   115367540.9083       -520.219          31.000  
G 3  21488926.663   114500363.763        -521.080          44.000  
G22  21543176.128   114785571.796        -521.226          33.000  
G12  21432681.682   114204799.261        -521.255          30.000  
> 2019  6 16  1 28 23.0000000  0  8                     
G 1  21489032.291   114500930.393        -521.162          37.000  
G 4  21489025.579   114500884.093        -521.124          45.000  
G 2  21489029.959   114500958.353        -521.056          43.000  
G 6  21488801.433   114499830.9462       -521.145          44.000  
G11  21654019.334   115368061.9862       -520.505          32.000  
G 3  21489025.934   114500884.837        -521.189          44.000  
G22  21543275.322   114786092.833        -520.743          32.000  
G12  21432780.866   114205320.368        -521.675          31.000  
> 2019  6 16  1 28 24.0000000  0  8                     
G 1  21489131.476   114501451.541        -520.865          37.000  
G 4  21489124.881   114501405.233        -521.034          45.000  
G 2  21489129.205   114501479.493        -521.016          43.000  
G 6  21488900.569   114500352.0952       -521.206          45.000  
G11  21654118.750   115368583.1092       -520.158          32.000  
G 3  21489125.193   114501405.988        -521.104          44.000  
G22  21543374.578   114786613.990        -520.830          32.000  
G12  21432880.047   114205841.499        -521.364          31.000  
> 2019  6 16  1 28 25.0000000  0  8                     
G 1  21489230.684   114501972.714        -521.215          37.000  
G 4  21489224.193   114501926.391        -521.124          45.000  
G 2  21489228.544   114502000.662        -521.365          43.000  
G 6  21488999.780   114500873.244        -521.095          44.000  
G11  21654217.842   115369103.7741       -520.902          32.000  
G 3  21489224.440   114501927.144        -521.001          44.000  
G22  21543473.942   114787135.150        -521.233          32.000  
G12  21432979.438   114206362.654        -521.572          31.000  
> 2019  6 16  1 28 26.0000000  0  8                     
G 1  21489330.165   114502493.832        -520.934          37.000  
G 4  21489323.411   114502447.530        -521.282          45.000  
G 2  21489327.741   114502521.780        -521.274          43.000  
G 6  21489099.070   114501394.370        -521.122          45.000  
G11  21654317.006   115369624.911        -520.518          32.000  
G 3  21489323.651   114502448.267        -521.021          44.000  
G22  21543573.318   114787656.273        -521.219          32.000  
G12  21433078.650   114206883.756        -521.324          31.000  
> 2019  6 16  1 28 27.0000000  0  8                     
G 1  21489429.476   114503014.946        -521.149          37.000  
G 4  21489422.719   114502968.633        -521.250          46.000  
G 2  21489426.970   114503042.901        -521.223          43.000  
G 6  21489198.325   114501915.485        -521.185          45.000  
G11  21654416.260   115370146.008        -520.499          32.000  
G 3  21489422.975   114502969.381        -521.187          44.000  
G22  21543672.547   114788177.386        -521.182          32.000  
G12  21433177.773   114207404.888        -521.348          31.000  
> 2019  6 16  1 28 28.0000000  0  8                     
G 1  21489528.786   114503536.085        -520.953          36.000  
G 4  21489522.020   114503489.797        -521.273          45.000  
G 2  21489526.289   114503564.051        -521.091          43.000  
G 6  21489297.641   114502436.650        -521.183          45.000  
G11  21654515.501   115370667.146        -520.381          32.000  
G 3  21489522.226   114503490.538        -521.057          44.000  
G22  21543771.799   114788698.565        -521.064          32.000  
G12  21433276.885   114207926.053        -520.980          31.000  
> 2019  6 16  1 28 29.0000000  0  8                     
G 1  21489628.004   114504057.275        -520.925          36.000  
G 4  21489621.330   114504010.978        -521.421          46.000  
G 2  21489625.566   114504085.230        -521.251          43.000  
G 6  21489396.872   114502957.829        -521.250          45.000  
G11  21654614.828   115371188.345        -520.868          32.000  
G 3  21489621.500   114504011.730        -521.224          44.000  
G22  21543871.070   114789219.735        -521.238          32.000  
G12  21433376.172   114208447.218        -521.473          31.000  
> 2019  6 16  1 28 30.0000000  0  8                     
G 1  21489727.479   114504578.366        -520.935          36.000  
G 4  21489720.413   114504532.045        -521.299          45.000  
G 2  21489724.820   114504606.300        -521.150          43.000  
G 6  21489496.184   114503478.902        -521.208          45.000  
G11  21654714.009   115371709.428        -520.904          32.000  
G 3  21489720.687   114504532.802        -521.124          44.000  
G22  21543970.327   114789740.812        -521.315          31.000  
G12  21433475.402   114208968.321        -521.486          31.000  
> 2019  6 16  1 28 31.0000000  0  8                     
G 1  21489826.812   114505099.413        -521.106          36.000  
G 4  21489819.612   114505053.115        -521.279          45.000  
G 2  21489824.045   114505127.371        -521.122          43.000  
G 6  21489595.449   114503999.975        -521.121          45.000  
G11  21654813.177   115372230.496        -520.660          32.000  
G 3  21489819.870   114505053.878        -521.113          44.000  
G22  21544069.651   114790261.888        -521.525          31.000  
G12  21433574.564   114209489.375        -521.528          31.000  
> 2019  6 16  1 28 32.0000000  0  8                     
G 1  21489925.936   114505620.518        -521.143          37.000  
G 4  21489918.806   114505574.212        -521.143          45.000  
G 2  21489923.288   114505648.475        -521.040          43.000  
G 6  21489694.769   114504521.070        -520.968          45.000  
G11  21654912.543   115372751.596        -520.785          32.000  
G 3  21489919.093   114505574.954        -520.941          44.000  
G22  21544168.866   114790782.981        -521.090          32.000  
G12  21433673.819   114210010.470        -521.145          31.000  
> 2019  6 16  1 28 33.0000000  0  8                     
G 1  21490024.948   114506141.651        -520.999          37.000  
G 4  21490018.084   114506095.362        -521.204          45.000  
G 2  21490022.455   114506169.611        -521.058          43.000  
G 6  21489794.018   114505042.207        -520.970          45.000  
G11  21655011.762   115373272.782        -521.494          32.000  
G 3  21490018.317   114506096.102        -521.084          44.000  
G22  21544268.125   114791304.106        -520.984          32.000  
G12  21433773.107   114210531.599        -521.121          31.000  
> 2019  6 16  1 28 34.0000000  0  8                     
G 1  21490124.113   114506662.741        -521.061          36.000  
G 4  21490117.352   114506616.439        -521.117          46.000  
G 2  21490121.653   114506690.688        -521.027          43.000  
G 6  21489893.498   114505563.292        -521.060          45.000  
G11  21655111.004   115373793.807        -520.481          31.000  
G 3  21490117.614   114506617.183        -520.956          44.000  
G22  21544367.375   114791825.199        -521.169          32.000  
G12  21433872.350   114211052.694        -521.407          30.000  
> 2019  6 16  1 28 35.0000000  0  8                     
G 1  21490223.479   114507183.838        -521.312          36.000  
G 4  21490216.622   114507137.543        -521.183          45.000  
G 2  21490220.964   114507211.802        -521.099          43.000  
G 6  21489992.712   114506084.392        -521.097          45.000  
G11  21655210.312   115374314.964        -521.389          32.000  
G 3  21490216.815   114507138.293        -521.040          44.000  
G22  21544466.548   114792346.304        -521.208          32.000  
G12  21433971.568   114211573.800        -521.272          31.000  
> 2019  6 16  1 28 36.0000000  0  8                     
G 1  21490322.669   114507705.004        -521.558          36.000  
G 4  21490315.983   114507658.686        -521.333          45.000  
G 2  21490320.213   114507732.943        -521.367          43.000  
G 6  21490092.024   114506605.536        -521.288          45.000  
G11  21655309.570   115374836.110        -522.114          32.000  
G 3  21490316.104   114507659.426        -521.196          44.000  
G22  21544565.831   114792867.446        -521.125          32.000  
G12  21434070.903   114212094.928        -521.301          30.000  
> 2019  6 16  1 28 37.0000000  0  8                     
G 1  21490421.881   114508226.192        -521.106          36.000  
G 4  21490415.337   114508179.896        -521.219          45.000  
G 2  21490419.513   114508254.145        -521.165          43.000  
G 6  21490191.428   114507126.743        -521.083          44.000  
G11  21655408.851   115375357.296        -521.512          32.000  
G 3  21490415.401   114508180.640        -521.071          44.000  
G22  21544665.060   114793388.642        -521.010          32.000  
G12  21434170.288   114212616.113        -520.425          30.000  
> 2019  6 16  1 28 38.0000000  0  8                     
G 1  21490521.052   114508747.318        -520.955          36.000  
G 4  21490514.590   114508701.015        -520.955          46.000  
G 2  21490518.723   114508775.265        -520.867          43.000  
G 6  21490290.625   114507647.867        -520.913          45.000  
G11  21655508.157   115375878.410        -521.174          31.000  
G 3  21490514.751   114508701.762        -520.856          44.000  
G22  21544764.319   114793909.775        -520.767          32.000  
G12  21434269.540   114213137.255        -520.691          30.000  
> 2019  6 16  1 28 39.0000000  0  8                     
G 1  21490620.324   114509268.497        -521.088          36.000  
G 4  21490613.829   114509222.199        -521.027          46.000  
G 2  21490618.009   114509296.455        -521.069          43.000  
G 6  21490389.857   114508169.054        -521.104          45.000  
G11  21655607.318   115376399.595        -520.989          31.000  
G 3  21490614.022   114509222.946        -521.045          44.000  
G22  21544863.547   114794430.964        -521.156          32.000  
G12  21434368.701   114213658.446        -521.235          30.000  
> 2019  6 16  1 28 40.0000000  0  8                     
G 1  21490719.435   114509789.656        -521.407          36.000  
G 4  21490713.111   114509743.368        -521.216          45.000  
G 2  21490717.318   114509817.608        -521.223          43.000  
G 6  21490489.173   114508690.216        -521.223          45.000  
G11  21655706.634   115376920.797        -521.838          31.000  
G 3  21490713.330   114509744.106        -521.129          44.000  
G22  21544962.829   114794952.131        -521.316          32.000  
G12  21434468.023   114214179.604        -521.210          30.000  
> 2019  6 16  1 28 41.0000000  0  8                     
G 1  21490818.607   114510310.896        -521.467          38.000  
G 4  21490812.371   114510264.599        -521.205          45.000  
G 2  21490816.512   114510338.845        -521.398          43.000  
G 6  21490588.519   114509211.446        -521.193          45.000  
G11  21655805.966   115377442.014        -521.960          31.000  
G 3  21490812.617   114510265.330        -521.176          44.000  
G22  21545062.209   114795473.367        -521.411          33.000  
G12  21434567.298   114214700.847        -521.449          30.000  
> 2019  6 16  1 28 42.0000000  0  8                     
G 1  21490917.890   114510832.099        -521.271          37.000  
G 4  21490911.749   114510785.784        -521.071          46.000  
G 2  21490915.779   114510860.041        -521.140          43.000  
G 6  21490687.677   114509732.636        -521.045          45.000  
G11  21655905.198   115377963.211        -521.703          32.000  
G 3  21490911.781   114510786.526        -521.003          44.000  
G22  21545161.583   114795994.549        -521.050          32.000  
G12  21434666.542   114215222.034        -521.237          30.000  
> 2019  6 16  1 28 43.0000000  0  8                     
G 1  21491017.298   114511353.292        -521.664          37.000  
G 4  21491011.039   114511306.982        -521.166          46.000  
G 2  21491015.102   114511381.239        -521.285          43.000  
G 6  21490786.871   114510253.826        -521.074          45.000  
G11  21656004.519   115378484.403        -521.346          32.000  
G 3  21491011.060   114511307.720        -520.936          44.000  
G22  21545260.829   114796515.748        -521.002          32.000  
G12  21434765.826   114215743.224        -521.202          31.000  
> 2019  6 16  1 28 44.0000000  0  8                     
G 1  21491116.584   114511874.527        -521.536          37.000  
G 4  21491110.328   114511828.206        -521.221          46.000  
G 2  21491114.358   114511902.460        -521.281          43.000  
G 6  21490886.107   114510775.059        -521.326          45.000  
G11  21656103.877   115379005.640        -521.714          32.000  
G 3  21491110.323   114511828.950        -521.215          44.000  
G22  21545360.187   114797036.962        -521.423          33.000  
G12  21434865.142   114216264.441        -521.364          31.000  
> 2019  6 16  1 28 45.0000000  0  8                     
G 1  21491215.873   114512395.690        -521.257          37.000  
G 4  21491209.552   114512349.391        -521.100          46.000  
G 2  21491213.670   114512423.638        -521.047          43.000  
G 6  21490985.388   114511296.247        -521.274          45.000  
G11  21656203.057   115379526.839        -521.482          31.000  
G 3  21491209.585   114512350.139        -521.188          44.000  
G22  21545459.539   114797558.132        -521.100          32.000  
G12  21434964.462   114216785.659        -521.172          31.000  
> 2019  6 16  1 28 46.0000000  0  8                     
G 1  21491315.247   114512916.804        -521.119          37.000  
G 4  21491308.849   114512870.494        -520.905          46.000  
G 2  21491312.888   114512944.749        -520.780          43.000  
G 6  21491084.531   114511817.352        -521.031          45.000  
G11  21656302.156   115380047.918        -521.209          32.000  
G 3  21491308.829   114512871.245        -521.000          44.000  
G22  21545558.728   114798079.275        -521.210          31.000  
G12  21435063.616   114217306.797        -521.511          31.000  
> 2019  6 16  1 28 47.0000000  0  8                     
G 1  21491414.550   114513437.799        -520.917          37.000  
G 4  21491408.102   114513391.491        -520.823          46.000  
G 2  21491412.064   114513465.743        -520.931          43.000  
G 6  21491183.744   114512338.358        -520.995          45.000  
G11  21656401.387   115380568.916        -520.800          31.000  
G 3  21491408.055   114513392.239        -520.959          44.000  
G22  21545657.993   114798600.260        -520.789          32.000  
G12  21435162.802   114217827.798        -521.313          31.000  
> 2019  6 16  1 28 48.0000000  0  8                     
G 1  21491513.645   114513958.783        -521.392          36.000  
G 4  21491507.362   114513912.452        -520.967          46.000  
G 2  21491511.270   114513986.715        -521.102          43.000  
G 6  21491283.102   114512859.313        -521.168          45.000  
G11  21656500.660   115381089.923        -521.986          31.000  
G 3  21491507.335   114513913.193        -521.118          44.000  
G22  21545757.080   114799121.231        -521.479          32.000  
G12  21435261.979   114218348.713        -521.519          30.000  
> 2019  6 16  1 28 49.0000000  0  8                     
G 1  21491612.848   114514479.770        -521.323          37.000  
G 4  21491606.543   114514433.453        -521.001          46.000  
G 2  21491610.504   114514507.710        -521.069          43.000  
G 6  21491382.427   114513380.309        -521.073          45.000  
G11  21656599.979   115381610.912        -521.810          31.000  
G 3  21491606.583   114514434.200        -521.237          44.000  
G22  21545856.120   114799642.218        -521.299          32.000  
G12  21435361.054   114219001.7323       -521.561          30.000  
> 2019  6 16  1 28 50.0000000  0  8                     
G 1  21491712.110   114515000.767        -520.907          36.000  
G 4  21491705.701   114514954.450        -520.880          46.000  
G 2  21491709.695   114515028.713        -521.022          43.000  
G 6  21491481.645   114513901.310        -521.041          45.000  
G11  21656699.119   115382131.926        -521.731          31.000  
G 3  21491705.788   114514955.201        -521.193          44.000  
G22  21545955.277   114800163.221        -521.143          32.000  
G12  21435460.260   114219522.6942       -521.163          30.000  
> 2019  6 16  1 28 51.0000000  0  8                     
G 1  21491811.272   114515521.777        -520.952          36.000  
G 4  21491805.008   114515475.475        -521.067          46.000  
G 2  21491808.923   114515549.729        -521.155          43.000  
G 6  21491580.799   114514422.335        -521.165          45.000  
G11  21656798.333   115382652.919        -521.401          31.000  
G 3  21491805.033   114515476.229        -521.387          44.000  
G22  21546054.326   114800684.239        -520.939          32.000  
G12  21435559.460   114220043.7242       -520.909          30.000  
> 2019  6 16  1 28 52.0000000  0  8                     
G 1  21491910.460   114516042.848        -520.940          36.000  
G 4  21491904.237   114515996.534        -520.979          46.000  
G 2  21491908.176   114516070.793        -521.014          43.000  
G 6  21491680.040   114514943.397        -521.145          45.000  
G11  21656897.531   115383173.963        -521.166          31.000  
G 3  21491904.337   114515997.288        -521.226          44.000  
G22  21546153.456   114801205.309        -521.169          32.000  
G12  21435658.796   114220564.8162       -521.533          30.000  
> 2019  6 16  1 28 53.0000000  0  8                     
G 1  21492009.764   114516563.906        -521.205          36.000  
G 4  21492003.452   114516517.587        -521.034          46.000  
G 2  21492007.440   114516591.848        -521.110          43.000  
G 6  21491779.343   114515482.4463       -521.106          45.000  
G11  21656993.915                        -521.844          31.000  
G 3  21492003.623   114516518.341        -521.222          44.000  
G22  21546252.521   114801726.340        -520.823          32.000  
G12  21435757.918   114221085.8212       -521.091          30.000  
> 2019  6 16  1 28 54.0000000  0  8                     
G 1  21492109.015   114517084.988        -521.348          37.000  
G 4  21492102.788   114517038.680        -521.379          46.000  
G 2  21492106.687   114517112.935        -521.331          43.000  
G 6  21491878.530   114516003.5332       -521.362          45.000  
G11  21657096.782                        -521.472          31.000  
G 3  21492102.880   114517039.428        -521.415          44.000  
G22  21546351.548   114802247.435        -521.814          32.000  
G12  21435857.046   114221606.9182       -521.129          30.000  
> 2019  6 16  1 28 55.0000000  0  8                     
G 1  21492208.198   114517606.115        -521.172          37.000  
G 4  21492201.930   114517559.805        -521.047          45.000  
G 2  21492205.923   114517634.068        -521.105          43.000  
G 6  21491977.754   114516524.6603       -521.051          45.000  
G11  21657197.255   115384759.2123       -520.751          31.000  
G 3  21492202.159   114517560.549        -521.105          44.000  
G22  21546450.662   114802768.5932       -521.266          32.000  
G12  21435956.205   114222128.042        -520.797          30.000  
> 2019  6 16  1 28 56.0000000  0  8                     
G 1  21492307.419   114518127.265        -521.328          36.000  
G 4  21492301.299   114518080.949        -521.191          46.000  
G 2  21492305.213   114518155.212        -521.248          43.000  
G 6  21492076.978   114517045.8002       -521.130          45.000  
G11  21657295.122   115385280.3902       -521.351          32.000  
G 3  21492301.511   114518081.695        -521.254          44.000  
G22  21546549.917   114803289.6982       -521.383          33.000  
G12  21436055.318   114222649.186        -520.829          30.000  
> 2019  6 16  1 28 57.0000000  0  8                     
G 1  21492406.631   114518648.354        -521.394          37.000  
G 4  21492400.601   114518602.048        -521.234          46.000  
G 2  21492404.402   114518676.310        -521.326          43.000  
G 6  21492176.322   114517566.9072       -521.185          45.000  
G11  21657393.291   115385801.4692       -521.559          32.000  
G 3  21492400.750   114518602.797        -521.200          44.000  
G22  21546649.220   114803810.8132       -521.244          32.000  
G12  21436154.570   114223170.268        -520.619          30.000  
> 2019  6 16  1 28 58.0000000  0  8                     
G 1  21492505.799   114519169.234        -521.210          37.000  
G 4  21492499.798   114519122.924        -521.058          46.000  
G 2  21492503.552   114519197.186        -521.157          43.000  
G 6  21492275.632   114518087.7802       -520.997          45.000  
G11  21657492.391   115386322.3522       -521.804          32.000  
G 3  21492499.936   114519123.665        -520.989          44.000  
G22  21546748.473   114804331.6982       -521.200          32.000  
G12  21436253.811   114223691.172        -520.687          30.000  
> 2019  6 16  1 28 59.0000000  0  8                     
G 1  21492604.981   114519690.240        -521.232          37.000  
G 4  21492598.964   114519643.922        -521.073          46.000  
G 2  21492602.686   114519718.181        -521.271          43.000  
G 6  21492374.991   114518608.7802       -521.058          45.000  
G11  21657592.890   115386843.3182       -521.088          32.000  
G 3  21492599.170   114519644.665        -521.089          44.000  
G22  21546847.571   114804852.6792       -521.241          32.000  
G12  21436353.022   114224212.184        -521.118          31.000  
