     2.10           OBSERVATION DATA    M (MIXED)           RINEX VERSION / TYPE
RTKCONV 2.4.2                           20200427 132723 UTC PGM / RUN BY / DATE 
log: C:\Users\ygc\Desktop\差分分量估计\54所实验程序\54所实  COMMENT             
format: u-blox                                              COMMENT             
                                                            MARKER NAME         
                                                            MARKER NUMBER       
                                                            OBSERVER / AGENCY   
                                                            REC # / TYPE / VERS 
                                                            ANT # / TYPE        
        0.0000        0.0000        0.0000                  APPROX POSITION XYZ 
        0.0000        0.0000        0.0000                  ANTENNA: DELTA H/E/N
     1     1                                                WAVELENGTH FACT L1/2
     4    C1    L1    D1    S1                              # / TYPES OF OBSERV 
  2025     8    16    11    37   25.0020000     GPS         TIME OF FIRST OBS   
  2025     8    16    11    43    3.8020000     GPS         TIME OF LAST OBS    
                                                            END OF HEADER       
 25  8 16 11 37 25.0020000  0 18G 1G 3G 2G 4G 5G 6G 7G 8G10G25G23G 9
                                G28G24G32G12G13G16
  22352766.197   117464635.218       -1203.271          49.000  
  22352761.308   117464647.504       -1203.246          49.000  
  22352768.657   117464618.551       -1203.271          49.000  
  22352767.051   117464582.571       -1203.291          49.000  
  22352768.736   117464652.202       -1203.297          41.000  
  22352767.266   117464631.265       -1203.304          49.000  
  22352770.316   117464575.969       -1203.324          47.000  
  22352771.557   117464638.645       -1203.305          49.000  
  22453583.112   117994348.8602      -1203.230          35.000  
  22482011.987   118143779.0812      -1203.286          38.000  
  22444796.610   117948207.5632      -1203.383          40.000  
  22230582.372                       -1203.906          35.000  
  22165223.330                       -1203.131          32.000  
  22495785.446   118216155.1302      -1203.342          38.000  
  22540927.624   118453384.9082      -1203.325          34.000  
  22209770.190   116713130.0672      -1203.400          40.000  
  22407870.931   117754157.7122      -1203.376          38.000  
  22339296.276   117393794.1372      -1203.328          40.000  
 25  8 16 11 37 25.2020000  0 18G 1G 3G 2G 4G 5G 6G 7G 8G10G25G23G 9
                                G28G24G32G12G13G16
  22352811.986   117464875.865       -1203.225          49.000  
  22352807.076   117464888.154       -1203.286          49.000  
  22352814.406   117464859.196       -1203.207          49.000  
  22352812.804   117464823.215       -1203.193          49.000  
  22352814.561   117464892.849       -1203.210          41.000  
  22352813.030   117464871.908       -1203.181          49.000  
  22352816.016   117464816.612       -1203.192          47.000  
  22352817.305   117464879.289       -1203.207          49.000  
  22453628.894   117994589.5092      -1203.139          35.000  
  22482057.683   118144019.7282      -1203.165          38.000  
  22444842.306   117948448.2032      -1203.216          40.000  
  22230628.418                       -1203.906          35.000  
  22165267.485                       -1203.131          32.000  
  22495831.178   118216395.7712      -1203.148          38.000  
  22540973.465   118453625.5552      -1203.147          34.000  
  22209815.900   116713370.7072      -1203.221          40.000  
  22407916.735   117754398.3492      -1203.181          38.000  
  22339342.049   117394034.7782      -1203.193          40.000  
 25  8 16 11 37 25.4020000  0 18G 1G 3G 2G 4G 5G 6G 7G 8G10G25G23G 9
                                G28G24G32G12G13G16
  22352857.795   117465116.493       -1203.224          49.000  
  22352852.855   117465128.783       -1203.256          49.000  
  22352860.146   117465099.823       -1203.207          49.000  
  22352858.626   117465063.841       -1203.173          49.000  
  22352860.306   117465133.461       -1202.999          41.000  
  22352858.784   117465112.533       -1203.174          49.000  
  22352861.830   117465057.233       -1203.103          47.000  
  22352863.098   117465119.913       -1203.160          49.000  
  22453674.680   117994829.6071      -1202.800          35.000  
  22482103.376   118144259.8691      -1203.413          38.000  
  22444887.955   117948688.811       -1202.887          39.000  
  22230674.073                       -1203.906          35.000  
  22165313.242                       -1203.131          32.000  
  22495876.880   118216636.385       -1202.906          38.000  
  22541019.317   118453866.210       -1203.741          34.000  
  22209861.579   116713610.8221      -1203.033          40.000  
  22407962.509   117754638.985       -1203.347          38.000  
  22339387.789   117394274.9061      -1203.198          40.000  
 25  8 16 11 37 25.6020000  0 18G 1G 3G 2G 4G 5G 6G 7G 8G10G25G23G 9
                                G28G24G32G12G13G16
  22352903.562   117465357.125       -1203.089          49.000  
  22352898.626   117465369.415       -1203.082          49.000  
  22352905.794   117465340.457       -1203.108          49.000  
  22352904.393   117465304.477       -1203.141          49.000  
  22352906.137   117465374.101       -1203.179          41.000  
  22352904.522   117465353.169       -1203.114          49.000  
  22352907.605   117465297.872       -1203.147          47.000  
  22352908.867   117465360.549       -1203.114          49.000  
  22453720.495   117995070.245       -1203.291          35.000  
  22482149.046   118144500.496       -1203.126          37.000  
  22444933.667   117948929.455       -1203.163          39.000  
  22230719.953                       -1203.906          35.000  
  22165363.343                       -1203.131          32.000  
  22495922.581   118216877.030       -1203.216          37.000  
  22541065.140   118454106.833       -1202.965          34.000  
  22209907.348   116713851.464       -1203.131          40.000  
  22408008.244   117754879.613       -1203.037          38.000  
  22339433.591   117394515.540       -1203.149          40.000  
 25  8 16 11 37 25.8020000  0 17G 1G 3G 2G 4G 5G 6G 7G 8G10G25G23G 9
                                G28G32G12G13G16
  22352949.374   117465597.752       -1203.155          49.000  
  22352944.430   117465610.042       -1203.115          49.000  
  22352951.587   117465581.085       -1203.208          49.000  
  22352950.234   117465545.106       -1203.280          49.000  
  22352951.914   117465614.727       -1203.288          41.000  
  22352950.317   117465593.799       -1203.286          49.000  
  22352953.443   117465538.501       -1203.340          47.000  
  22352954.686   117465601.178       -1203.240          49.000  
  22453766.293   117995310.866       -1203.223          35.000  
  22482194.739   118144741.124       -1203.145          37.000  
  22444979.344   117949170.086       -1203.372          40.000  
  22230765.793                       -1203.906          35.000  
  22165411.944                       -1203.131          32.000  
  22541110.972   118454347.474       -1203.184          34.000  
  22209953.073   116714092.094       -1203.386          40.000  
  22408054.031   117755120.248       -1203.246          38.000  
  22339479.351   117394756.169       -1203.239          40.000  
 25  8 16 11 37 26.0020000  0 17G 1G 3G 2G 4G 5G 6G 7G 8G10G25G23G 9
                                G28G32G12G13G16
  22352995.168   117465838.375       -1203.240          49.000  
  22352990.240   117465850.669       -1203.277          49.000  
  22352997.286   117465821.706       -1203.245          49.000  
  22352996.030   117465785.723       -1203.246          49.000  
  22352997.744   117465855.345       -1203.306          40.000  
  22352996.068   117465834.415       -1203.233          49.000  
  22352999.422   117465779.118       -1203.281          47.000  
  22353000.462   117465841.797       -1203.253          49.000  
  22453812.095   117995551.486       -1203.327          35.000  
  22482240.461   118144981.746       -1203.318          37.000  
  22445025.081   117949410.704       -1203.365          40.000  
  22230811.430                       -1203.906          35.000  
  22165459.541                       -1203.131          32.000  
  22541156.893   118454588.091       -1203.403          34.000  
  22209998.797   116714332.709       -1203.247          40.000  
  22408099.838   117755360.863       -1203.262          38.000  
  22339525.126   117394996.787       -1203.299          40.000  
 25  8 16 11 37 26.2020000  0 17G 1G 3G 2G 4G 5G 6G 7G 8G10G25G23G 9
                                G28G32G12G13G16
  22353040.953   117466079.004       -1203.276          49.000  
  22353036.036   117466091.302       -1203.334          49.000  
  22353043.014   117466062.337       -1203.282          49.000  
  22353041.796   117466026.354       -1203.275          49.000  
  22353043.543   117466095.975       -1203.236          40.000  
  22353041.850   117466075.043       -1203.270          49.000  
  22353045.180   117466019.747       -1203.257          47.000  
  22353046.256   117466082.427       -1203.282          49.000  
  22453857.875   117995792.113       -1203.232          35.000  
  22482286.175   118145222.373       -1203.277          37.000  
  22445070.728   117949651.330       -1203.245          40.000  
  22230857.093                       -1203.906          35.000  
  22165507.004                       -1203.131          32.000  
  22541202.747   118454828.719       -1203.296          34.000  
  22210044.507   116714573.343       -1203.290          40.000  
  22408145.558   117755601.491       -1203.240          38.000  
  22339570.911   117395237.416       -1203.269          40.000  
 25  8 16 11 37 26.4020000  0 17G 1G 3G 2G 4G 5G 6G 7G 8G10G25G23G 9
                                G28G32G12G13G16
  22353086.706   117466319.624       -1203.170          49.000  
  22353081.792   117466331.922       -1203.181          49.000  
  22353088.653   117466302.959       -1203.162          49.000  
  22353087.565   117466266.974       -1203.164          49.000  
  22353089.254   117466336.592       -1203.113          40.000  
  22353087.619   117466315.658       -1203.140          49.000  
  22353090.958   117466260.363       -1203.113          47.000  
  22353092.014   117466323.050       -1203.115          49.000  
  22453903.680   117996032.765       -1202.889          35.000  
  22482331.910   118145463.000       -1203.028          37.000  
  22445116.490   117949891.969       -1203.081          40.000  
  22230902.794                       -1203.906          35.000  
  22165552.200                       -1203.131          32.000  
  22541248.554   118455069.325       -1203.110          34.000  
  22210090.202   116714813.981       -1203.015          40.000  
  22408191.312   117755842.110       -1203.059          38.000  
  22339616.689   117395478.033       -1203.106          40.000  
 25  8 16 11 37 26.6020000  0 17G 1G 3G 2G 4G 5G 6G 7G 8G10G25G23G 9
                                G28G32G12G13G16
  22353132.463   117466560.242       -1202.988          49.000  
  22353127.574   117466572.541       -1203.036          49.000  
  22353134.330   117466543.580       -1203.014          49.000  
  22353133.318   117466507.594       -1203.009          49.000  
  22353135.029   117466577.216       -1203.066          40.000  
  22353133.373   117466556.279       -1203.014          49.000  
  22353136.705   117466500.986       -1203.020          46.000  
  22353137.762   117466563.670       -1203.003          49.000  
  22453949.466   117996273.391       -1203.194          35.000  
  22482377.603   118145703.625       -1203.114          37.000  
  22445162.211   117950132.593       -1203.031          40.000  
  22230948.457                       -1203.809          35.000  
  22165596.339                       -1203.131          32.000  
  22541294.377   118455309.949       -1203.075          34.000  
  22210135.953   116715054.608       -1203.090          40.000  
  22408237.134   117756082.734       -1202.963          38.000  
  22339662.417   117395718.654       -1202.966          40.000  
 25  8 16 11 37 26.8020000  0 17G 1G 3G 2G 4G 5G 6G 7G 8G10G25G23G 9
                                G28G32G12G13G16
  22353178.221   117466800.846       -1202.950          49.000  
  22353173.341   117466813.147       -1202.950          49.000  
  22353180.047   117466784.186       -1203.007          49.000  
  22353179.096   117466748.200       -1202.988          49.000  
  22353180.775   117466817.826       -1203.112          40.000  
  22353179.135   117466796.883       -1203.033          49.000  
  22353182.491   117466741.593       -1203.066          46.000  
  22353183.528   117466804.275       -1203.009          49.000  
  22453995.267   117996513.988       -1202.980          36.000  
  22482423.272   118145944.228       -1203.016          37.000  
  22445207.905   117950373.199       -1203.070          40.000  
  22230994.180   116824662.4352      -1200.989          35.000  
  22165638.998                       -1203.131          32.000  
  22541340.173   118455550.555       -1203.061          34.000  
  22210181.642   116715295.213       -1203.087          40.000  
  22408282.872   117756323.346       -1203.138          37.000  
  22339708.204   117395959.262       -1203.074          40.000  
 25  8 16 11 37 27.0020000  0 17G 1G 3G 2G 4G 5G 6G 7G 8G10G25G23G 9
                                G28G32G12G13G16
  22353223.984   117467041.451       -1202.997          49.000  
  22353219.060   117467053.753       -1203.016          49.000  
  22353225.726   117467024.790       -1203.016          49.000  
  22353224.864   117466988.804       -1203.036          49.000  
  22353226.612   117467058.425       -1203.020          40.000  
  22353224.858   117467037.484       -1203.037          49.000  
  22353228.273   117466982.198       -1203.088          46.000  
  22353229.270   117467044.877       -1203.015          49.000  
  22454041.039   117996754.602       -1203.191          36.000  
  22482469.001   118146184.836       -1203.054          37.000  
  22445253.658   117950613.801       -1203.069          40.000  
  22231039.881   116824903.1012      -1203.414          35.000  
  22165680.675                       -1203.131          32.000  
  22541386.032   118455791.167       -1203.255          34.000  
  22210227.381   116715535.816       -1203.073          40.000  
  22408328.662   117756563.947       -1203.144          37.000  
  22339753.980   117396199.864       -1203.054          40.000  
 25  8 16 11 37 27.2020000  0 17G 1G 3G 2G 4G 5G 6G 7G 8G10G25G23G 9
                                G28G32G12G13G16
  22353269.723   117467282.040       -1202.920          49.000  
  22353264.845   117467294.344       -1202.920          49.000  
  22353271.449   117467265.391       -1203.077          49.000  
  22353270.690   117467229.397       -1203.019          49.000  
  22353272.386   117467299.031       -1203.072          40.000  
  22353270.626   117467278.079       -1203.010          49.000  
  22353274.180   117467222.806       -1203.263          46.000  
  22353275.059   117467285.465       -1202.946          49.000  
  22454086.845   117996995.193       -1203.187          36.000  
  22482514.696   118146425.421       -1202.937          37.000  
  22445299.272   117950854.391       -1202.987          40.000  
  22231085.634   116825143.6892      -1203.369          35.000  
  22165724.562                       -1203.131          32.000  
  22541431.837   118456031.748       -1203.069          34.000  
  22210273.111   116715776.392       -1202.804          40.000  
  22408374.415   117756804.523       -1202.794          37.000  
  22339799.726   117396440.460       -1203.090          40.000  
 25  8 16 11 37 27.4020000  0 18G 1G 3G 2G 4G 5G 6G 7G 8G10G25G23G 9
                                G28G24G32G12G13G16
  22353315.489   117467522.630       -1202.920          49.000  
  22353310.584   117467534.936       -1202.896          49.000  
  22353317.175   117467505.976       -1202.872          49.000  
  22353316.469   117467469.986       -1202.954          49.000  
  22353318.254   117467539.617       -1203.173          40.000  
  22353316.396   117467518.662       -1203.007          49.000  
  22353319.907   117467463.382       -1202.794          45.000  
  22353320.823   117467526.058       -1202.970          49.000  
  22454132.580   117997235.776       -1202.821          35.000  
  22482560.426   118146666.013       -1202.920          37.000  
  22445345.067   117951094.984       -1203.039          40.000  
  22231131.336   116825384.2752      -1203.008          35.000  
  22165771.672                       -1203.131          32.000  
  22496334.296   118219034.5531      -1203.029          38.000  
  22541477.653   118456272.341       -1202.929          34.000  
  22210318.812   116716016.989       -1203.080          40.000  
  22408420.186   117757045.116       -1203.011          38.000  
  22339845.515   117396681.046       -1202.977          40.000  
 25  8 16 11 37 27.6020000  0 18G 1G 3G 2G 4G 5G 6G 7G 8G10G25G23G 9
                                G28G24G32G12G13G16
  22353361.270   117467763.214       -1203.105          49.000  
  22353356.361   117467775.529       -1203.089          49.000  
  22353362.918   117467746.564       -1203.130          49.000  
  22353362.259   117467710.571       -1203.042          49.000  
  22353364.037   117467780.208       -1203.078          40.000  
  22353362.162   117467759.239       -1203.114          49.000  
  22353365.766   117467703.965       -1203.079          45.000  
  22353366.667   117467766.637       -1203.132          49.000  
  22454178.382   117997476.355       -1202.760          35.000  
  22482606.173   118146906.593       -1202.967          37.000  
  22445390.745   117951335.563       -1203.099          40.000  
  22231177.038   116825624.8572      -1203.104          35.000  
  22165819.061                       -1203.131          32.000  
  22496380.118   118219275.130       -1203.136          38.000  
  22541523.503   118456512.921       -1202.812          34.000  
  22210364.548   116716257.570       -1203.183          40.000  
  22408465.965   117757285.697       -1203.185          38.000  
  22339891.252   117396921.631       -1203.159          40.000  
 25  8 16 11 37 27.8020000  0 25G 1G 3G 2G 4G 5G 6G 7G 8G10G25G23G 9
                                G29G28G11G14G15G24G32G12G13G16G19G27
                                G17
  22353407.051   117468003.791       -1202.855          49.000  
  22353402.112   117468016.106       -1202.889          49.000  
  22353408.566   117467987.142       -1202.795          49.000  
  22353407.996   117467951.139       -1202.737          49.000  
  22353409.865   117468020.768       -1203.083          40.000  
  22353407.769   117467999.805       -1202.735          49.000  
  22353411.473   117467944.535       -1202.729          45.000  
  22353412.391   117468007.201       -1202.691          49.000  
  22454224.200   117997716.947       -1202.904          34.000  
  22482651.940   118147147.167       -1202.713          37.000  
  22445436.501   117951576.135       -1202.727          40.000  
  22231222.744   116825865.4482      -1202.877          35.000  
  22424922.123   117843760.1642      -1202.700          41.000  
  22165867.295                       -1203.131          33.000  
  22262317.353   116989267.0882      -2202.727          40.000  
  22526322.831                       -1202.955          36.000  
  22424925.104   117843776.2352      -1202.766          37.000  
  22496425.778   118219515.698       -1202.637          38.000  
  22541569.353   118456753.499       -1202.724          33.000  
  22210410.205   116716498.137       -1202.682          40.000  
  22408511.752   117757526.266       -1202.721          38.000  
  22339937.035   117397162.201       -1202.693          40.000  
  22349901.204   117449522.6132      -1202.838          39.000  
  22403241.420   117729827.6822      -1202.733          39.000  
  22335191.672   117372223.4852       -202.741          38.000  
 25  8 16 11 37 28.0020000  0 25G 1G 3G 2G 4G 5G 6G 7G 8G10G25G23G 9
                                G29G28G11G14G15G24G32G12G13G16G19G27
                                G17
  22353452.846   117468244.398       -1203.253          49.000  
  22353447.921   117468256.719       -1203.278          49.000  
  22353454.258   117468227.752       -1203.226          49.000  
  22353453.832   117468191.748       -1203.272          49.000  
  22353455.647   117468261.380       -1202.992          39.000  
  22353453.279   117468240.408       -1203.274          49.000  
  22353457.347   117468185.148       -1203.213          45.000  
  22353458.207   117468247.808       -1203.221          49.000  
  22454269.984   117997957.550       -1203.332          34.000  
  22482697.652   118147387.782       -1203.296          37.000  
  22445482.189   117951816.746       -1203.252          40.000  
  22231268.504   116826106.0542      -1203.370          35.000  
  22424967.885   117844000.7782      -1203.285          41.000  
  22165916.440                       -1203.131          33.000  
  22262365.123   116989707.6972      -2203.226          40.000  
  22526368.889                       -1202.955          35.000  
  22424970.945   117844016.8402      -1203.187          37.000  
  22496471.477   118219756.310       -1203.308          38.000  
  22541615.234   118456994.115       -1203.342          33.000  
  22210455.982   116716738.754       -1203.290          40.000  
  22408557.540   117757766.874       -1203.212          38.000  
  22339982.770   117397402.816       -1203.323          40.000  
  22349946.946   117449763.2242      -1203.310          39.000  
  22403287.325   117730068.2932      -1203.246          40.000  
  22335233.847   117372264.0972       -203.349          38.000  
 25  8 16 11 37 28.2020000  0 25G 1G 3G 2G 4G 5G 6G 7G 8G10G25G23G 9
                                G29G28G11G14G15G24G32G12G13G16G19G27
                                G17
  22353498.583   117468485.016       -1203.135          49.000  
  22353493.671   117468497.337       -1203.208          49.000  
  22353499.999   117468468.363       -1203.205          49.000  
  22353499.568   117468432.366       -1203.133          49.000  
  22353501.504   117468501.999       -1202.869          39.000  
  22353498.610   117468481.013       -1203.042          49.000  
  22353503.125   117468425.757       -1203.048          45.000  
  22353503.914   117468488.416       -1203.066          49.000  
  22454315.795   117998198.133       -1203.058          33.000  
  22482743.406   118147628.394       -1203.176          37.000  
  22445527.940   117952057.359       -1203.193          40.000  
  22231314.214   116826346.6562      -1203.105          35.000  
  22425013.761   117844241.4052      -1203.096          41.000  
  22165964.559                       -1203.131          33.000  
  22262409.777   116990148.3172      -2203.082          40.000  
  22526414.210                       -1202.955          35.000  
  22425016.661   117844257.4672      -1203.060          37.000  
  22496517.236   118219996.886       -1203.250          38.000  
  22541661.094   118457234.707       -1202.968          33.000  
  22210501.673   116716979.367       -1203.171          40.000  
  22408603.313   117758007.501       -1203.091          38.000  
  22340028.525   117397643.421       -1203.159          41.000  
  22349992.676   117450003.8212      -1203.113          39.000  
  22403333.472   117730308.8972      -1203.183          39.000  
  22335278.374   117372304.7202       -203.097          38.000  
 25  8 16 11 37 28.4020000  0 25G 1G 3G 2G 4G 5G 6G 7G 8G10G25G23G 9
                                G29G28G11G14G15G24G32G12G13G16G19G27
                                G17
  22353544.383   117468725.611       -1203.075          49.000  
  22353539.425   117468737.934       -1203.006          49.000  
  22353545.652   117468708.958       -1202.969          49.000  
  22353545.348   117468672.962       -1203.106          49.000  
  22353547.408   117468742.622       -1203.236          39.000  
  22353544.370   117468721.601       -1202.877          49.000  
  22353548.930   117468666.363       -1203.020          44.000  
  22353549.676   117468729.003       -1202.799          49.000  
  22454361.546   117998438.724       -1202.628          33.000  
  22482789.164   118147868.987       -1202.896          37.000  
  22445573.672   117952297.951       -1202.970          40.000  
  22231359.882   116826587.2472      -1202.953          35.000  
  22425059.552   117844481.9972      -1203.003          41.000  
  22166011.773                       -1203.271          32.000  
  22262456.157   116990588.9082      -2203.017          40.000  
  22526459.231                       -1202.148          35.000  
  22425062.218   117844498.0582      -1203.024          37.000  
  22496562.931   118220237.482       -1202.883          38.000  
  22541707.023   118457475.304       -1202.628          33.000  
  22210547.438   116717219.961       -1202.995          40.000  
  22408649.113   117758248.090       -1202.936          38.000  
  22340074.285   117397884.013       -1202.930          41.000  
  22350038.391   117450244.4192      -1202.941          39.000  
  22403379.330   117730549.4912      -1202.890          39.000  
  22335322.522   117372345.3162       -203.054          38.000  
 25  8 16 11 37 28.6020000  0 25G 1G 3G 2G 4G 5G 6G 7G 8G10G25G23G 9
                                G29G28G11G14G15G24G32G12G13G16G19G27
                                G17
  22353590.156   117468966.186       -1202.912          49.000  
  22353585.194   117468978.511       -1202.977          49.000  
  22353591.371   117468949.531       -1202.855          49.000  
  22353591.082   117468913.520       -1202.747          49.000  
  22353593.205   117468983.172       -1202.862          39.000  
  22353590.342   117468962.163       -1202.764          49.000  
  22353594.880   117468906.926       -1202.881          44.000  
  22353595.438   117468969.571       -1202.876          49.000  
  22454407.343   117998679.296       -1202.729          33.000  
  22482834.899   118148109.560       -1202.879          37.000  
  22445619.364   117952538.520       -1202.776          40.000  
  22231405.598   116826827.8262      -1202.604          35.000  
  22425105.409   117844722.5672      -1202.814          41.000  
  22166056.825                       -1202.821          32.000  
  22262521.434   116991029.4792      -2202.809          40.000  
  22526503.626                       -1202.889          35.000  
  22425107.780   117844738.6332      -1202.821          37.000  
  22496608.641   118220478.051       -1202.827          38.000  
  22541752.926   118457715.873       -1202.940          33.000  
  22210593.130   116717460.533       -1202.801          40.000  
  22408694.882   117758488.664       -1202.880          38.000  
  22340120.037   117398124.586       -1202.785          41.000  
  22350084.134   117450484.9872      -1202.939          39.000  
  22403425.005   117730790.0682      -1202.838          39.000  
  22335368.045   117372385.8892       -202.821          38.000  
 25  8 16 11 37 28.8020000  0 25G 1G 3G 2G 4G 5G 6G 7G 8G10G25G23G 9
                                G29G28G11G14G15G24G32G12G13G16G19G27
                                G17
  22353635.971   117469206.752       -1202.882          49.000  
  22353630.979   117469219.077       -1202.828          49.000  
  22353637.141   117469190.099       -1202.815          49.000  
  22353636.848   117469154.089       -1202.775          49.000  
  22353638.993   117469223.752       -1202.550          39.000  
  22353636.483   117469202.726       -1202.751          49.000  
  22353640.674   117469147.501       -1202.825          44.000  
  22353641.181   117469210.129       -1202.629          49.000  
  22454453.139   117998919.871       -1202.846          33.000  
  22482880.703   118148350.132       -1202.861          37.000  
  22445665.121   117952779.086       -1202.710          39.000  
  22231451.307   116827068.3922      -1202.611          34.000  
  22425151.333   117844963.1382      -1202.830          42.000  
  22166099.254   116483654.6982      -1202.736          32.000  
  22262535.253   116991470.0422      -2202.678          40.000  
  22526548.079   118377815.9832      -1202.637          35.000  
  22425153.491   117844979.1932      -1202.631          37.000  
  22496654.329   118220718.612       -1202.678          38.000  
  22541798.788   118457956.440       -1202.746          33.000  
  22210638.894   116717701.099       -1202.690          40.000  
  22408740.659   117758729.223       -1202.679          38.000  
  22340165.787   117398365.150       -1202.713          41.000  
  22350129.866   117450725.5472      -1202.657          39.000  
  22403470.893   117731030.6312      -1202.653          39.000  
  22335414.388   117372426.4542       -202.703          38.000  
 25  8 16 11 37 29.0020000  0 25G 1G 3G 2G 4G 5G 6G 7G 8G10G25G23G 9
                                G29G28G11G14G15G24G32G12G13G16G19G27
                                G17
  22353681.723   117469447.319       -1202.840          49.000  
  22353676.762   117469459.648       -1202.964          49.000  
  22353682.864   117469430.676       -1202.894          49.000  
  22353682.611   117469394.654       -1202.838          49.000  
  22353684.859   117469464.311       -1202.922          39.000  
  22353682.641   117469443.288       -1202.800          49.000  
  22353686.599   117469388.052       -1202.747          44.000  
  22353686.993   117469450.699       -1202.864          49.000  
  22454498.934   117999160.469       -1203.509          33.000  
  22482926.509   118148590.698       -1202.901          37.000  
  22445710.830   117953019.672       -1203.101          39.000  
  22231496.990   116827308.9432      -1202.594          34.000  
  22425197.210   117845203.6922      -1202.657          42.000  
  22166143.357   116483895.2822      -1203.081          32.000  
  22262571.887   116991910.6072      -2202.854          40.000  
  22526592.403   118378056.5662      -1202.950          35.000  
  22425199.079   117845219.7562      -1202.674          37.000  
  22496700.094   118220959.221       -1203.544          38.000  
  22541844.712   118458197.034       -1203.410          33.000  
  22210684.644   116717941.688       -1203.139          40.000  
  22408786.458   117758969.780       -1202.622          38.000  
  22340211.516   117398605.717       -1202.792          41.000  
  22350175.619   117450966.1242      -1203.007          39.000  
  22403517.106   117731271.2212      -1203.227          39.000  
  22335433.385   117372467.0052       -202.564          37.000  
 25  8 16 11 37 29.2020000  0 25G 1G 3G 2G 4G 5G 6G 7G 8G10G25G23G 9
                                G29G28G11G14G15G24G32G12G13G16G19G27
                                G17
  22353727.519   117469687.922       -1203.098          49.000  
  22353722.538   117469700.248       -1203.072          49.000  
  22353728.577   117469671.262       -1203.052          49.000  
  22353728.361   117469635.243       -1203.102          49.000  
  22353730.780   117469704.918       -1203.243          39.000  
  22353728.782   117469683.867       -1203.088          49.000  
  22353732.536   117469628.620       -1202.980          44.000  
  22353732.745   117469691.286       -1203.060          49.000  
  22454544.735   117999401.052       -1202.950          33.000  
  22482972.340   118148831.291       -1203.169          37.000  
  22445756.640   117953260.257       -1203.018          40.000  
  22231542.640   116827549.5442      -1203.384          34.000  
  22425243.149   117845444.2922      -1203.116          41.000  
  22166187.376   116484135.8722      -1203.063          33.000  
  22262615.747   116992351.2032      -2203.171          40.000  
  22526637.279   118378297.1572      -1202.968          35.000  
  22425244.908   117845460.3542      -1203.204          37.000  
  22496745.818   118221199.788       -1202.924          38.000  
  22541890.590   118458437.624       -1203.104          33.000  
  22210730.372   116718182.268       -1203.007          40.000  
  22408832.219   117759210.376       -1203.148          38.000  
  22340257.249   117398846.311       -1203.126          41.000  
  22350221.350   117451206.7062      -1203.011          39.000  
  22403562.824   117731511.8082      -1203.010          39.000  
  22335443.873   117372507.6012       -203.334          35.000  
 25  8 16 11 37 29.4020000  0 25G 1G 3G 2G 4G 5G 6G 7G 8G10G25G23G 9
                                G29G28G11G14G15G24G32G12G13G16G19G27
                                G17
  22353773.265   117469928.493       -1202.755          49.000  
  22353768.290   117469940.813       -1202.711          49.000  
  22353774.331   117469911.819       -1202.526          49.000  
  22353774.103   117469875.805       -1202.766          49.000  
  22353776.615   117469945.496       -1203.115          41.000  
  22353774.850   117469924.423       -1202.487          49.000  
  22353778.352   117469869.175       -1202.491          44.000  
  22353778.435   117469931.838       -1202.590          49.000  
  22454590.522   117999641.621       -1202.526          33.000  
  22483018.131   118149071.853       -1202.713          37.000  
  22445802.306   117953500.819       -1202.587          40.000  
  22231588.201   116827790.0912      -1202.442          34.000  
  22425288.854   117845684.8482      -1202.634          41.000  
  22166231.714   116484376.4352      -1202.562          33.000  
  22262662.483   116992791.7652      -2202.690          40.000  
  22526682.207   118378537.7292      -1202.594          34.000  
  22425290.716   117845700.9082      -1202.545          37.000  
  22496791.550   118221440.353       -1202.563          39.000  
  22541936.425   118458678.182       -1202.543          33.000  
  22210776.083   116718422.831       -1202.528          40.000  
  22408877.966   117759450.935       -1202.596          37.000  
  22340302.953   117399086.871       -1202.612          41.000  
  22350267.075   117451447.2652      -1202.524          39.000  
  22403608.487   117731752.3712      -1202.558          39.000  
  22335508.430   117372548.1452       -202.413          35.000  
 25  8 16 11 37 29.6020000  0 25G 1G 3G 2G 4G 5G 6G 7G 8G10G25G23G 9
                                G29G28G11G14G15G24G32G12G13G16G19G27
                                G17
  22353819.028   117470169.064       -1202.871          49.000  
  22353814.044   117470181.376       -1202.836          49.000  
  22353820.128   117470152.400       -1202.841          49.000  
  22353819.835   117470116.359       -1202.851          49.000  
  22353822.483   117470186.058       -1202.898          42.000  
  22353820.923   117470164.996       -1202.901          49.000  
  22353824.178   117470109.724       -1202.764          44.000  
  22353824.201   117470172.400       -1202.687          49.000  
  22454636.320   117999882.190       -1202.842          33.000  
  22483063.895   118149312.425       -1202.882          37.000  
  22445848.073   117953741.389       -1202.910          40.000  
  22231633.829   116828030.6762      -1203.150          34.000  
  22425334.461   117845925.4202      -1202.896          41.000  
  22166276.465   116484617.0192      -1202.949          34.000  
  22262706.097   116993232.3352      -2202.918          40.000  
  22526727.046   118378778.2962      -1202.844          34.000  
  22425336.458   117845941.4912      -1202.913          37.000  
  22496837.294   118221680.923       -1202.841          39.000  
  22541982.288   118458918.756       -1202.867          33.000  
  22210821.803   116718663.402       -1202.934          40.000  
  22408923.740   117759691.506       -1202.843          37.000  
  22340348.744   117399327.444       -1202.882          41.000  
  22350312.846   117451687.8332      -1202.818          40.000  
  22403654.287   117731992.9442      -1202.875          39.000  
  22335562.941   117372588.7212       -202.934          35.000  
 25  8 16 11 37 29.8020000  0 25G 1G 3G 2G 4G 5G 6G 7G 8G10G25G23G 9
                                G29G28G11G14G15G24G32G12G13G16G19G27
                                G17
  22353864.815   117470409.646       -1203.010          49.000  
  22353859.845   117470421.948       -1203.008          49.000  
  22353865.903   117470392.962       -1202.965          49.000  
  22353865.574   117470356.929       -1202.938          49.000  
  22353868.466   117470426.606       -1202.797          43.000  
  22353867.056   117470405.557       -1203.006          49.000  
  22353869.997   117470350.296       -1203.040          45.000  
  22353870.000   117470412.963       -1203.050          49.000  
  22454682.097   118000122.763       -1203.125          33.000  
  22483109.659   118149552.996       -1203.015          37.000  
  22445893.788   117953981.952       -1203.070          40.000  
  22231679.436   116828271.2372      -1202.961          33.000  
  22425380.123   117846165.9842      -1203.043          41.000  
  22166321.201   116484857.5832      -1203.110          34.000  
  22262750.898   116993672.9022      -2202.983          40.000  
  22526772.111   118379018.8742      -1203.232          34.000  
  22425382.128   117846182.0532      -1202.992          37.000  
  22496883.039   118221921.482       -1202.946          39.000  
  22542028.131   118459159.328       -1203.261          33.000  
  22210867.589   116718903.971       -1203.151          40.000  
  22408969.531   117759932.076       -1202.961          37.000  
  22340394.468   117399568.012       -1203.036          41.000  
  22350358.543   117451928.4002      -1203.069          40.000  
  22403700.029   117732233.5162      -1203.040          39.000  
  22335616.857   117372629.2782       -202.913          35.000  
 25  8 16 11 37 30.0020000  0 25G 1G 3G 2G 4G 5G 6G 7G 8G10G25G23G 9
                                G29G28G11G14G15G24G32G12G13G16G19G27
                                G17
  22353910.591   117470650.234       -1203.081          49.000  
  22353905.604   117470662.527       -1202.999          49.000  
  22353911.691   117470633.540       -1202.999          49.000  
  22353911.307   117470597.516       -1203.037          49.000  
  22353914.545   117470667.186       -1203.105          44.000  
  22353913.060   117470646.126       -1202.937          48.000  
  22353915.850   117470590.862       -1203.050          44.000  
  22353915.769   117470653.531       -1203.005          49.000  
  22454727.843   118000363.299       -1203.183          33.000  
  22483155.495   118149793.593       -1203.042          38.000  
  22445939.522   117954222.520       -1202.979          40.000  
  22231725.068   116828511.8512      -1202.816          33.000  
  22425425.794   117846406.5722      -1202.929          41.000  
  22166366.040   116485098.1742      -1203.092          33.000  
  22262798.831   116994113.5052      -2202.961          40.000  
  22526817.292   118379259.4512      -1202.956          34.000  
  22425427.775   117846422.6572      -1202.962          37.000  
  22496928.803   118222162.050       -1203.010          39.000  
  22542073.936   118459399.878       -1203.220          33.000  
  22210913.279   116719144.545       -1202.970          40.000  
  22409015.262   117760172.669       -1203.039          37.000  
  22340440.230   117399808.603       -1203.000          41.000  
  22350404.255   117452168.9732      -1203.030          40.000  
  22403745.777   117732474.0962      -1203.026          39.000  
  22335655.808   117372669.8732       -202.957          36.000  
 25  8 16 11 37 30.2020000  0 25G 1G 3G 2G 4G 5G 6G 7G 8G10G25G23G 9
                                G29G28G11G14G15G24G32G12G13G16G19G27
                                G17
  22353956.389   117470890.826       -1202.919          49.000  
  22353951.378   117470903.100       -1202.895          49.000  
  22353957.420   117470874.129       -1203.022          49.000  
  22353957.013   117470838.093       -1202.848          49.000  
  22353960.484   117470907.768       -1202.965          44.000  
  22353959.044   117470886.694       -1202.898          47.000  
  22353961.534   117470831.408       -1202.658          44.000  
  22353961.498   117470894.117       -1202.995          49.000  
  22454773.593   118000603.906       -1202.991          33.000  
  22483201.296   118150034.177       -1203.082          38.000  
  22445985.287   117954463.104       -1202.906          40.000  
  22231770.757   116828752.4512      -1203.146          33.000  
  22425471.433   117846647.1552      -1202.986          41.000  
  22166410.806   116485338.7762      -1203.157          33.000  
  22262850.481   116994554.0902      -2202.996          40.000  
  22526862.743   118379500.0352      -1202.759          34.000  
  22425473.406   117846663.2402      -1203.033          38.000  
  22496974.588   118222402.630       -1202.927          39.000  
  22542119.696   118459640.483       -1203.113          34.000  
  22210959.025   116719385.125       -1202.881          40.000  
  22409061.047   117760413.243       -1202.987          37.000  
  22340485.947   117400049.183       -1203.007          40.000  
  22350450.008   117452409.5492      -1202.879          40.000  
  22403791.498   117732714.6782      -1202.959          39.000  
  22335703.875   117372710.4502       -203.075          36.000  
 25  8 16 11 37 30.4020000  0 25G 1G 3G 2G 4G 5G 6G 7G 8G10G25G23G 9
                                G29G28G11G14G15G24G32G12G13G16G19G27
                                G17
  22354002.143   117471131.416       -1203.017          49.000  
  22353997.154   117471143.678       -1202.916          49.000  
  22354003.197   117471114.699       -1202.891          49.000  
  22354002.774   117471078.665       -1202.956          49.000  
  22354006.431   117471148.324       -1202.866          45.000  
  22354004.972   117471127.236       -1202.726          47.000  
  22354007.362   117471071.952       -1202.930          44.000  
  22354007.256   117471134.690       -1202.925          49.000  
  22454819.374   118000844.483       -1203.199          33.000  
  22483247.160   118150274.741       -1202.936          38.000  
  22446031.023   117954703.675       -1202.906          40.000  
  22231816.427   116828993.0322      -1203.039          33.000  
  22425517.141   117846887.7282      -1202.949          41.000  
  22166456.170   116485579.3312      -1202.881          33.000  
  22262895.471   116994994.6672      -2202.997          41.000  
  22526908.405   118379740.6362      -1202.824          35.000  
  22425519.077   117846903.8042      -1202.901          38.000  
  22497020.336   118222643.197       -1202.900          39.000  
  22542165.567   118459881.060       -1203.090          34.000  
  22211004.772   116719625.709       -1203.018          40.000  
  22409106.796   117760653.814       -1202.906          37.000  
  22340531.701   117400289.752       -1202.903          40.000  
  22350495.722   117452650.1242      -1202.898          41.000  
  22403837.230   117732955.2512      -1202.978          39.000  
  22335768.256   117372751.0032       -202.802          36.000  
 25  8 16 11 37 30.6020000  0 25G 1G 3G 2G 4G 5G 6G 7G 8G10G25G23G 9
                                G29G28G11G14G15G24G32G12G13G16G19G27
                                G17
  22354047.915   117471371.969       -1202.877          49.000  
  22354042.940   117471384.235       -1202.877          49.000  
  22354048.949   117471355.261       -1202.965          49.000  
  22354048.545   117471319.215       -1202.866          49.000  
  22354052.364   117471388.886       -1202.694          44.000  
  22354050.923   117471367.784       -1202.907          46.000  
  22354053.043   117471312.473       -1202.913          43.000  
  22354053.026   117471375.246       -1202.923          49.000  
  22454865.140   118001085.038       -1202.864          33.000  
  22483292.965   118150515.303       -1202.955          38.000  
  22446076.794   117954944.228       -1202.773          40.000  
  22231862.131   116829233.5962      -1202.878          33.000  
  22425562.798   117847128.2782      -1202.899          41.000  
  22166502.193   116485819.8912      -1202.867          32.000  
  22262940.669   116995435.2212      -2202.824          40.000  
  22526954.038   118379981.2002      -1202.939          35.000  
  22425564.654   117847144.3582      -1202.879          38.000  
  22497066.131   118222883.753       -1202.935          40.000  
  22542211.358   118460121.631       -1203.061          34.000  
  22211050.530   116719866.263       -1202.928          40.000  
  22409152.607   117760894.365       -1202.918          37.000  
  22340577.468   117400530.307       -1202.877          40.000  
  22350541.543   117452890.6842      -1202.934          41.000  
  22403882.974   117733195.8082      -1202.852          38.000  
  22335823.875   117372791.5602       -202.849          36.000  
 25  8 16 11 37 30.8020000  0 25G 1G 3G 2G 4G 5G 6G 7G 8G10G25G23G 9
                                G29G28G11G14G15G24G32G12G13G16G19G27
                                G17
  22354093.671   117471612.553       -1202.952          49.000  
  22354088.708   117471624.801       -1202.749          49.000  
  22354094.721   117471595.835       -1202.896          49.000  
  22354094.307   117471559.780       -1202.821          49.000  
  22354098.387   117471629.451       -1202.876          45.000  
  22354096.778   117471608.313       -1202.672          46.000  
  22354098.742   117471553.019       -1202.568          43.000  
  22354098.803   117471615.810       -1202.762          49.000  
  22454910.904   118001325.671       -1203.635          33.000  
  22483338.748   118150755.873       -1202.856          38.000  
  22446122.521   117955184.803       -1202.864          40.000  
  22231907.839   116829473.6511      -1202.454          33.000  
  22425608.496   117847368.8512      -1202.870          41.000  
  22166546.602   116486059.9641      -1202.830          32.000  
  22262991.976   116995875.7592      -2202.326          40.000  
  22526999.679   118380221.7592      -1202.496          35.000  
  22425610.283   117847384.9102      -1202.594          38.000  
  22497111.929   118223124.316       -1202.782          40.000  
  22542257.202   118460362.228       -1203.074          34.000  
  22211096.277   116720106.821       -1202.711          39.000  
  22409198.358   117761134.923       -1202.784          37.000  
  22340623.184   117400770.860       -1202.614          40.000  
  22350587.277   117453131.2532      -1202.767          41.000  
  22403928.723   117733436.3732      -1202.754          38.000  
  22335872.673   117372832.1262       -202.793          36.000  
 25  8 16 11 37 31.0020000  0 24G 1G 3G 2G 4G 5G 6G 7G 8G25G23G 9G29
                                G28G11G14G15G24G32G12G13G16G19G27G17
  22354139.450   117471853.138       -1202.997          49.000  
  22354134.493   117471865.389       -1203.010          49.000  
  22354140.474   117471836.418       -1203.011          49.000  
  22354140.064   117471800.367       -1202.977          49.000  
  22354144.390   117471870.021       -1202.977          45.000  
  22354142.725   117471848.884       -1202.895          46.000  
  22354144.481   117471793.589       -1202.963          44.000  
  22354144.569   117471856.395       -1202.979          49.000  
  22483384.481   118150996.459       -1203.149          38.000  
  22446168.306   117955425.392       -1203.099          40.000  
  22231953.537   116829714.263       -1203.230          32.000  
  22425654.129   117847609.4362      -1203.070          41.000  
  22166591.400   116486300.538       -1202.988          32.000  
  22263043.817   116996316.3602      -2203.166          39.000  
  22527045.416   118380462.3562      -1203.054          35.000  
  22425655.915   117847625.5012      -1203.083          36.000  
  22497157.767   118223364.901       -1203.013          40.000  
  22542303.138   118460602.814       -1203.016          34.000  
  22211142.050   116720347.409       -1203.111          39.000  
  22409244.146   117761375.511       -1203.006          37.000  
  22340668.963   117401011.445       -1203.008          40.000  
  22350633.094   117453371.8352      -1203.049          41.000  
  22403974.460   117733676.9612      -1203.079          38.000  
  22335921.852   117372872.7122       -203.001          36.000  
 25  8 16 11 37 31.2020000  0 24G 1G 3G 2G 4G 5G 6G 7G 8G25G23G21G29
                                G28G11G14G15G24G32G12G13G16G19G27G17
  22354185.225   117472093.708       -1202.836          49.000  
  22354180.273   117472105.963       -1202.842          49.000  
  22354186.244   117472076.993       -1202.867          49.000  
  22354185.838   117472040.941       -1202.870          49.000  
  22354190.239   117472110.589       -1202.864          45.000  
  22354188.640   117472089.440       -1202.869          46.000  
  22354190.232   117472034.141       -1202.836          45.000  
  22354190.343   117472096.965       -1202.856          49.000  
  22483430.219   118151237.026       -1202.850          37.000  
  22446214.037   117955665.959       -1202.923          40.000  
  22489289.823                       -1202.984          39.000  
  22425699.767   117847850.0052      -1202.889          41.000  
  22166637.791   116486541.116       -1202.911          32.000  
  22263091.956   116996756.9232      -2202.958          39.000  
  22527091.290   118380702.9222      -1202.760          35.000  
  22425701.528   117847866.0632      -1202.800          35.000  
  22497203.515   118223605.474       -1202.960          40.000  
  22542349.031   118460843.400       -1202.880          34.000  
  22211187.835   116720587.979       -1202.923          39.000  
  22409289.955   117761616.074       -1202.806          37.000  
  22340714.680   117401252.016       -1202.947          40.000  
  22350678.881   117453612.4062      -1202.871          41.000  
  22404020.162   117733917.5322      -1202.994          37.000  
  22335967.028   117372913.2862       -203.001          36.000  
 25  8 16 11 37 31.4020000  0 24G 1G 3G 2G 4G 5G 6G 7G 8G25G23G21G29
                                G28G11G14G15G24G32G12G13G16G19G27G17
  22354230.950   117472334.245       -1202.630          49.000  
  22354226.027   117472346.501       -1202.608          49.000  
  22354231.995   117472317.534       -1202.654          49.000  
  22354231.582   117472281.473       -1202.584          49.000  
  22354236.140   117472351.118       -1202.618          45.000  
  22354234.525   117472329.962       -1202.589          46.000  
  22354235.877   117472274.659       -1202.510          45.000  
  22354236.102   117472337.500       -1202.637          49.000  
  22483476.007   118151477.564       -1202.720          37.000  
  22446259.786   117955906.494       -1202.644          40.000  
  22489335.559                       -1202.984          39.000  
  22425745.411   117848090.540       -1202.623          41.000  
  22166683.048   116486781.650       -1202.548          32.000  
  22263138.313   116997197.454       -2202.631          38.000  
  22527137.150   118380942.9681      -1202.561          36.000  
  22425747.120   117848106.596       -1202.553          35.000  
  22497249.326   118223846.002       -1202.557          40.000  
  22542394.881   118461083.948       -1202.670          35.000  
  22211233.596   116720828.515       -1202.635          39.000  
  22409335.745   117761856.613       -1202.676          36.000  
  22340760.448   117401492.551       -1202.667          40.000  
  22350724.693   117453852.944       -1202.627          41.000  
  22404065.936   117734158.064       -1202.648          37.000  
  22336009.369   117372953.814        -202.620          36.000  
 25  8 16 11 37 31.6020000  0 24G 1G 3G 2G 4G 5G 6G 7G 8G25G23G21G29
                                G28G11G14G15G24G32G12G13G16G19G27G17
  22354276.716   117472574.808       -1202.832          49.000  
  22354271.812   117472587.067       -1202.839          49.000  
  22354277.751   117472558.100       -1202.878          49.000  
  22354277.328   117472522.037       -1202.826          49.000  
  22354282.037   117472591.679       -1202.892          44.000  
  22354280.395   117472570.523       -1202.946          46.000  
  22354281.639   117472515.220       -1202.887          46.000  
  22354281.894   117472578.063       -1202.832          49.000  
  22483521.755   118151718.125       -1202.913          37.000  
  22446305.556   117956147.067       -1202.962          40.000  
  22489381.313                       -1202.984          39.000  
  22425791.056   117848331.109       -1202.948          41.000  
  22166728.420   116487022.215       -1202.950          32.000  
  22263185.024   116997638.024       -2202.929          38.000  
  22527183.042   118381183.544       -1203.024          36.000  
  22425792.721   117848347.174       -1202.933          35.000  
  22497295.074   118224086.575       -1202.947          40.000  
  22542440.734   118461324.517       -1202.955          35.000  
  22211279.360   116721069.087       -1202.967          39.000  
  22409381.546   117762097.172       -1202.839          36.000  
  22340806.168   117401733.117       -1202.984          40.000  
  22350770.494   117454093.508       -1202.812          41.000  
  22404111.653   117734398.628       -1202.898          37.000  
  22336051.027   117372994.379        -202.900          36.000  
 25  8 16 11 37 31.8020000  0 24G 1G 3G 2G 4G 5G 6G 7G 8G25G23G21G29
                                G28G11G14G15G24G32G12G13G16G19G27G17
  22354322.472   117472815.365       -1202.864          49.000  
  22354317.569   117472827.633       -1202.821          49.000  
  22354323.523   117472798.661       -1202.896          49.000  
  22354323.070   117472762.600       -1202.856          49.000  
  22354327.915   117472832.229       -1202.879          44.000  
  22354326.246   117472811.065       -1202.872          46.000  
  22354327.367   117472755.792       -1202.815          46.000  
  22354327.673   117472818.631       -1202.861          49.000  
  22483567.506   118151958.690       -1202.816          37.000  
  22446351.310   117956387.634       -1202.804          40.000  
  22489427.080                       -1203.369          41.000  
  22425836.767   117848571.667       -1202.895          41.000  
  22166774.994   116487262.732       -1202.811          32.000  
  22263236.186   116998078.598       -2202.907          38.000  
  22527228.925   118381424.084       -1203.147          36.000  
  22425838.338   117848587.734       -1202.879          35.000  
  22497340.848   118224327.143       -1202.830          40.000  
  22542486.655   118461565.089       -1202.833          35.000  
  22211325.080   116721309.606       -1203.101          39.000  
  22409427.312   117762337.713       -1202.967          33.000  
  22340851.943   117401973.667       -1202.801          40.000  
  22350816.275   117454334.075       -1202.932          40.000  
  22404157.404   117734639.166       -1203.029          37.000  
  22336096.040   117373034.926        -202.905          36.000  
 25  8 16 11 37 32.0020000  0 24G 1G 3G 2G 4G 5G 6G 7G 8G25G23G21G29
                                G28G11G14G15G24G32G12G13G16G19G27G17
  22354368.220   117473055.921       -1202.817          49.000  
  22354363.349   117473068.190       -1202.783          49.000  
  22354369.276   117473039.217       -1202.797          49.000  
  22354368.793   117473003.159       -1202.836          49.000  
  22354373.720   117473072.787       -1202.795          44.000  
  22354372.092   117473051.628       -1202.834          46.000  
  22354373.123   117472996.348       -1202.922          46.000  
  22354373.450   117473059.190       -1202.829          49.000  
  22483613.218   118152199.246       -1202.851          37.000  
  22446397.027   117956628.198       -1202.913          40.000  
  22489472.882                       -1203.857          41.000  
  22425882.448   117848812.226       -1202.856          41.000  
  22166821.931   116487503.300       -1202.827          32.000  
  22263308.595   116998519.159       -2202.934          38.000  
  22527274.767   118381664.641       -1202.862          35.000  
  22425883.942   117848828.303       -1202.982          35.000  
  22497386.629   118224567.700       -1202.868          40.000  
  22542532.551   118461805.645       -1202.790          34.000  
  22211370.867   116721550.159       -1202.619          39.000  
  22409473.089   117762578.269       -1202.808          33.000  
  22340897.657   117402214.231       -1202.850          40.000  
  22350862.035   117454574.628       -1202.770          40.000  
  22404203.120   117734879.723       -1202.693          36.000  
  22336138.586   117373075.489        -202.768          36.000  
 25  8 16 11 37 32.2020000  0 24G 1G 3G 2G 4G 5G 6G 7G 8G25G23G21G29
                                G28G11G14G15G24G32G12G13G16G19G27G17
  22354413.940   117473296.478       -1202.679          49.000  
  22354409.123   117473308.746       -1202.747          49.000  
  22354415.024   117473279.772       -1202.747          49.000  
  22354414.543   117473243.717       -1202.740          49.000  
  22354419.564   117473313.338       -1202.905          44.000  
  22354417.935   117473292.185       -1202.757          46.000  
  22354418.872   117473236.902       -1202.736          46.000  
  22354419.196   117473299.745       -1202.727          49.000  
  22483658.887   118152439.804       -1202.765          37.000  
  22446442.754   117956868.751       -1202.767          40.000  
  22489518.667   118183217.2842      -1202.561          41.000  
  22425928.147   117849052.781       -1202.753          41.000  
  22166868.687   116487743.855       -1202.830          31.000  
  22263393.125   116998959.722       -2202.789          35.000  
  22527320.567   118381905.188       -1202.708          35.000  
  22425929.572   117849068.849       -1202.655          34.000  
  22497432.378   118224808.257       -1202.705          40.000  
  22542578.418   118462046.202       -1202.594          34.000  
  22211416.612   116721790.721       -1202.737          39.000  
  22409518.885   117762818.825       -1202.808          33.000  
  22340943.336   117402454.784       -1202.712          40.000  
  22350907.797   117454815.188       -1202.791          40.000  
  22404248.844   117735120.282       -1202.672          36.000  
  22336182.763   117373116.044        -202.677          36.000  
 25  8 16 11 37 32.4020000  0 24G 1G 3G 2G 4G 5G 6G 7G 8G25G23G21G29
                                G28G11G14G15G24G32G12G13G16G19G27G17
  22354459.760   117473537.026       -1202.840          49.000  
  22354454.911   117473549.290       -1202.740          49.000  
  22354460.801   117473520.317       -1202.816          49.000  
  22354460.295   117473484.265       -1202.801          49.000  
  22354465.410   117473553.894       -1202.951          44.000  
  22354463.834   117473532.732       -1202.925          46.000  
  22354464.678   117473477.444       -1203.000          46.000  
  22354464.977   117473540.294       -1202.798          49.000  
  22483704.549   118152680.355       -1202.846          37.000  
  22446488.534   117957109.297       -1202.868          40.000  
  22489564.438   118183457.8442      -1202.796          40.000  
  22425973.833   117849293.329       -1202.859          41.000  
  22166914.160   116487984.406       -1202.953          31.000  
  22263476.035   116999400.277       -2202.958          35.000  
  22527366.404   118382145.733       -1202.947          35.000  
  22425975.212   117849309.401       -1202.934          34.000  
  22497478.172   118225048.805       -1202.896          40.000  
  22542624.359   118462286.747       -1202.759          34.000  
  22211462.380   116722031.267       -1202.922          39.000  
  22409564.703   117763059.376       -1202.985          33.000  
  22340989.113   117402695.336       -1202.924          40.000  
  22350953.570   117455055.728       -1202.828          40.000  
  22404294.636   117735360.833       -1202.865          36.000  
  22336203.926   117373156.596        -202.983          36.000  
 25  8 16 11 37 32.6020000  0 24G 1G 3G 2G 4G 5G 6G 7G 8G25G23G21G29
                                G28G11G14G15G24G32G12G13G16G19G27G17
  22354505.511   117473777.583       -1202.844          49.000  
  22354500.691   117473789.852       -1202.894          49.000  
  22354506.558   117473760.877       -1202.848          49.000  
  22354506.067   117473724.827       -1202.901          49.000  
  22354511.228   117473794.456       -1203.054          43.000  
  22354509.667   117473773.291       -1202.839          46.000  
  22354510.411   117473717.993       -1202.652          46.000  
  22354510.749   117473780.855       -1202.908          49.000  
  22483750.285   118152920.933       -1203.271          37.000  
  22446534.251   117957349.852       -1202.782          40.000  
  22489610.189   118183698.4152      -1203.090          40.000  
  22426019.496   117849533.892       -1202.992          41.000  
  22166960.485   116488224.939       -1202.549          31.000  
  22263557.860   116999840.968       -2204.918          32.000  
  22527412.244   118382386.293       -1202.812          35.000  
  22426020.865   117849549.954       -1202.650          34.000  
  22497523.894   118225289.354       -1202.786          40.000  
  22542670.211   118462527.260       -1202.129          34.000  
  22211508.138   116722271.883       -1203.884          38.000  
  22409610.503   117763299.935       -1202.953          33.000  
  22341034.789   117402935.903       -1203.108          40.000  
  22350999.321   117455296.294       -1202.977          40.000  
  22404340.329   117735601.396       -1203.005          36.000  
  22336210.858   117373197.184        -203.467          36.000  
 25  8 16 11 37 32.8020000  0 23G 1G 3G 2G 4G 5G 6G 7G 8G25G23G21G29
                                G11G14G15G24G32G12G13G16G19G27G17
  22354551.266   117474018.134       -1202.789          49.000  
  22354546.477   117474030.401       -1202.782          49.000  
  22354552.307   117474001.429       -1202.801          49.000  
  22354551.783   117473965.376       -1202.763          49.000  
  22354556.980   117474034.999       -1202.620          43.000  
  22354555.529   117474013.844       -1202.788          46.000  
  22354556.150   117473958.550       -1202.859          46.000  
  22354556.531   117474021.405       -1202.795          49.000  
  22483796.076   118153161.463       -1202.523          36.000  
  22446579.999   117957590.404       -1202.807          40.000  
  22489655.941   118183938.9562      -1202.767          40.000  
  22426065.146   117849774.440       -1202.791          41.000  
  22263639.914   117000281.504       -2202.544          31.000  
  22527458.063   118382626.844       -1202.736          34.000  
  22426066.526   117849790.522       -1202.907          34.000  
  22497569.680   118225529.902       -1202.789          40.000  
  22542716.138   118462767.824       -1202.958          34.000  
  22211553.871   116722512.407       -1202.608          38.000  
  22409656.286   117763540.481       -1202.698          33.000  
  22341080.587   117403176.446       -1202.701          40.000  
  22351045.145   117455536.840       -1202.772          40.000  
  22404386.106   117735841.934       -1202.711          35.000  
  22336217.024   117373237.731        -202.678          35.000  
 25  8 16 11 37 33.0020000  0 22G 1G 3G 2G 4G 5G 6G 7G 8G25G23G21G29
                                G14G15G24G32G12G13G16G19G27G17
  22354596.997   117474258.675       -1202.691          49.000  
  22354592.260   117474270.942       -1202.677          49.000  
  22354598.038   117474241.970       -1202.711          49.000  
  22354597.472   117474205.917       -1202.658          49.000  
  22354602.741   117474275.547       -1202.702          43.000  
  22354601.374   117474254.383       -1202.705          46.000  
  22354601.949   117474199.093       -1202.717          46.000  
  22354602.299   117474261.946       -1202.692          49.000  
  22483841.761   118153402.023       -1202.831          36.000  
  22446625.718   117957830.942       -1202.639          40.000  
  22489701.694   118184179.5032      -1202.665          40.000  
  22426110.852   117850014.985       -1202.729          41.000  
  22527503.900   118382867.383       -1202.576          34.000  
  22426112.175   117850031.059       -1202.771          34.000  
  22497615.444   118225770.448       -1202.724          40.000  
  22542762.026   118463008.362       -1202.790          34.000  
  22211599.614   116722752.960       -1202.669          38.000  
  22409702.126   117763781.038       -1202.833          33.000  
  22341126.309   117403416.994       -1202.682          40.000  
  22351090.893   117455777.384       -1202.710          40.000  
  22404431.875   117736082.487       -1202.807          35.000  
  22336221.524   117373278.288        -202.645          35.000  
 25  8 16 11 37 33.2020000  0 23G 1G 3G 2G 4G 5G 6G 7G 8G25G22G23G21
                                G29G14G15G24G32G12G13G16G19G27G17
  22354642.733   117474499.238       -1202.867          49.000  
  22354638.036   117474511.504       -1202.881          49.000  
  22354643.815   117474482.536       -1202.864          49.000  
  22354643.209   117474446.478       -1202.794          49.000  
  22354648.602   117474516.112       -1202.959          43.000  
  22354647.247   117474494.944       -1202.834          46.000  
  22354647.707   117474439.655       -1202.872          46.000  
  22354648.062   117474502.510       -1202.867          49.000  
  22483887.487   118153642.580       -1202.952          36.000  
  22489062.682                       -1202.770          39.000  
  22446671.509   117958071.511       -1202.830          40.000  
  22489747.453   118184420.0692      -1202.917          40.000  
  22426156.555   117850255.547       -1202.906          41.000  
  22527549.729   118383107.960       -1203.022          34.000  
  22426157.823   117850271.626       -1202.856          34.000  
  22497661.288   118226011.015       -1202.914          40.000  
  22542807.946   118463248.927       -1202.977          35.000  
  22211645.313   116722993.524       -1202.983          38.000  
  22409747.903   117764021.596       -1202.888          33.000  
  22341172.070   117403657.557       -1202.953          40.000  
  22351136.676   117456017.951       -1202.918          40.000  
  22404477.666   117736323.042       -1203.004          35.000  
  22336226.562   117373318.856        -203.016          35.000  
 25  8 16 11 37 33.4020000  0 23G 1G 3G 2G 4G 5G 6G 7G 8G25G22G23G21
                                G29G14G15G24G32G12G13G16G19G27G17
  22354688.475   117474739.789       -1202.794          49.000  
  22354683.819   117474752.058       -1202.765          49.000  
  22354689.551   117474723.079       -1202.710          49.000  
  22354688.967   117474687.026       -1202.849          49.000  
  22354694.306   117474756.645       -1202.659          43.000  
  22354693.107   117474735.500       -1202.969          46.000  
  22354693.514   117474680.202       -1202.920          46.000  
  22354693.823   117474743.053       -1202.712          49.000  
  22483933.143   118153883.118       -1202.773          36.000  
  22489107.633                       -1202.770          39.000  
  22446717.256   117958312.058       -1202.856          40.000  
  22489793.177   118184660.6082      -1202.804          40.000  
  22426202.188   117850496.091       -1202.762          41.000  
  22527595.619   118383348.502       -1202.762          34.000  
  22426203.466   117850512.183       -1202.991          34.000  
  22497707.072   118226251.555       -1202.802          40.000  
  22542853.846   118463489.471       -1202.658          35.000  
  22211691.074   116723234.067       -1202.819          38.000  
  22409793.692   117764262.148       -1202.806          33.000  
  22341217.782   117403898.108       -1202.862          39.000  
  22351182.415   117456258.496       -1202.761          40.000  
  22404523.386   117736563.588       -1202.708          35.000  
  22336239.820   117373359.417        -202.994          31.000  
 25  8 16 11 37 33.6020000  0 22G 1G 3G 2G 4G 5G 6G 7G 8G22G23G21G29
                                G14G15G24G32G12G13G16G19G27G17
  22354734.250   117474980.328       -1202.660          49.000  
  22354729.585   117474992.598       -1202.672          49.000  
  22354735.333   117474963.634       -1202.740          49.000  
  22354734.732   117474927.574       -1202.764          49.000  
  22354740.210   117474997.200       -1202.657          44.000  
  22354738.926   117474976.041       -1202.739          46.000  
  22354739.254   117474920.749       -1202.823          46.000  
  22354739.610   117474983.598       -1202.718          49.000  
  22489153.588                       -1202.770          39.000  
  22446763.009   117958552.603       -1202.650          40.000  
  22489838.933   118184901.1492      -1202.785          40.000  
  22426247.876   117850736.632       -1202.739          41.000  
  22527641.414   118383589.036       -1202.724          34.000  
  22426249.079   117850752.694       -1202.831          33.000  
  22497752.846   118226492.101       -1202.624          40.000  
  22542899.716   118463730.031       -1202.480          35.000  
  22211736.808   116723474.593       -1202.767          38.000  
  22409839.471   117764502.663       -1202.860          33.000  
  22341263.560   117404138.642       -1202.679          39.000  
  22351228.198   117456499.040       -1202.684          40.000  
  22404569.107   117736804.130       -1202.590          35.000  
  22336252.116   117373399.882        -202.625          31.000  
 25  8 16 11 37 33.8020000  0 21G 1G 3G 2G 4G 5G 6G 7G 8G22G23G21G29
                                G14G15G24G32G12G13G16G19G27
  22354780.038   117475220.875       -1202.771          49.000  
  22354775.369   117475233.139       -1202.718          49.000  
  22354781.125   117475204.177       -1202.817          49.000  
  22354780.464   117475168.113       -1202.729          49.000  
  22354785.996   117475237.747       -1202.452          44.000  
  22354784.779   117475216.588       -1202.794          46.000  
  22354785.023   117475161.291       -1202.734          46.000  
  22354785.410   117475224.137       -1202.688          49.000  
  22489199.329                       -1203.271          40.000  
  22446808.764   117958793.151       -1202.816          40.000  
  22489884.712   118185141.6912      -1202.771          40.000  
  22426293.550   117850977.172       -1202.751          41.000  
  22527687.252   118383829.573       -1202.739          34.000  
  22426294.767   117850993.245       -1202.781          33.000  
  22497798.635   118226732.649       -1202.807          40.000  
  22542945.652   118463970.569       -1202.733          35.000  
  22211782.570   116723715.137       -1202.716          38.000  
  22409885.312   117764743.207       -1202.740          33.000  
  22341309.289   117404379.189       -1202.756          40.000  
  22351273.980   117456739.580       -1202.691          39.000  
  22404614.851   117737044.679       -1202.813          35.000  
 25  8 16 11 37 34.0020000  0 21G 1G 3G 2G 4G 5G 6G 7G 8G22G23G21G29
                                G14G15G24G32G12G13G16G19G27
  22354825.807   117475461.395       -1202.620          49.000  
  22354821.147   117475473.663       -1202.499          49.000  
  22354826.868   117475444.694       -1202.527          49.000  
  22354826.207   117475408.634       -1202.539          49.000  
  22354831.870   117475478.283       -1202.676          44.000  
  22354830.580   117475457.108       -1202.548          46.000  
  22354830.802   117475401.811       -1202.571          46.000  
  22354831.184   117475464.662       -1202.511          49.000  
  22489244.860                       -1203.369          40.000  
  22446854.546   117959033.673       -1202.637          40.000  
  22489930.443   118185382.2162      -1202.662          40.000  
  22426339.233   117851217.695       -1202.551          41.000  
  22527733.044   118384070.097       -1202.505          34.000  
  22426340.413   117851233.761       -1202.482          33.000  
  22497844.355   118226973.171       -1202.682          40.000  
  22542991.499   118464211.099       -1202.520          35.000  
  22211828.307   116723955.660       -1202.521          38.000  
  22409931.084   117764983.737       -1202.795          33.000  
  22341355.045   117404619.711       -1202.632          40.000  
  22351319.790   117456980.104       -1202.513          39.000  
  22404660.591   117737285.200       -1202.672          35.000  
 25  8 16 11 37 34.2020000  0 21G 1G 3G 2G 4G 5G 6G 7G 8G22G23G21G29
                                G14G15G24G32G12G13G16G19G27
  22354871.565   117475701.931       -1202.753          49.000  
  22354866.927   117475714.197       -1202.650          49.000  
  22354872.607   117475685.229       -1202.641          49.000  
  22354871.945   117475649.170       -1202.705          49.000  
  22354877.757   117475718.820       -1202.844          44.000  
  22354876.439   117475697.644       -1202.679          46.000  
  22354876.599   117475642.353       -1202.538          46.000  
  22354876.953   117475705.201       -1202.818          49.000  
  22489290.446   118182019.6922      -1202.648          40.000  
  22446900.329   117959274.208       -1202.797          40.000  
  22489976.180   118185622.7502      -1202.812          40.000  
  22426384.938   117851458.236       -1202.776          41.000  
  22527778.843   118384310.631       -1202.817          34.000  
  22426386.053   117851474.295       -1202.732          33.000  
  22497890.147   118227213.704       -1202.798          39.000  
  22543037.407   118464451.634       -1202.630          35.000  
  22211874.035   116724196.196       -1202.732          38.000  
  22409976.881   117765224.264       -1202.810          33.000  
  22341400.798   117404860.243       -1202.660          40.000  
  22351365.609   117457220.642       -1202.749          39.000  
  22404706.329   117737525.734       -1202.807          35.000  
 25  8 16 11 37 34.4020000  0 21G 1G 3G 2G 4G 5G 6G 7G 8G22G23G21G29
                                G14G15G24G32G12G13G16G19G27
  22354917.287   117475942.470       -1202.690          49.000  
  22354912.689   117475954.735       -1202.593          49.000  
  22354918.366   117475925.771       -1202.778          49.000  
  22354917.673   117475889.706       -1202.699          49.000  
  22354923.505   117475959.356       -1202.814          44.000  
  22354922.256   117475938.188       -1202.753          47.000  
  22354922.430   117475882.896       -1202.820          46.000  
  22354922.737   117475945.730       -1202.659          49.000  
  22489336.253   118182260.2332      -1202.567          40.000  
  22446946.065   117959514.742       -1202.738          40.000  
  22490021.908   118185863.2752      -1202.498          40.000  
  22426430.661   117851698.767       -1202.672          41.000  
  22527824.679   118384551.168       -1202.765          34.000  
  22426431.754   117851714.822       -1202.521          33.000  
  22497935.903   118227454.233       -1202.635          39.000  
  22543083.311   118464692.185       -1202.873          35.000  
  22211919.784   116724436.751       -1203.075          38.000  
  22410022.728   117765464.769       -1202.240          33.000  
  22341446.501   117405100.789       -1202.805          40.000  
  22351411.339   117457461.179       -1202.857          39.000  
  22404752.084   117737766.278       -1202.873          36.000  
 25  8 16 11 37 34.6020000  0 21G 1G 3G 2G 4G 5G 6G 7G 8G22G23G21G29
                                G14G15G24G32G12G13G16G19G27
  22354963.039   117476183.017       -1202.763          49.000  
  22354958.463   117476195.282       -1202.784          49.000  
  22354964.105   117476166.312       -1202.779          49.000  
  22354963.418   117476130.251       -1202.826          49.000  
  22354969.243   117476199.898       -1202.635          44.000  
  22354968.074   117476178.723       -1202.880          47.000  
  22354968.219   117476123.435       -1202.910          46.000  
  22354968.534   117476186.280       -1202.834          49.000  
  22489382.016   118182500.7782      -1202.881          40.000  
  22446991.840   117959755.285       -1202.751          40.000  
  22490067.677   118186103.8232      -1202.878          40.000  
  22426476.351   117851939.311       -1202.831          41.000  
  22527870.450   118384791.710       -1202.704          34.000  
  22426477.401   117851955.377       -1202.873          33.000  
  22497981.665   118227694.774       -1202.757          39.000  
  22543129.290   118464932.732       -1203.009          35.000  
  22211965.522   116724677.284       -1202.719          38.000  
  22410068.513   117765705.325       -1202.963          33.000  
  22341492.307   117405341.330       -1202.776          40.000  
  22351457.157   117457701.718       -1202.785          39.000  
  22404797.824   117738006.823       -1202.752          36.000  
 25  8 16 11 37 34.8020000  0 21G 1G 3G 2G 4G 5G 6G 7G 8G22G23G21G29
                                G14G15G24G32G12G13G16G19G27
  22355008.774   117476423.571       -1202.845          49.000  
  22355004.227   117476435.835       -1202.759          49.000  
  22355009.831   117476406.863       -1202.748          49.000  
  22355009.118   117476370.802       -1202.779          49.000  
  22355015.044   117476440.463       -1202.790          44.000  
  22355013.864   117476419.272       -1202.742          47.000  
  22355013.990   117476363.977       -1202.797          46.000  
  22355014.303   117476426.832       -1202.879          49.000  
  22489427.760   118182741.3302      -1202.784          40.000  
  22447037.618   117959995.838       -1202.765          40.000  
  22490113.426   118186344.3742      -1202.850          40.000  
  22426522.028   117852179.867       -1202.878          41.000  
  22527916.248   118385032.269       -1202.842          34.000  
  22426523.047   117852195.915       -1202.622          33.000  
  22498027.382   118227935.326       -1202.748          40.000  
  22543175.200   118465173.277       -1202.847          35.000  
  22212011.292   116724917.844       -1202.725          38.000  
  22410114.341   117765945.865       -1202.732          33.000  
  22341538.071   117405581.885       -1202.839          40.000  
  22351502.889   117457942.269       -1202.740          39.000  
  22404843.537   117738247.380       -1202.811          36.000  
 25  8 16 11 37 35.0020000  0 22G 1G 3G 2G 4G 5G 6G 7G 8G10G22G23G21
                                G29G14G15G24G32G12G13G16G19G27
  22355054.526   117476664.127       -1202.873          49.000  
  22355050.005   117476676.390       -1202.809          49.000  
  22355055.600   117476647.422       -1202.845          49.000  
  22355054.854   117476611.356       -1202.814          49.000  
  22355061.003   117476681.022       -1203.072          44.000  
  22355059.673   117476659.837       -1203.024          47.000  
  22355059.727   117476604.538       -1202.925          46.000  
  22355060.040   117476667.387       -1202.848          49.000  
  22458226.802   118018778.3423      -1202.940          39.000  
  22489473.521   118182981.8902      -1202.977          40.000  
  22447083.378   117960236.399       -1202.963          40.000  
  22490159.224   118186584.9312      -1202.982          40.000  
  22426567.747   117852420.423       -1202.932          41.000  
  22527962.019   118385272.827       -1202.856          35.000  
  22426568.705   117852436.485       -1202.943          33.000  
  22498073.179   118228175.890       -1202.955          40.000  
  22543221.102   118465413.834       -1202.852          35.000  
  22212057.051   116725158.405       -1202.970          38.000  
  22410160.143   117766186.431       -1202.931          33.000  
  22341583.820   117405822.442       -1202.933          40.000  
  22351548.729   117458182.831       -1202.939          39.000  
  22404889.307   117738487.939       -1202.944          36.000  
 25  8 16 11 37 35.2020000  0 22G 1G 3G 2G 4G 5G 6G 7G 8G10G22G23G21
                                G29G14G15G24G32G12G13G16G19G27
  22355100.285   117476904.665       -1202.693          49.000  
  22355095.796   117476916.928       -1202.665          49.000  
  22355101.366   117476887.964       -1202.724          49.000  
  22355100.612   117476851.898       -1202.670          49.000  
  22355106.651   117476921.556       -1202.588          44.000  
  22355105.487   117476900.371       -1202.627          46.000  
  22355105.543   117476845.073       -1202.719          46.000  
  22355105.820   117476907.926       -1202.671          49.000  
  22458272.229   118019018.8782      -1202.673          39.000  
  22489519.315   118183222.4262      -1202.712          40.000  
  22447129.125   117960476.933       -1202.675          40.000  
  22490204.964   118186825.4682      -1202.745          40.000  
  22426613.434   117852660.961       -1202.720          41.000  
  22528007.835   118385513.367       -1202.887          35.000  
  22426614.367   117852677.025       -1202.821          32.000  
  22498118.957   118228416.427       -1202.810          40.000  
  22543267.016   118465654.373       -1202.778          35.000  
  22212102.813   116725398.943       -1202.771          38.000  
  22410205.985   117766426.963       -1202.613          33.000  
  22341629.499   117406062.977       -1202.695          40.000  
  22351594.444   117458423.366       -1202.712          39.000  
  22404934.995   117738728.473       -1202.749          36.000  
 25  8 16 11 37 35.4020000  0 23G 1G 3G 2G 4G 5G 6G 7G 8G10G22G23G21
                                G29G28G14G15G24G32G12G13G16G19G27
  22355146.045   117477145.215       -1202.882          49.000  
  22355141.577   117477157.481       -1202.907          49.000  
  22355147.140   117477128.502       -1202.892          49.000  
  22355146.373   117477092.444       -1202.864          49.000  
  22355152.604   117477162.097       -1202.991          44.000  
  22355151.319   117477140.917       -1202.949          46.000  
  22355151.318   117477085.622       -1202.927          46.000  
  22355151.597   117477148.476       -1202.928          49.000  
  22458318.649   118019259.4342      -1202.815          39.000  
  22489565.099   118183462.9672      -1202.830          40.000  
  22447174.915   117960717.469       -1202.869          40.000  
  22490250.708   118187066.0302      -1202.899          40.000  
  22426659.133   117852901.503       -1202.837          41.000  
  22167599.354   116491519.6181      -1202.784          32.000  
  22528053.664   118385753.967       -1202.487          34.000  
  22426660.060   117852917.591       -1202.521          33.000  
  22498164.709   118228656.977       -1202.804          40.000  
  22543312.950   118465894.907       -1202.841          35.000  
  22212148.579   116725639.504       -1202.821          38.000  
  22410251.806   117766667.580       -1202.850          33.000  
  22341675.271   117406303.528       -1202.794          40.000  
  22351640.223   117458663.919       -1202.847          39.000  
  22404980.711   117738969.038       -1202.818          36.000  
 25  8 16 11 37 35.6020000  0 23G 1G 3G 2G 4G 5G 6G 7G 8G10G22G23G21
                                G29G28G14G15G24G32G12G13G16G19G27
  22355191.746   117477385.757       -1202.672          49.000  
  22355187.358   117477398.026       -1202.717          49.000  
  22355192.880   117477369.048       -1202.730          49.000  
  22355192.091   117477332.989       -1202.723          49.000  
  22355198.260   117477402.641       -1202.619          44.000  
  22355197.211   117477381.462       -1202.633          46.000  
  22355197.067   117477326.164       -1202.667          47.000  
  22355197.349   117477389.021       -1202.710          49.000  
  22458364.685   118019499.9812      -1202.739          39.000  
  22489610.908   118183703.5172      -1202.689          39.000  
  22447220.722   117960958.015       -1202.626          40.000  
  22490296.457   118187306.5722      -1202.743          40.000  
  22426704.766   117853142.050       -1202.685          41.000  
  22167644.987   116491760.166       -1202.721          32.000  
  22528099.547   118385994.510       -1202.808          34.000  
  22426705.766   117853158.145       -1202.851          33.000  
  22498210.498   118228897.521       -1202.692          40.000  
  22543358.827   118466135.449       -1202.550          35.000  
  22212194.348   116725880.046       -1202.712          38.000  
  22410297.583   117766908.108       -1202.782          33.000  
  22341721.062   117406544.076       -1202.692          40.000  
  22351685.981   117458904.464       -1202.646          39.000  
  22405026.455   117739209.580       -1202.700          36.000  
 25  8 16 11 37 35.8020000  0 23G 1G 3G 2G 4G 5G 6G 7G 8G10G22G23G21
                                G29G28G14G15G24G32G12G13G16G19G27
  22355237.498   117477626.305       -1202.774          49.000  
  22355233.136   117477638.574       -1202.781          49.000  
  22355238.639   117477609.600       -1202.825          49.000  
  22355237.833   117477573.535       -1202.742          49.000  
  22355244.107   117477643.188       -1202.826          44.000  
  22355243.036   117477622.011       -1202.754          46.000  
  22355242.868   117477566.718       -1202.763          47.000  
  22355243.136   117477629.571       -1202.808          49.000  
  22458410.265   118019740.5302      -1202.793          39.000  
  22489656.675   118183944.0682      -1202.844          39.000  
  22447266.487   117961198.567       -1202.827          40.000  
  22490342.187   118187547.1232      -1202.824          40.000  
  22426750.495   117853382.602       -1202.825          41.000  
  22167690.755   116492000.716       -1202.966          32.000  
  22528145.423   118386235.061       -1202.932          34.000  
  22426751.426   117853398.683       -1202.745          33.000  
  22498256.280   118229138.075       -1202.863          40.000  
  22543404.736   118466376.004       -1202.865          35.000  
  22212240.087   116726120.596       -1202.848          38.000  
  22410343.355   117767148.659       -1202.875          34.000  
  22341766.796   117406784.624       -1202.755          39.000  
  22351731.744   117459145.015       -1202.842          39.000  
  22405072.217   117739450.132       -1202.766          36.000  
 25  8 16 11 37 36.0020000  0 23G 1G 3G 2G 4G 5G 6G 7G 8G10G22G23G21
                                G29G28G14G15G24G32G12G13G16G19G27
  22355283.255   117477866.857       -1202.621          49.000  
  22355278.914   117477879.130       -1202.673          49.000  
  22355284.385   117477850.153       -1202.745          49.000  
  22355283.569   117477814.090       -1202.672          49.000  
  22355289.888   117477883.753       -1202.845          44.000  
  22355288.856   117477862.567       -1202.801          46.000  
  22355288.646   117477807.270       -1202.739          47.000  
  22355288.905   117477870.123       -1202.687          49.000  
  22458456.415   118019981.0882      -1202.769          39.000  
  22489702.479   118184184.6242      -1202.757          39.000  
  22447312.268   117961439.123       -1202.752          40.000  
  22490387.887   118187787.6772      -1202.757          40.000  
  22426796.210   117853623.156       -1202.729          42.000  
  22167736.418   116492241.263       -1202.749          32.000  
  22528191.291   118386475.611       -1202.714          34.000  
  22426797.103   117853639.239       -1202.656          34.000  
  22498302.060   118229378.625       -1202.758          40.000  
  22543450.599   118466616.557       -1202.586          35.000  
  22212285.839   116726361.151       -1202.688          38.000  
  22410389.205   117767389.215       -1202.714          34.000  
  22341812.593   117407025.183       -1202.660          39.000  
  22351777.512   117459385.575       -1202.760          40.000  
  22405117.966   117739690.694       -1202.844          36.000  
 25  8 16 11 37 36.2020000  0 23G 1G 3G 2G 4G 5G 6G 7G 8G10G22G23G21
                                G29G28G14G15G24G32G12G13G16G19G27
  22355329.011   117478107.398       -1202.681          49.000  
  22355324.685   117478119.666       -1202.649          49.000  
  22355330.173   117478090.694       -1202.775          49.000  
  22355329.319   117478054.625       -1202.696          49.000  
  22355335.688   117478124.284       -1202.844          44.000  
  22355334.633   117478103.108       -1202.804          46.000  
  22355334.387   117478047.813       -1202.738          47.000  
  22355334.667   117478110.654       -1202.586          49.000  
  22458502.063   118020221.6202      -1202.742          39.000  
  22489748.232   118184425.1722      -1202.925          39.000  
  22447358.029   117961679.659       -1202.714          40.000  
  22490433.608   118188028.2072      -1202.631          39.000  
  22426841.892   117853863.698       -1202.818          41.000  
  22167782.139   116492481.814       -1202.950          32.000  
  22528237.095   118386716.115       -1202.143          33.000  
  22426842.819   117853879.759       -1202.358          34.000  
  22498347.784   118229619.167       -1202.851          40.000  
  22543496.429   118466857.120       -1203.139          35.000  
  22212331.603   116726601.640       -1201.897          38.000  
  22410434.980   117767629.727       -1202.419          34.000  
  22341858.325   117407265.707       -1202.546          39.000  
  22351823.281   117459626.098       -1202.547          40.000  
  22405163.704   117739931.193       -1202.136          36.000  
 25  8 16 11 37 36.4020000  0 23G 1G 3G 2G 4G 5G 6G 7G 8G10G22G23G21
                                G29G28G14G15G24G32G12G13G16G19G27
  22355374.753   117478347.919       -1202.582          49.000  
  22355370.469   117478360.189       -1202.615          49.000  
  22355375.918   117478331.218       -1202.587          49.000  
  22355375.056   117478295.151       -1202.553          49.000  
  22355381.330   117478364.797       -1202.467          44.000  
  22355380.414   117478343.628       -1202.595          46.000  
  22355380.140   117478288.334       -1202.653          46.000  
  22355380.439   117478351.177       -1202.562          49.000  
  22458547.534   118020462.1452      -1202.580          39.000  
  22489794.016   118184665.6892      -1202.530          39.000  
  22447403.796   117961920.186       -1202.545          40.000  
  22490479.337   118188268.7352      -1202.586          40.000  
  22426887.566   117854104.216       -1202.503          41.000  
  22167827.834   116492722.328       -1202.531          32.000  
  22528282.904   118386956.655       -1202.602          33.000  
  22426888.456   117854120.282       -1202.486          34.000  
  22498393.577   118229859.686       -1202.470          40.000  
  22543542.260   118467097.624       -1202.448          35.000  
  22212377.358   116726842.187       -1202.723          38.000  
  22410480.766   117767870.248       -1202.490          33.000  
  22341904.104   117407506.232       -1202.685          39.000  
  22351869.111   117459866.624       -1202.637          39.000  
  22405209.420   117740171.728       -1202.753          36.000  
 25  8 16 11 37 36.6020000  0 23G 1G 3G 2G 4G 5G 6G 7G 8G10G22G23G21
                                G29G28G14G15G24G32G12G13G16G19G27
  22355420.497   117478588.438       -1202.617          49.000  
  22355416.246   117478600.703       -1202.654          49.000  
  22355421.659   117478571.736       -1202.631          49.000  
  22355420.783   117478535.670       -1202.607          49.000  
  22355427.092   117478605.314       -1202.492          44.000  
  22355426.220   117478584.146       -1202.730          46.000  
  22355425.900   117478528.854       -1202.569          46.000  
  22355426.225   117478591.695       -1202.637          49.000  
  22458593.165   118020702.6612      -1202.704          39.000  
  22489839.769   118184906.2072      -1202.625          40.000  
  22447449.549   117962160.701       -1202.637          40.000  
  22490525.102   118188509.2522      -1202.662          40.000  
  22426933.248   117854344.738       -1202.701          41.000  
  22167873.587   116492962.852       -1202.620          32.000  
  22528328.728   118387197.161       -1202.601          34.000  
  22426934.136   117854360.805       -1202.576          33.000  
  22498439.280   118230100.207       -1202.609          40.000  
  22543588.038   118467338.147       -1202.583          35.000  
  22212423.149   116727082.689       -1202.603          38.000  
  22410526.595   117768110.761       -1202.595          33.000  
  22341949.778   117407746.744       -1202.605          39.000  
  22351914.834   117460107.135       -1202.619          39.000  
  22405255.166   117740412.235       -1202.732          36.000  
 25  8 16 11 37 36.8020000  0 23G 1G 3G 2G 4G 5G 6G 7G 8G10G22G23G21
                                G29G28G14G15G24G32G12G13G16G19G27
  22355466.277   117478828.962       -1202.670          49.000  
  22355462.023   117478841.227       -1202.675          49.000  
  22355467.428   117478812.259       -1202.716          49.000  
  22355466.504   117478776.192       -1202.650          49.000  
  22355472.839   117478845.848       -1202.579          44.000  
  22355472.016   117478824.665       -1202.594          46.000  
  22355471.677   117478769.374       -1202.546          46.000  
  22355471.998   117478832.216       -1202.684          49.000  
  22458638.988   118020943.1782      -1202.536          39.000  
  22489885.513   118185146.7272      -1202.570          40.000  
  22447495.330   117962401.223       -1202.642          40.000  
  22490570.853   118188749.769       -1202.557          40.000  
  22426978.969   117854585.255       -1202.571          41.000  
  22167919.340   116493203.373       -1202.614          32.000  
  22528374.500   118387437.681       -1202.582          33.000  
  22426979.807   117854601.329       -1202.760          33.000  
  22498485.079   118230340.726       -1202.663          40.000  
  22543633.826   118467578.663       -1202.585          35.000  
  22212468.880   116727323.209       -1202.604          38.000  
  22410572.334   117768351.280       -1202.568          33.000  
  22341995.551   117407987.269       -1202.669          39.000  
  22351960.627   117460347.655       -1202.532          39.000  
  22405300.895   117740652.757       -1202.643          36.000  
 25  8 16 11 37 37.0020000  0 23G 1G 3G 2G 4G 5G 6G 7G 8G10G22G23G21
                                G29G28G14G15G24G32G12G13G16G19G27
  22355512.021   117479069.464       -1202.583          49.000  
  22355507.784   117479081.726       -1202.572          49.000  
  22355513.217   117479052.759       -1202.595          49.000  
  22355512.233   117479016.692       -1202.537          49.000  
  22355518.721   117479086.357       -1202.622          44.000  
  22355517.810   117479065.171       -1202.670          46.000  
  22355517.456   117479009.879       -1202.551          46.000  
  22355517.783   117479072.717       -1202.592          49.000  
  22458684.746   118021183.6812      -1202.577          39.000  
  22489931.297   118185387.2302      -1202.545          40.000  
  22447541.074   117962641.725       -1202.570          40.000  
  22490616.617   118188990.272       -1202.510          40.000  
  22427024.646   117854825.757       -1202.505          41.000  
  22167965.062   116493443.875       -1202.570          33.000  
  22528420.255   118387678.181       -1202.583          34.000  
  22427025.476   117854841.836       -1202.599          33.000  
  22498530.864   118230581.231       -1202.595          40.000  
  22543679.594   118467819.161       -1202.490          35.000  
  22212514.612   116727563.713       -1202.542          38.000  
  22410618.108   117768591.799       -1202.718          33.000  
  22342041.294   117408227.771       -1202.576          40.000  
  22352006.352   117460588.157       -1202.578          39.000  
  22405346.610   117740893.260       -1202.572          36.000  
 25  8 16 11 37 37.2020000  0 23G 1G 3G 2G 4G 5G 6G 7G 8G10G22G23G21
                                G29G28G14G15G24G32G12G13G16G19G27
  22355557.782   117479309.970       -1202.655          49.000  
  22355553.550   117479322.238       -1202.686          49.000  
  22355558.979   117479293.266       -1202.721          49.000  
  22355557.991   117479257.204       -1202.667          49.000  
  22355564.508   117479326.840       -1202.565          44.000  
  22355563.569   117479305.668       -1202.561          46.000  
  22355563.215   117479250.387       -1202.668          46.000  
  22355563.550   117479313.233       -1202.599          49.000  
  22458730.336   118021424.1742      -1202.609          39.000  
  22489977.085   118185627.7212      -1202.688          39.000  
  22447586.828   117962882.230       -1202.588          40.000  
  22490662.371   118189230.777       -1202.629          38.000  
  22427070.379   117855066.273       -1202.578          41.000  
  22168010.844   116493684.323       -1202.610          32.000  
  22528466.081   118387918.675       -1202.785          34.000  
  22427071.140   117855082.366       -1202.579          33.000  
  22498576.642   118230821.727       -1202.664          40.000  
  22543725.312   118468059.652       -1202.760          35.000  
  22212560.333   116727804.246       -1202.513          38.000  
  22410663.880   117768832.321       -1202.551          33.000  
  22342087.036   117408468.288       -1202.577          39.000  
  22352052.126   117460828.681       -1202.553          39.000  
  22405392.342   117741133.775       -1202.577          35.000  
 25  8 16 11 37 37.4020000  0 23G 1G 3G 2G 4G 5G 6G 7G 8G10G22G23G21
                                G29G28G14G15G24G32G12G13G16G19G27
  22355603.528   117479550.485       -1202.584          49.000  
  22355599.324   117479562.751       -1202.625          49.000  
  22355604.723   117479533.780       -1202.676          49.000  
  22355603.702   117479497.719       -1202.565          49.000  
  22355610.236   117479567.350       -1202.462          44.000  
  22355609.347   117479546.180       -1202.361          46.000  
  22355609.004   117479490.903       -1202.423          46.000  
  22355609.348   117479553.751       -1202.677          49.000  
  22458775.948   118021664.1891      -1202.601          39.000  
  22490022.862   118185868.236       -1202.521          39.000  
  22447632.618   117963122.747       -1202.620          40.000  
  22490708.145   118189471.298       -1202.647          38.000  
  22427116.053   117855306.789       -1202.636          41.000  
  22168056.645   116493924.857       -1202.458          31.000  
  22528511.821   118388159.184       -1202.514          33.000  
  22427116.772   117855322.885       -1202.739          33.000  
  22498622.446   118231062.243       -1202.552          39.000  
  22543771.053   118468300.167       -1202.506          34.000  
  22212606.102   116728044.762       -1202.698          38.000  
  22410709.705   117769072.839       -1202.654          33.000  
  22342132.822   117408708.803       -1202.604          39.000  
  22352097.913   117461069.193       -1202.598          40.000  
  22405438.107   117741374.287       -1202.624          35.000  
 25  8 16 11 37 37.6020000  0 23G 1G 3G 2G 4G 5G 6G 7G 8G10G22G23G21
                                G29G28G14G15G24G32G12G13G16G19G27
  22355649.266   117479790.993       -1202.605          49.000  
  22355645.097   117479803.266       -1202.642          49.000  
  22355650.462   117479774.294       -1202.656          49.000  
  22355649.451   117479738.231       -1202.611          49.000  
  22355656.089   117479807.860       -1202.732          44.000  
  22355655.140   117479786.700       -1202.602          46.000  
  22355654.794   117479731.420       -1202.471          46.000  
  22355655.109   117479794.263       -1202.598          49.000  
  22458821.485   118021904.701       -1202.612          39.000  
  22490068.626   118186108.755       -1202.708          39.000  
  22447678.348   117963363.262       -1202.601          39.000  
  22490753.896   118189711.806       -1202.545          38.000  
  22427161.811   117855547.303       -1202.615          41.000  
  22168102.401   116494165.361       -1202.544          31.000  
  22528557.610   118388399.706       -1202.806          33.000  
  22427162.419   117855563.393       -1202.644          33.000  
  22498668.200   118231302.761       -1202.662          39.000  
  22543816.824   118468540.678       -1202.621          34.000  
  22212651.847   116728285.277       -1202.648          38.000  
  22410755.451   117769313.353       -1202.723          33.000  
  22342178.520   117408949.320       -1202.669          39.000  
  22352143.673   117461309.710       -1202.656          40.000  
  22405483.911   117741614.806       -1202.669          35.000  
 25  8 16 11 37 37.8020000  0 23G 1G 3G 2G 4G 5G 6G 7G 8G10G22G23G21
                                G29G28G14G15G24G32G12G13G16G19G27
  22355695.027   117480031.539       -1202.768          49.000  
  22355690.867   117480043.812       -1202.767          49.000  
  22355696.217   117480014.836       -1202.730          49.000  
  22355695.167   117479978.776       -1202.781          49.000  
  22355701.744   117480048.410       -1202.732          44.000  
  22355700.927   117480027.248       -1202.844          46.000  
  22355700.575   117479971.959       -1202.796          46.000  
  22355700.875   117480034.806       -1202.748          49.000  
  22458867.056   118022145.251       -1202.820          39.000  
  22490114.376   118186349.301       -1202.811          39.000  
  22447724.119   117963603.810       -1202.852          39.000  
  22490799.652   118189952.359       -1202.889          38.000  
  22427207.485   117855787.854       -1202.857          41.000  
  22168148.184   116494405.914       -1202.648          31.000  
  22528603.355   118388640.245       -1202.683          33.000  
  22427208.150   117855803.939       -1202.822          33.000  
  22498714.011   118231543.309       -1202.849          39.000  
  22543862.561   118468781.220       -1202.802          33.000  
  22212697.586   116728525.826       -1202.851          38.000  
  22410801.268   117769553.902       -1202.771          33.000  
  22342224.302   117409189.868       -1202.819          39.000  
  22352189.474   117461550.255       -1202.753          40.000  
  22405529.676   117741855.354       -1202.846          34.000  
 25  8 16 11 37 38.0020000  0 23G 1G 3G 2G 4G 5G 6G 7G 8G10G22G23G21
                                G29G28G14G15G24G32G12G13G16G19G27
  22355740.738   117480272.082       -1202.632          49.000  
  22355736.633   117480284.352       -1202.645          49.000  
  22355741.964   117480255.375       -1202.538          49.000  
  22355740.897   117480219.314       -1202.566          49.000  
  22355747.481   117480288.963       -1202.914          44.000  
  22355746.726   117480267.796       -1202.805          46.000  
  22355746.370   117480212.508       -1202.765          46.000  
  22355746.625   117480275.342       -1202.549          49.000  
  22458912.631   118022385.791       -1202.676          39.000  
  22490160.150   118186589.866       -1203.066          39.000  
  22447769.832   117963844.341       -1202.559          39.000  
  22490845.393   118190192.915       -1203.011          38.000  
  22427253.199   117856028.381       -1202.502          41.000  
  22168193.973   116494646.445       -1202.438          31.000  
  22528649.154   118388880.818       -1203.026          33.000  
  22427253.855   117856044.438       -1201.903          32.000  
  22498759.779   118231783.873       -1203.120          39.000  
  22543908.297   118469021.803       -1203.377          33.000  
  22212743.338   116728766.329       -1202.087          38.000  
  22410847.114   117769794.413       -1202.139          33.000  
  22342270.025   117409430.388       -1202.326          39.000  
  22352235.201   117461790.779       -1202.339          40.000  
  22405575.439   117742095.895       -1202.836          34.000  
 25  8 16 11 37 38.2020000  0 23G 1G 3G 2G 4G 5G 6G 7G 8G10G22G23G21
                                G29G28G14G15G24G32G12G13G16G19G27
  22355786.486   117480512.608       -1202.617          49.000  
  22355782.385   117480524.882       -1202.663          49.000  
  22355787.739   117480495.906       -1202.703          49.000  
  22355786.644   117480459.840       -1202.631          49.000  
  22355793.210   117480529.498       -1202.644          44.000  
  22355792.537   117480508.325       -1202.853          46.000  
  22355792.169   117480453.024       -1202.681          46.000  
  22355792.398   117480515.869       -1202.637          49.000  
  22458958.211   118022626.318       -1202.709          39.000  
  22490205.909   118186830.388       -1202.724          39.000  
  22447815.614   117964084.872       -1202.820          40.000  
  22490891.135   118190433.436       -1202.692          40.000  
  22427298.909   117856268.913       -1202.785          41.000  
  22168239.870   116494886.981       -1202.646          31.000  
  22528694.951   118389121.329       -1202.572          34.000  
  22427299.576   117856284.985       -1202.882          33.000  
  22498805.585   118232024.388       -1202.665          39.000  
  22543954.080   118469262.307       -1202.559          34.000  
  22212789.059   116729006.872       -1202.846          38.000  
  22410892.882   117770034.959       -1202.721          33.000  
  22342315.770   117409670.926       -1202.831          40.000  
  22352280.998   117462031.312       -1202.738          40.000  
  22405621.207   117742336.423       -1202.720          37.000  
 25  8 16 11 37 38.4020000  0 23G 1G 3G 2G 4G 5G 6G 7G 8G10G22G23G21
                                G29G28G14G15G24G32G12G13G16G19G27
  22355832.273   117480753.113       -1202.657          49.000  
  22355828.151   117480765.386       -1202.670          49.000  
  22355833.470   117480736.407       -1202.574          49.000  
  22355832.404   117480700.343       -1202.620          49.000  
  22355839.001   117480769.997       -1202.528          44.000  
  22355838.309   117480748.824       -1202.574          47.000  
  22355837.944   117480693.530       -1202.581          46.000  
  22355838.159   117480756.375       -1202.624          49.000  
  22459003.815   118022866.818       -1202.585          39.000  
  22490251.680   118187070.884       -1202.526          39.000  
  22447861.322   117964325.361       -1202.539          40.000  
  22490936.902   118190673.931       -1202.502          40.000  
  22427344.574   117856509.405       -1202.495          41.000  
  22168285.704   116495127.483       -1202.537          31.000  
  22528740.697   118389361.833       -1202.513          34.000  
  22427345.232   117856525.471       -1202.573          33.000  
  22498851.322   118232264.887       -1202.520          39.000  
  22543999.888   118469502.812       -1202.354          34.000  
  22212834.806   116729247.359       -1202.579          38.000  
  22410938.639   117770275.446       -1202.543          32.000  
  22342361.462   117409911.417       -1202.590          40.000  
  22352326.737   117462271.806       -1202.511          40.000  
  22405666.955   117742576.914       -1202.497          37.000  
 25  8 16 11 37 38.6020000  0 23G 1G 3G 2G 4G 5G 6G 7G 8G10G22G23G21
                                G29G28G14G15G24G32G12G13G16G19G27
  22355877.990   117480993.621       -1202.573          49.000  
  22355873.925   117481005.888       -1202.568          49.000  
  22355879.204   117480976.915       -1202.594          49.000  
  22355878.122   117480940.849       -1202.561          49.000  
  22355884.720   117481010.502       -1202.488          44.000  
  22355884.082   117480989.327       -1202.578          46.000  
  22355883.688   117480934.042       -1202.684          46.000  
  22355883.924   117480996.883       -1202.631          49.000  
  22459049.445   118023107.325       -1202.587          39.000  
  22490297.435   118187311.393       -1202.561          39.000  
  22447907.089   117964565.875       -1202.530          40.000  
  22490982.677   118190914.445       -1202.585          40.000  
  22427390.275   117856749.917       -1202.607          41.000  
  22168331.531   116495367.991       -1202.533          31.000  
  22528786.482   118389602.346       -1202.613          34.000  
  22427390.915   117856765.973       -1202.324          33.000  
  22498897.095   118232505.396       -1202.501          39.000  
  22544045.671   118469743.337       -1202.760          34.000  
  22212880.531   116729487.867       -1202.502          38.000  
  22410984.413   117770515.958       -1202.567          32.000  
  22342407.224   117410151.926       -1202.574          40.000  
  22352372.545   117462512.321       -1202.660          40.000  
  22405712.723   117742817.426       -1202.536          36.000  
 25  8 16 11 37 38.8020000  0 23G 1G 3G 2G 4G 5G 6G 7G 8G10G22G23G21
                                G29G28G14G15G24G32G12G13G16G19G27
  22355923.758   117481234.150       -1202.732          49.000  
  22355919.690   117481246.423       -1202.696          49.000  
  22355924.949   117481217.444       -1202.680          49.000  
  22355923.873   117481181.382       -1202.750          49.000  
  22355930.533   117481251.041       -1202.979          44.000  
  22355929.887   117481229.863       -1202.685          46.000  
  22355929.491   117481174.578       -1202.932          46.000  
  22355929.701   117481237.414       -1202.724          49.000  
  22459095.053   118023347.858       -1202.710          39.000  
  22490343.247   118187551.925       -1202.655          39.000  
  22447952.847   117964806.408       -1202.700          40.000  
  22491028.440   118191154.977       -1202.747          40.000  
  22427435.970   117856990.449       -1202.715          41.000  
  22168377.443   116495608.511       -1202.572          31.000  
  22528832.274   118389842.876       -1202.713          34.000  
  22427436.597   117857006.517       -1202.686          33.000  
  22498942.899   118232745.934       -1202.758          39.000  
  22544091.475   118469983.860       -1202.658          34.000  
  22212926.315   116729728.405       -1202.785          38.000  
  22411030.175   117770756.492       -1202.726          32.000  
  22342452.967   117410392.460       -1202.689          40.000  
  22352418.337   117462752.847       -1202.659          39.000  
  22405758.459   117743057.961       -1202.667          36.000  
 25  8 16 11 37 39.0020000  0 23G 1G 3G 2G 4G 5G 6G 7G 8G10G22G23G21
                                G29G28G14G15G24G32G12G13G16G19G27
  22355969.526   117481474.686       -1202.753          49.000  
  22355965.459   117481486.957       -1202.732          49.000  
  22355970.680   117481457.979       -1202.699          49.000  
  22355969.611   117481421.920       -1202.739          49.000  
  22355976.354   117481491.555       -1202.623          44.000  
  22355975.700   117481470.396       -1202.844          46.000  
  22355975.256   117481415.106       -1202.748          46.000  
  22355975.460   117481477.951       -1202.733          49.000  
  22459140.705   118023588.410       -1202.831          39.000  
  22490389.026   118187792.442       -1202.892          39.000  
  22447998.619   117965046.952       -1202.696          40.000  
  22491074.202   118191395.510       -1202.806          40.000  
  22427481.723   117857230.994       -1202.740          41.000  
  22168423.275   116495849.068       -1202.488          31.000  
  22528878.036   118390083.400       -1202.794          34.000  
  22427482.327   117857247.069       -1202.464          33.000  
  22498988.667   118232986.450       -1202.810          39.000  
  22544137.238   118470224.371       -1202.921          34.000  
  22212972.052   116729968.969       -1202.706          38.000  
  22411075.963   117770997.048       -1202.675          32.000  
  22342498.713   117410633.006       -1202.742          40.000  
  22352464.099   117462993.392       -1202.715          40.000  
  22405804.201   117743298.490       -1202.935          36.000  
 25  8 16 11 37 39.2020000  0 24G 1G 3G 2G 4G 5G 6G 7G 8G10G22G23G21
                                G29G28G20G14G15G24G32G12G13G16G19G27
  22356015.307   117481715.215       -1202.807          49.000  
  22356011.254   117481727.491       -1202.814          49.000  
  22356016.487   117481698.510       -1202.815          49.000  
  22356015.374   117481662.453       -1202.841          49.000  
  22356022.156   117481732.093       -1202.818          44.000  
  22356021.497   117481710.927       -1202.829          46.000  
  22356021.032   117481655.636       -1202.941          46.000  
  22356021.277   117481718.483       -1202.813          49.000  
  22459186.355   118023828.940       -1202.929          39.000  
  22490434.812   118188032.968       -1202.729          39.000  
  22448044.383   117965287.486       -1202.907          40.000  
  22491119.929   118191636.037       -1202.822          40.000  
  22427527.443   117857471.522       -1202.830          41.000  
  22168469.047   116496089.616       -1203.068          31.000  
  22299767.426   117186068.4772      -1202.830          41.000  
  22528923.786   118390323.926       -1202.726          33.000  
  22427528.044   117857487.611       -1202.920          33.000  
  22499034.451   118233226.983       -1202.826          39.000  
  22544183.021   118470464.903       -1202.772          34.000  
  22213017.807   116730209.496       -1202.866          38.000  
  22411121.772   117771237.576       -1202.860          33.000  
  22342544.498   117410873.534       -1202.841          40.000  
  22352509.884   117463233.922       -1202.843          40.000  
  22405849.954   117743539.017       -1202.860          36.000  
 25  8 16 11 37 39.4020000  0 23G 1G 3G 2G 4G 5G 6G 7G 8G10G22G23G21
                                G29G20G14G15G24G32G12G13G16G19G27
  22356061.050   117481955.751       -1202.713          49.000  
  22356057.021   117481968.026       -1202.741          49.000  
  22356062.277   117481939.054       -1202.828          49.000  
  22356061.142   117481902.990       -1202.750          49.000  
  22356067.932   117481972.626       -1202.753          44.000  
  22356067.297   117481951.467       -1202.693          46.000  
  22356066.814   117481896.171       -1202.780          46.000  
  22356067.066   117481959.022       -1202.803          49.000  
  22459231.995   118024069.476       -1202.714          39.000  
  22490480.625   118188273.510       -1202.706          39.000  
  22448090.111   117965528.023       -1202.817          40.000  
  22491165.666   118191876.577       -1202.732          40.000  
  22427573.182   117857712.060       -1202.700          41.000  
  22299813.124   117186309.0162      -1202.739          41.000  
  22528969.574   118390564.473       -1202.663          33.000  
  22427573.766   117857728.150       -1202.869          33.000  
  22499080.234   118233467.523       -1202.828          39.000  
  22544228.778   118470705.441       -1202.765          35.000  
  22213063.536   116730450.034       -1202.784          38.000  
  22411167.569   117771478.112       -1202.795          33.000  
  22342590.221   117411114.076       -1202.798          40.000  
  22352555.651   117463474.462       -1202.765          40.000  
  22405895.754   117743779.558       -1202.760          35.000  
 25  8 16 11 37 39.6020000  0 23G 1G 3G 2G 4G 5G 6G 7G 8G10G22G23G21
                                G29G20G14G15G24G32G12G13G16G19G27
  22356106.810   117482196.309       -1202.725          49.000  
  22356102.794   117482208.580       -1202.702          49.000  
  22356108.023   117482179.602       -1202.657          49.000  
  22356106.889   117482143.545       -1202.755          49.000  
  22356113.666   117482213.180       -1202.729          44.000  
  22356113.118   117482192.022       -1202.701          46.000  
  22356112.581   117482136.726       -1202.639          46.000  
  22356112.825   117482199.574       -1202.716          49.000  
  22459277.668   118024310.031       -1202.681          39.000  
  22490526.402   118188514.065       -1202.674          39.000  
  22448135.871   117965768.577       -1202.705          40.000  
  22491211.468   118192117.131       -1202.629          40.000  
  22427618.923   117857952.617       -1202.661          41.000  
  22299858.806   117186549.5702      -1202.634          41.000  
  22529015.362   118390805.034       -1202.834          33.000  
  22427619.493   117857968.708       -1202.798          33.000  
  22499126.026   118233708.074       -1202.682          39.000  
  22544274.512   118470945.998       -1202.633          35.000  
  22213109.280   116730690.596       -1202.851          38.000  
  22411213.406   117771718.669       -1202.661          33.000  
  22342636.012   117411354.627       -1202.675          40.000  
  22352601.466   117463715.017       -1202.685          40.000  
  22405941.500   117744020.116       -1202.666          35.000  
 25  8 16 11 37 39.8020000  0 24G 1G 3G 2G 4G 5G 6G 7G 8G10G22G23G21
                                G 9G29G20G14G15G24G32G12G13G16G19G27
  22356152.566   117482436.846       -1202.696          49.000  
  22356148.579   117482449.115       -1202.637          49.000  
  22356153.803   117482420.140       -1202.636          49.000  
  22356152.648   117482384.079       -1202.604          49.000  
  22356159.380   117482453.715       -1202.571          44.000  
  22356158.914   117482432.559       -1202.706          46.000  
  22356158.340   117482377.263       -1202.638          46.000  
  22356158.582   117482440.101       -1202.489          49.000  
  22459323.374   118024550.586       -1202.853          39.000  
  22490572.204   118188754.616       -1202.938          39.000  
  22448181.615   117966009.113       -1202.701          40.000  
  22491257.247   118192357.664       -1202.596          40.000  
  22258287.000                       -1202.360          37.000  
  22427664.658   117858193.150       -1202.610          41.000  
  22299904.464   117186790.1182      -1202.784          41.000  
  22529061.155   118391045.568       -1202.695          33.000  
  22427665.219   117858209.206       -1202.122          33.000  
  22499171.764   118233948.596       -1202.396          40.000  
  22544320.284   118471186.565       -1203.196          35.000  
  22213155.079   116730931.102       -1202.275          38.000  
  22411259.177   117771959.182       -1202.321          33.000  
  22342681.732   117411595.165       -1202.647          39.000  
  22352647.190   117463955.542       -1202.489          40.000  
  22405987.288   117744260.637       -1202.325          35.000  
 25  8 16 11 37 40.0020000  0 24G 1G 3G 2G 4G 5G 6G 7G 8G10G22G23G21
                                G 9G29G20G14G15G24G32G12G13G16G19G27
  22356198.312   117482677.384       -1202.662          49.000  
  22356194.360   117482689.655       -1202.723          49.000  
  22356199.549   117482660.680       -1202.710          49.000  
  22356198.392   117482624.619       -1202.677          49.000  
  22356205.223   117482694.262       -1202.768          44.000  
  22356204.713   117482673.105       -1202.727          46.000  
  22356204.114   117482617.800       -1202.854          46.000  
  22356204.386   117482680.646       -1202.737          49.000  
  22459369.042   118024791.127       -1202.827          39.000  
  22490618.014   118188995.154       -1202.723          39.000  
  22448227.373   117966249.659       -1202.788          40.000  
  22491303.038   118192598.208       -1202.774          40.000  
  22258332.768                       -1202.360          37.000  
  22427710.365   117858433.695       -1202.826          41.000  
  22299950.152   117187030.6602      -1202.729          41.000  
  22529106.948   118391286.113       -1202.928          33.000  
  22427710.921   117858449.759       -1202.855          33.000  
  22499217.572   118234189.147       -1202.906          40.000  
  22544366.061   118471427.098       -1202.737          35.000  
  22213200.829   116731171.651       -1202.809          38.000  
  22411304.970   117772199.734       -1202.789          33.000  
  22342727.515   117411835.708       -1202.814          39.000  
  22352692.972   117464196.091       -1202.963          39.000  
  22406033.027   117744501.184       -1202.817          35.000  
 25  8 16 11 37 40.2020000  0 24G 1G 3G 2G 4G 5G 6G 7G 8G10G22G23G21
                                G 9G29G20G14G15G24G32G12G13G16G19G27
  22356244.118   117482917.937       -1202.946          49.000  
  22356240.159   117482930.208       -1202.965          49.000  
  22356245.337   117482901.233       -1202.959          49.000  
  22356244.146   117482865.175       -1202.958          49.000  
  22356250.997   117482934.813       -1202.925          44.000  
  22356250.529   117482913.656       -1203.005          46.000  
  22356249.929   117482858.350       -1202.894          46.000  
  22356250.181   117482921.199       -1202.933          49.000  
  22459414.732   118025031.675       -1202.901          39.000  
  22490663.779   118189235.706       -1202.950          40.000  
  22448273.122   117966490.209       -1202.987          40.000  
  22491348.850   118192838.757       -1202.958          40.000  
  22258378.701                       -1202.360          37.000  
  22427756.071   117858674.242       -1202.895          41.000  
  22299995.827   117187271.2082      -1202.902          41.000  
  22529152.719   118391526.651       -1202.884          33.000  
  22427756.618   117858690.303       -1203.010          33.000  
  22499263.309   118234429.691       -1203.005          40.000  
  22544411.829   118471667.651       -1202.825          35.000  
  22213246.602   116731412.193       -1203.004          38.000  
  22411350.774   117772440.281       -1203.040          34.000  
  22342773.246   117412076.254       -1202.921          40.000  
  22352738.696   117464436.626       -1202.852          39.000  
  22406078.806   117744741.729       -1202.943          35.000  
 25  8 16 11 37 40.4020000  0 24G 1G 3G 2G 4G 5G 6G 7G 8G10G22G23G21
                                G 9G29G20G14G15G24G32G12G13G16G19G27
  22356289.854   117483158.453       -1202.451          49.000  
  22356285.924   117483170.721       -1202.486          49.000  
  22356291.063   117483141.751       -1202.510          49.000  
  22356289.867   117483105.692       -1202.538          49.000  
  22356296.654   117483175.333       -1202.450          44.000  
  22356296.330   117483154.165       -1202.477          46.000  
  22356295.662   117483098.868       -1202.484          46.000  
  22356295.936   117483161.711       -1202.440          49.000  
  22459460.388   118025272.189       -1202.401          39.000  
  22490709.558   118189476.219       -1202.414          40.000  
  22448318.907   117966730.719       -1202.401          40.000  
  22491394.621   118193079.275       -1202.468          40.000  
  22258425.600                       -1202.360          37.000  
  22427801.797   117858914.758       -1202.365          41.000  
  22300041.565   117187511.7232      -1202.386          41.000  
  22529198.522   118391767.173       -1202.298          33.000  
  22427802.346   117858930.815       -1202.374          33.000  
  22499309.108   118234670.204       -1202.461          40.000  
  22544457.582   118471908.170       -1202.405          36.000  
  22213292.335   116731652.708       -1202.375          38.000  
  22411396.574   117772680.791       -1202.342          34.000  
  22342819.057   117412316.772       -1202.445          40.000  
  22352784.476   117464677.146       -1202.372          39.000  
  22406124.524   117744982.245       -1202.401          35.000  
 25  8 16 11 37 40.6020000  0 24G 1G 3G 2G 4G 5G 6G 7G 8G10G22G23G21
                                G 9G29G20G14G15G24G32G12G13G16G19G27
  22356335.633   117483398.993       -1202.601          49.000  
  22356331.709   117483411.260       -1202.684          49.000  
  22356336.850   117483382.288       -1202.684          49.000  
  22356335.628   117483346.227       -1202.624          49.000  
  22356342.501   117483415.871       -1202.620          44.000  
  22356342.166   117483394.709       -1202.594          46.000  
  22356341.465   117483339.409       -1202.691          46.000  
  22356341.711   117483402.251       -1202.635          49.000  
  22459506.111   118025512.733       -1202.663          39.000  
  22490755.345   118189716.762       -1202.640          40.000  
  22448364.713   117966971.266       -1202.698          40.000  
  22491440.371   118193319.815       -1202.699          40.000  
  22258470.686                       -1202.360          37.000  
  22427847.543   117859155.304       -1202.743          41.000  
  22300087.209   117187752.2692      -1202.682          41.000  
  22529244.340   118392007.715       -1202.755          33.000  
  22427848.093   117859171.363       -1202.658          33.000  
  22499354.822   118234910.749       -1202.693          40.000  
  22544503.319   118472148.712       -1202.720          36.000  
  22213338.097   116731893.254       -1202.612          38.000  
  22411442.356   117772921.329       -1202.448          34.000  
  22342864.804   117412557.315       -1202.764          40.000  
  22352830.255   117464917.690       -1202.696          39.000  
  22406170.276   117745222.791       -1202.682          35.000  
 25  8 16 11 37 40.8020000  0 25G 1G 3G 2G 4G 5G 6G 7G 8G10G22G23G21
                                G 9G29G28G20G14G15G24G32G12G13G16G19
                                G27
  22356381.422   117483639.520       -1202.767          49.000  
  22356377.480   117483651.782       -1202.689          49.000  
  22356382.599   117483622.809       -1202.710          49.000  
  22356381.400   117483586.750       -1202.715          49.000  
  22356388.312   117483656.396       -1202.700          44.000  
  22356387.941   117483635.228       -1202.704          46.000  
  22356387.239   117483579.936       -1202.685          46.000  
  22356387.492   117483642.779       -1202.773          49.000  
  22459551.811   118025753.228       -1202.941          38.000  
  22490801.099   118189957.290       -1202.632          40.000  
  22448410.473   117967211.776       -1202.679          40.000  
  22491486.126   118193560.329       -1202.716          40.000  
  22258516.082                       -1202.360          37.000  
  22427893.285   117859395.799       -1202.835          41.000  
  22168835.063   116498013.9161      -1202.972          33.000  
  22300132.918   117187992.7862      -1202.683          41.000  
  22529290.133   118392248.251       -1202.520          33.000  
  22427893.792   117859411.889       -1202.592          34.000  
  22499400.600   118235151.290       -1202.604          40.000  
  22544549.054   118472389.244       -1202.839          36.000  
  22213383.816   116732133.778       -1202.686          38.000  
  22411488.154   117773161.869       -1202.748          34.000  
  22342910.547   117412797.814       -1202.680          39.000  
  22352876.023   117465158.220       -1202.748          39.000  
  22406215.990   117745463.338       -1202.611          36.000  
 25  8 16 11 37 41.0020000  0 27G 1G 3G 2G 4G 5G 6G 7G 8G10G22G23G21
                                G 9G29G28G20G14G15G24G32G17G12G13G16
                                G19G27G11
  22356427.177   117483880.043       -1202.659          49.000  
  22356423.265   117483892.312       -1202.725          49.000  
  22356428.378   117483863.344       -1202.709          49.000  
  22356427.160   117483827.277       -1202.720          49.000  
  22356434.042   117483896.921       -1202.641          44.000  
  22356433.713   117483875.755       -1202.566          46.000  
  22356432.984   117483820.456       -1202.587          46.000  
  22356433.287   117483883.305       -1202.686          49.000  
  22459597.483   118025993.752       -1202.581          38.000  
  22490846.913   118190197.821       -1202.670          39.000  
  22448456.267   117967452.309       -1202.605          40.000  
  22491531.884   118193800.855       -1202.580          40.000  
  22258562.369                       -1202.360          37.000  
  22427939.005   117859636.330       -1202.625          41.000  
  22168880.754   116498254.441       -1202.616          33.000  
  22300178.620   117188233.3172      -1202.663          41.000  
  22529335.967   118392488.785       -1202.802          34.000  
  22427939.498   117859652.424       -1202.642          34.000  
  22499446.353   118235391.819       -1202.716          40.000  
  22544594.782   118472629.770       -1202.701          35.000  
  22404207.368   117734904.3233      -1202.637          41.000  
  22213429.552   116732374.308       -1202.650          38.000  
  22411533.889   117773402.392       -1202.597          34.000  
  22342956.321   117413038.346       -1202.565          39.000  
  22352921.799   117465398.749       -1202.651          39.000  
  22406261.722   117745703.860       -1202.777          36.000  
  22272920.265                       -1202.634          40.000  
 25  8 16 11 37 41.2020000  0 27G 1G 3G 2G 4G 5G 6G 7G 8G10G22G23G21
                                G 9G29G28G20G14G15G24G32G17G12G13G16
                                G19G27G11
  22356472.961   117484120.612       -1202.929          49.000  
  22356469.052   117484132.877       -1202.895          49.000  
  22356474.185   117484103.911       -1202.935          49.000  
  22356472.922   117484067.843       -1202.923          49.000  
  22356479.876   117484137.501       -1203.087          44.000  
  22356479.506   117484116.330       -1203.023          46.000  
  22356478.762   117484061.031       -1203.052          46.000  
  22356479.067   117484123.870       -1202.917          49.000  
  22459643.179   118026234.326       -1203.044          38.000  
  22490892.710   118190438.393       -1203.011          39.000  
  22448502.023   117967692.883       -1203.027          40.000  
  22491577.630   118194041.433       -1203.088          40.000  
  22258608.496                       -1202.360          37.000  
  22427984.758   117859876.901       -1203.025          41.000  
  22168926.523   116498495.016       -1203.033          33.000  
  22300224.301   117188473.8902      -1203.079          41.000  
  22529381.787   118392729.354       -1203.058          34.000  
  22427985.225   117859892.993       -1202.933          34.000  
  22499492.093   118235632.391       -1203.096          40.000  
  22544640.541   118472870.338       -1203.036          35.000  
  22404253.051   117735144.8962      -1202.978          40.000  
  22213475.337   116732614.880       -1203.061          38.000  
  22411579.665   117773642.963       -1202.995          34.000  
  22343002.059   117413278.923       -1203.038          39.000  
  22352967.565   117465639.321       -1202.998          39.000  
  22406307.448   117745944.431       -1203.028          36.000  
  22272966.075                       -1202.634          40.000  
 25  8 16 11 37 41.4020000  0 27G 1G 3G 2G 4G 5G 6G 7G 8G10G22G23G21
                                G 9G29G28G20G14G15G24G32G17G12G13G16
                                G19G27G11
  22356518.739   117484361.144       -1202.713          49.000  
  22356514.825   117484373.411       -1202.690          49.000  
  22356519.977   117484344.441       -1202.644          49.000  
  22356518.677   117484308.371       -1202.624          49.000  
  22356525.764   117484378.015       -1202.651          44.000  
  22356525.350   117484356.855       -1202.718          46.000  
  22356524.565   117484301.559       -1202.736          46.000  
  22356524.867   117484364.400       -1202.648          49.000  
  22459688.814   118026474.847       -1202.676          38.000  
  22490938.429   118190678.915       -1202.625          39.000  
  22448547.831   117967933.408       -1202.650          40.000  
  22491623.388   118194281.956       -1202.723          40.000  
  22258654.387                       -1202.360          37.000  
  22428030.467   117860117.427       -1202.678          41.000  
  22168972.251   116498735.541       -1202.657          33.000  
  22300270.028   117188714.4132      -1202.693          41.000  
  22529427.589   118392969.871       -1202.690          34.000  
  22428030.919   117860133.519       -1202.620          34.000  
  22499537.860   118235872.912       -1202.677          40.000  
  22544686.298   118473110.863       -1202.655          35.000  
  22404298.756   117735385.4212      -1202.705          40.000  
  22213521.040   116732855.405       -1202.726          38.000  
  22411625.472   117773883.489       -1202.684          35.000  
  22343047.811   117413519.441       -1202.574          39.000  
  22353013.389   117465879.842       -1202.633          39.000  
  22406353.174   117746184.955       -1202.658          36.000  
  22273012.515                       -1202.634          40.000  
 25  8 16 11 37 41.6020000  0 27G 1G 3G 2G 4G 5G 6G 7G 8G10G22G23G21
                                G 9G29G28G20G14G15G24G32G17G12G13G16
                                G19G27G11
  22356564.499   117484601.697       -1202.709          49.000  
  22356560.599   117484613.965       -1202.717          49.000  
  22356565.737   117484584.999       -1202.759          49.000  
  22356564.446   117484548.931       -1202.779          49.000  
  22356571.505   117484618.570       -1202.403          43.000  
  22356571.113   117484597.406       -1202.592          46.000  
  22356570.346   117484542.119       -1202.783          46.000  
  22356570.659   117484604.959       -1202.754          49.000  
  22459734.498   118026715.402       -1202.582          38.000  
  22490984.238   118190919.467       -1202.552          39.000  
  22448593.582   117968173.972       -1202.795          40.000  
  22491669.175   118194522.518       -1202.761          40.000  
  22258700.216                       -1202.360          37.000  
  22428076.208   117860357.997       -1202.880          41.000  
  22169017.989   116498976.104       -1202.770          33.000  
  22300315.648   117188954.9692      -1202.646          41.000  
  22529473.383   118393210.408       -1202.205          34.000  
  22428076.642   117860374.093       -1202.973          34.000  
  22499583.584   118236113.461       -1202.512          40.000  
  22544732.059   118473351.401       -1202.345          35.000  
  22404344.368   117735625.9712      -1202.496          40.000  
  22213566.806   116733095.958       -1202.608          38.000  
  22411671.266   117774124.036       -1202.573          35.000  
  22343093.554   117413760.008       -1202.751          39.000  
  22353059.143   117466120.405       -1202.740          39.000  
  22406398.945   117746425.509       -1202.560          36.000  
  22273058.897                       -1202.634          40.000  
 25  8 16 11 37 41.8020000  0 27G 1G 3G 2G 4G 5G 6G 7G 8G10G22G23G21
                                G 9G29G28G20G14G15G24G32G17G12G13G16
                                G19G27G11
  22356610.260   117484842.231       -1202.629          49.000  
  22356606.377   117484854.497       -1202.663          49.000  
  22356611.500   117484825.529       -1202.637          49.000  
  22356610.204   117484789.463       -1202.643          49.000  
  22356617.381   117484859.115       -1202.716          43.000  
  22356616.887   117484837.945       -1202.666          46.000  
  22356616.094   117484782.652       -1202.662          46.000  
  22356616.451   117484845.493       -1202.662          49.000  
  22459780.190   118026955.938       -1202.710          38.000  
  22491030.008   118191160.007       -1202.750          39.000  
  22448639.369   117968414.501       -1202.669          40.000  
  22491714.910   118194763.049       -1202.721          40.000  
  22258745.615                       -1202.360          37.000  
  22428121.935   117860598.527       -1202.672          41.000  
  22169063.771   116499216.634       -1202.665          32.000  
  22300361.406   117189195.5032      -1202.707          41.000  
  22529519.173   118393450.951       -1202.854          34.000  
  22428122.346   117860614.617       -1202.626          34.000  
  22499629.363   118236353.996       -1202.699          40.000  
  22544777.820   118473591.940       -1202.783          35.000  
  22404390.260   117735866.5112      -1202.787          40.000  
  22213612.546   116733336.490       -1202.728          38.000  
  22411717.048   117774364.578       -1202.778          35.000  
  22343139.354   117414000.540       -1202.636          39.000  
  22353104.968   117466360.941       -1202.719          39.000  
  22406444.679   117746666.048       -1202.765          36.000  
  22273104.693                       -1202.634          40.000  
 25  8 16 11 37 42.0020000  0 27G 1G 3G 2G 4G 5G 6G 7G 8G10G22G23G21
                                G 9G29G28G20G14G15G24G32G17G12G13G16
                                G19G27G11
  22356656.018   117485082.781       -1202.675          49.000  
  22356652.166   117485095.050       -1202.715          49.000  
  22356657.247   117485066.081       -1202.688          49.000  
  22356655.957   117485030.013       -1202.669          49.000  
  22356663.129   117485099.668       -1202.779          43.000  
  22356662.674   117485078.496       -1202.732          46.000  
  22356661.880   117485023.203       -1202.693          46.000  
  22356662.226   117485086.045       -1202.695          49.000  
  22459825.861   118027196.491       -1202.784          38.000  
  22491075.778   118191400.554       -1202.696          39.000  
  22448685.107   117968655.052       -1202.646          40.000  
  22491760.668   118195003.602       -1202.706          40.000  
  22258791.825                       -1202.360          37.000  
  22428167.662   117860839.083       -1202.718          41.000  
  22169109.545   116499457.186       -1202.709          32.000  
  22300407.057   117189436.0532      -1202.668          41.000  
  22529564.941   118393691.500       -1202.766          34.000  
  22428168.039   117860855.163       -1202.681          34.000  
  22499675.095   118236594.550       -1202.758          40.000  
  22544823.569   118473832.492       -1202.703          35.000  
  22404436.257   117736107.0582      -1202.682          40.000  
  22213658.333   116733577.037       -1202.643          38.000  
  22411762.805   117774605.122       -1202.675          34.000  
  22343185.113   117414241.094       -1202.705          40.000  
  22353150.719   117466601.491       -1202.725          40.000  
  22406490.434   117746906.598       -1202.800          36.000  
  22273151.250                       -1202.634          40.000  
 25  8 16 11 37 42.2020000  0 27G 1G 3G 2G 4G 5G 6G 7G 8G10G22G23G21
                                G 9G29G28G20G14G15G24G32G17G12G13G16
                                G19G27G11
  22356701.791   117485323.323       -1202.838          49.000  
  22356697.958   117485335.592       -1202.824          49.000  
  22356703.041   117485306.626       -1202.781          49.000  
  22356701.728   117485270.554       -1202.798          49.000  
  22356708.970   117485340.206       -1202.926          43.000  
  22356708.453   117485319.038       -1202.910          46.000  
  22356707.660   117485263.742       -1202.878          46.000  
  22356708.016   117485326.586       -1202.776          49.000  
  22459871.548   118027437.028       -1202.881          38.000  
  22491121.557   118191641.098       -1202.881          39.000  
  22448730.893   117968895.594       -1202.831          40.000  
  22491806.423   118195244.141       -1202.868          40.000  
  22258836.742                       -1202.360          37.000  
  22428213.414   117861079.625       -1202.896          41.000  
  22169155.315   116499697.725       -1202.780          32.000  
  22300452.757   117189676.5962      -1202.897          41.000  
  22529610.728   118393932.042       -1202.840          34.000  
  22428213.798   117861095.705       -1202.681          34.000  
  22499720.881   118236835.087       -1202.794          40.000  
  22544869.338   118474073.026       -1202.911          35.000  
  22404482.150   117736347.6022      -1202.855          40.000  
  22213704.060   116733817.581       -1202.857          38.000  
  22411808.579   117774845.668       -1202.895          34.000  
  22343230.877   117414481.636       -1202.863          40.000  
  22353196.513   117466842.032       -1202.830          40.000  
  22406536.169   117747147.136       -1202.901          36.000  
  22273197.049                       -1202.634          40.000  
 25  8 16 11 37 42.4020000  0 27G 1G 3G 2G 4G 5G 6G 7G 8G10G22G23G21
                                G 9G29G28G20G14G15G24G32G17G12G13G16
                                G19G27G11
  22356747.530   117485563.860       -1202.813          49.000  
  22356743.725   117485576.126       -1202.735          49.000  
  22356748.826   117485547.163       -1202.820          49.000  
  22356747.463   117485511.092       -1202.835          49.000  
  22356754.676   117485580.733       -1202.773          43.000  
  22356754.254   117485559.570       -1202.737          46.000  
  22356753.468   117485504.277       -1202.777          46.000  
  22356753.790   117485567.120       -1202.801          49.000  
  22459917.267   118027677.559       -1202.740          38.000  
  22491167.315   118191881.629       -1202.776          39.000  
  22448776.672   117969136.126       -1202.766          40.000  
  22491852.184   118195484.674       -1202.815          40.000  
  22258882.482                       -1202.360          37.000  
  22428259.122   117861320.152       -1202.751          41.000  
  22169200.997   116499938.264       -1202.732          32.000  
  22300498.453   117189917.1242      -1202.732          41.000  
  22529656.525   118394172.574       -1202.760          34.000  
  22428259.551   117861336.241       -1202.715          33.000  
  22499766.638   118237075.623       -1202.815          40.000  
  22544915.075   118474313.553       -1202.632          35.000  
  22404528.065   117736588.1312      -1202.712          40.000  
  22213749.828   116734058.114       -1202.677          38.000  
  22411854.365   117775086.197       -1202.748          34.000  
  22343276.630   117414722.166       -1202.710          40.000  
  22353242.287   117467082.563       -1202.745          40.000  
  22406581.914   117747387.664       -1202.775          36.000  
  22273241.866                       -1202.634          40.000  
 25  8 16 11 37 42.6020000  0 27G 1G 3G 2G 4G 5G 6G 7G 8G10G22G23G21
                                G 9G29G28G20G14G15G24G32G17G12G13G16
                                G19G27G11
  22356793.265   117485804.403       -1202.704          49.000  
  22356789.493   117485816.668       -1202.712          49.000  
  22356794.564   117485787.703       -1202.711          49.000  
  22356793.158   117485751.636       -1202.704          49.000  
  22356800.377   117485821.286       -1202.539          43.000  
  22356800.030   117485800.118       -1202.643          46.000  
  22356799.187   117485744.818       -1202.695          46.000  
  22356799.565   117485807.663       -1202.757          49.000  
  22459962.968   118027918.120       -1202.776          38.000  
  22491213.096   118192122.181       -1202.588          39.000  
  22448822.420   117969376.668       -1202.646          40.000  
  22491897.925   118195725.216       -1202.673          40.000  
  22258928.897                       -1202.360          37.000  
  22428304.888   117861560.693       -1202.806          41.000  
  22169246.731   116500178.803       -1202.604          32.000  
  22300544.136   117190157.6752      -1202.663          41.000  
  22529702.301   118394413.145       -1202.640          34.000  
  22428305.302   117861576.768       -1202.506          34.000  
  22499812.384   118237316.175       -1202.629          40.000  
  22544960.844   118474554.128       -1202.620          35.000  
  22404573.828   117736828.6862      -1202.685          40.000  
  22213795.576   116734298.667       -1202.625          38.000  
  22411900.139   117775326.752       -1202.733          34.000  
  22343322.355   117414962.708       -1202.699          40.000  
  22353288.055   117467323.107       -1202.685          40.000  
  22406627.648   117747628.216       -1202.640          36.000  
  22273287.395                       -1202.634          40.000  
 25  8 16 11 37 42.8020000  0 27G 1G 3G 2G 4G 5G 6G 7G 8G10G22G23G21
                                G 9G29G28G20G14G15G24G32G17G12G13G16
                                G19G27G11
  22356839.038   117486044.955       -1202.821          49.000  
  22356835.282   117486057.222       -1202.807          49.000  
  22356840.315   117486028.251       -1202.782          49.000  
  22356838.897   117485992.188       -1202.768          49.000  
  22356846.270   117486061.841       -1202.971          43.000  
  22356845.857   117486040.678       -1202.888          46.000  
  22356844.978   117485985.378       -1202.810          46.000  
  22356845.339   117486048.215       -1202.820          49.000  
  22460008.645   118028158.665       -1202.720          38.000  
  22491258.904   118192362.736       -1202.844          39.000  
  22448868.170   117969617.223       -1202.833          40.000  
  22491943.702   118195965.770       -1202.767          40.000  
  22258974.762                       -1202.360          37.000  
  22428350.572   117861801.244       -1202.826          41.000  
  22169292.519   116500419.359       -1202.856          32.000  
  22300589.850   117190398.2292      -1202.820          41.000  
  22529748.129   118394653.687       -1202.859          34.000  
  22428351.044   117861817.331       -1202.858          34.000  
  22499858.143   118237556.729       -1202.833          40.000  
  22545006.640   118474794.680       -1202.890          35.000  
  22404619.768   117737069.2382      -1202.839          40.000  
  22213841.327   116734539.218       -1202.859          38.000  
  22411945.906   117775567.300       -1202.788          34.000  
  22343368.100   117415203.259       -1202.760          39.000  
  22353333.843   117467563.662       -1202.845          39.000  
  22406673.389   117747868.772       -1202.858          36.000  
  22273333.536                       -1202.344          40.000  
 25  8 16 11 37 43.0020000  0 27G 1G 3G 2G 4G 5G 6G 7G 8G10G22G23G21
                                G 9G29G28G20G14G15G24G32G17G12G13G16
                                G19G27G11
  22356884.808   117486285.503       -1202.749          49.000  
  22356881.062   117486297.771       -1202.796          49.000  
  22356886.070   117486268.795       -1202.704          49.000  
  22356884.677   117486232.732       -1202.720          49.000  
  22356891.882   117486302.393       -1202.674          43.000  
  22356891.607   117486281.220       -1202.771          46.000  
  22356890.740   117486225.920       -1202.770          46.000  
  22356891.099   117486288.761       -1202.737          49.000  
  22460054.314   118028399.214       -1202.743          38.000  
  22491304.687   118192603.279       -1202.743          39.000  
  22448913.914   117969857.765       -1202.692          40.000  
  22491989.463   118196206.312       -1202.633          40.000  
  22259020.405                       -1202.360          37.000  
  22428396.307   117862041.789       -1202.730          41.000  
  22169338.280   116500659.911       -1202.872          32.000  
  22300635.508   117190638.7732      -1202.724          41.000  
  22529793.882   118394894.236       -1202.783          34.000  
  22428396.780   117862057.872       -1202.636          34.000  
  22499903.879   118237797.272       -1202.757          40.000  
  22545052.377   118475035.222       -1202.772          35.000  
  22404665.576   117737309.7852      -1202.788          40.000  
  22213887.068   116734779.763       -1202.729          38.000  
  22411991.685   117775807.847       -1202.724          34.000  
  22343413.814   117415443.806       -1202.697          39.000  
  22353379.601   117467804.208       -1202.836          39.000  
  22406719.113   117748109.316       -1202.717          36.000  
  22273379.422                       -1202.906          40.000  
 25  8 16 11 37 43.2020000  0 27G 1G 3G 2G 4G 5G 6G 7G 8G10G22G23G21
                                G 9G29G28G20G14G15G24G32G17G12G13G16
                                G19G27G11
  22356930.562   117486526.025       -1202.645          49.000  
  22356926.842   117486538.299       -1202.690          49.000  
  22356931.810   117486509.320       -1202.631          49.000  
  22356930.411   117486473.258       -1202.697          49.000  
  22356937.668   117486542.913       -1202.662          43.000  
  22356937.411   117486521.747       -1202.790          46.000  
  22356936.488   117486466.445       -1202.765          46.000  
  22356936.844   117486529.285       -1202.645          49.000  
  22460100.025   118028639.742       -1202.788          38.000  
  22491350.454   118192843.808       -1202.767          39.000  
  22448959.735   117970098.294       -1202.745          40.000  
  22492035.193   118196446.842       -1202.708          40.000  
  22259066.215                       -1202.360          37.000  
  22428442.055   117862282.315       -1202.724          41.000  
  22169384.018   116500900.430       -1202.705          32.000  
  22300681.213   117190879.3002      -1202.695          41.000  
  22529839.666   118395134.758       -1202.617          33.000  
  22428442.471   117862298.400       -1202.635          34.000  
  22499949.644   118238037.795       -1202.703          40.000  
  22545098.178   118475275.749       -1202.612          35.000  
  22404711.325   117737550.3092      -1202.709          40.000  
  22213932.798   116735020.292       -1202.789          39.000  
  22412037.454   117776048.372       -1202.665          34.000  
  22343459.554   117415684.331       -1202.650          39.000  
  22353425.441   117468044.729       -1202.684          39.000  
  22406764.825   117748349.844       -1202.655          36.000  
  22273425.424   117047639.3223      -1202.627          40.000  
 25  8 16 11 37 43.4020000  0 27G 1G 3G 2G 4G 5G 6G 7G 8G10G22G23G21
                                G 9G29G28G20G14G15G24G32G17G12G13G16
                                G19G27G11
  22356976.314   117486766.561       -1202.700          49.000  
  22356972.619   117486778.838       -1202.753          49.000  
  22356977.577   117486749.862       -1202.664          49.000  
  22356976.163   117486713.798       -1202.759          49.000  
  22356983.436   117486783.449       -1202.738          43.000  
  22356983.166   117486762.284       -1202.745          46.000  
  22356982.259   117486706.989       -1202.848          46.000  
  22356982.604   117486769.828       -1202.744          49.000  
  22460145.731   118028880.292       -1203.031          38.000  
  22491396.199   118193084.336       -1202.642          39.000  
  22449005.492   117970338.838       -1202.808          40.000  
  22492080.964   118196687.381       -1202.711          40.000  
  22259112.518                       -1202.360          37.000  
  22428487.789   117862522.864       -1202.879          41.000  
  22169429.801   116501140.968       -1202.645          32.000  
  22300726.898   117191119.831       -1202.607          41.000  
  22529885.461   118395375.262       -1202.142          33.000  
  22428488.246   117862538.941       -1202.798          34.000  
  22499995.389   118238278.326       -1202.557          40.000  
  22545143.938   118475516.270       -1202.396          35.000  
  22404757.016   117737790.858       -1202.899          40.000  
  22213978.592   116735260.833       -1202.817          39.000  
  22412083.242   117776288.888       -1202.274          35.000  
  22343505.272   117415924.886       -1202.945          39.000  
  22353471.176   117468285.272       -1202.743          39.000  
  22406810.542   117748590.365       -1202.339          36.000  
  22273471.376   117047879.8612      -1202.660          40.000  
 25  8 16 11 37 43.6020000  0 27G 1G 3G 2G 4G 5G 6G 7G 8G10G22G23G21
                                G 9G29G28G20G14G15G24G32G17G12G13G16
                                G19G27G11
  22357022.037   117487007.101       -1202.681          49.000  
  22357018.383   117487019.374       -1202.655          49.000  
  22357023.322   117486990.395       -1202.575          49.000  
  22357021.887   117486954.332       -1202.615          49.000  
  22357029.236   117487023.979       -1202.679          43.000  
  22357028.928   117487002.822       -1202.710          46.000  
  22357027.998   117486947.522       -1202.647          46.000  
  22357028.347   117487010.357       -1202.544          49.000  
  22460191.451   118029120.814       -1202.593          38.000  
  22491441.984   118193324.874       -1202.719          39.000  
  22449051.263   117970579.372       -1202.608          40.000  
  22492126.737   118196927.919       -1202.672          40.000  
  22259157.762                       -1202.360          37.000  
  22428533.502   117862763.395       -1202.643          41.000  
  22169475.596   116501381.510       -1202.747          32.000  
  22300772.641   117191360.366       -1202.654          41.000  
  22529931.251   118395615.808       -1202.740          33.000  
  22428533.969   117862779.476       -1202.653          34.000  
  22500041.201   118238518.862       -1202.632          40.000  
  22545189.669   118475756.808       -1202.765          35.000  
  22404802.673   117738031.391       -1202.687          40.000  
  22214024.310   116735501.377       -1202.789          38.000  
  22412129.063   117776529.431       -1202.707          35.000  
  22343551.057   117416165.415       -1202.539          39.000  
  22353516.943   117468525.808       -1202.640          39.000  
  22406856.288   117748830.909       -1202.729          36.000  
  22273517.169   117048120.3962      -1202.585          40.000  
 25  8 16 11 37 43.8020000  0 27G 1G 3G 2G 4G 5G 6G 7G 8G10G22G23G21
                                G 9G29G28G20G14G15G24G32G17G12G13G16
                                G19G27G11
  22357067.837   117487247.622       -1202.645          49.000  
  22357064.163   117487259.896       -1202.633          49.000  
  22357069.081   117487230.917       -1202.666          49.000  
  22357067.616   117487194.859       -1202.686          49.000  
  22357075.009   117487264.504       -1202.738          43.000  
  22357074.725   117487243.339       -1202.674          46.000  
  22357073.785   117487188.039       -1202.637          46.000  
  22357074.128   117487250.886       -1202.684          49.000  
  22460237.174   118029361.345       -1202.738          38.000  
  22491487.784   118193565.394       -1202.746          39.000  
  22449097.041   117970819.896       -1202.766          40.000  
  22492172.511   118197168.440       -1202.783          40.000  
  22259203.424                       -1202.360          37.000  
  22428579.245   117863003.919       -1202.714          41.000  
  22169521.299   116501622.026       -1202.659          32.000  
  22300818.293   117191600.888       -1202.653          41.000  
  22529977.026   118395856.328       -1202.850          34.000  
  22428579.693   117863019.995       -1202.778          34.000  
  22500086.956   118238759.386       -1202.756          40.000  
  22545235.510   118475997.331       -1202.723          35.000  
  22404848.316   117738271.913       -1202.778          40.000  
  22214070.084   116735741.896       -1202.911          38.000  
  22412174.850   117776769.949       -1202.734          35.000  
  22343596.790   117416405.942       -1202.684          39.000  
  22353562.701   117468766.330       -1202.705          39.000  
  22406902.062   117749071.422       -1202.656          36.000  
  22273562.858   117048360.9232      -1202.730          40.000  
 25  8 16 11 37 44.0020000  0 27G 1G 3G 2G 4G 5G 6G 7G 8G10G22G23G21
                                G 9G29G28G20G14G15G24G32G17G12G13G16
                                G19G27G11
  22357113.577   117487488.152       -1202.731          49.000  
  22357109.934   117487500.414       -1202.621          49.000  
  22357114.831   117487471.439       -1202.651          49.000  
  22357113.362   117487435.383       -1202.591          49.000  
  22357120.777   117487505.041       -1202.695          43.000  
  22357120.487   117487483.857       -1202.746          46.000  
  22357119.466   117487428.551       -1202.664          46.000  
  22357119.868   117487491.409       -1202.626          49.000  
  22460282.909   118029601.868       -1202.678          38.000  
  22491533.542   118193805.915       -1202.680          39.000  
  22449142.830   117971060.416       -1202.660          40.000  
  22492218.274   118197408.963       -1202.703          40.000  
  22259249.016                       -1202.360          37.000  
  22428624.977   117863244.443       -1202.671          41.000  
  22169566.988   116501862.556       -1202.754          32.000  
  22300863.994   117191841.412       -1202.705          41.000  
  22530022.720   118396096.844       -1202.594          34.000  
  22428625.382   117863260.523       -1202.755          34.000  
  22500132.771   118238999.912       -1202.695          40.000  
  22545281.249   118476237.846       -1202.595          35.000  
  22404894.042   117738512.433       -1202.665          41.000  
  22214115.847   116735982.414       -1202.633          38.000  
  22412220.638   117777010.475       -1202.666          35.000  
  22343642.522   117416646.466       -1202.751          39.000  
  22353608.524   117469006.849       -1202.687          39.000  
  22406947.809   117749311.950       -1202.585          36.000  
  22273608.675   117048601.4482      -1202.718          40.000  
 25  8 16 11 37 44.2020000  0 27G 1G 3G 2G 4G 5G 6G 7G 8G10G22G23G21
                                G 9G29G28G20G14G15G24G32G17G12G13G16
                                G19G27G11
  22357159.360   117487728.676       -1202.719          49.000  
  22357155.715   117487740.939       -1202.686          49.000  
  22357160.566   117487711.968       -1202.688          49.000  
  22357159.098   117487675.910       -1202.684          49.000  
  22357166.531   117487745.557       -1202.646          43.000  
  22357166.253   117487724.384       -1202.770          46.000  
  22357165.251   117487669.090       -1202.850          46.000  
  22357165.656   117487731.938       -1202.695          49.000  
  22460328.636   118029842.395       -1202.790          38.000  
  22491579.334   118194046.439       -1202.693          39.000  
  22449188.609   117971300.944       -1202.750          40.000  
  22492264.048   118197649.490       -1202.794          40.000  
  22259295.006                       -1202.360          37.000  
  22428670.720   117863484.971       -1202.749          41.000  
  22169612.709   116502103.077       -1202.831          32.000  
  22300909.694   117192081.937       -1202.731          41.000  
  22530068.485   118396337.376       -1202.596          34.000  
  22428671.091   117863501.042       -1202.753          34.000  
  22500178.552   118239240.438       -1202.748          40.000  
  22545327.051   118476478.376       -1202.669          35.000  
  22404939.682   117738752.963       -1202.743          41.000  
  22214161.616   116736222.942       -1202.729          38.000  
  22412266.436   117777250.995       -1202.667          35.000  
  22343688.299   117416886.988       -1202.724          39.000  
  22353654.257   117469247.379       -1202.695          39.000  
  22406993.512   117749552.475       -1202.771          36.000  
  22273654.217   117048841.9702      -1202.712          40.000  
 25  8 16 11 37 44.4020000  0 27G 1G 3G 2G 4G 5G 6G 7G 8G10G22G23G21
                                G 9G29G28G20G14G15G24G32G17G12G13G16
                                G19G27G11
  22357205.114   117487969.193       -1202.563          49.000  
  22357201.491   117487981.459       -1202.649          49.000  
  22357206.336   117487952.487       -1202.623          49.000  
  22357204.841   117487916.422       -1202.547          49.000  
  22357212.247   117487986.082       -1202.521          44.000  
  22357212.036   117487964.911       -1202.546          46.000  
  22357211.000   117487909.605       -1202.630          46.000  
  22357211.430   117487972.448       -1202.595          49.000  
  22460374.401   118030082.912       -1202.505          38.000  
  22491625.072   118194286.964       -1202.529          39.000  
  22449234.368   117971541.449       -1202.552          40.000  
  22492309.799   118197890.003       -1202.515          40.000  
  22259341.194                       -1202.360          37.000  
  22428716.477   117863725.483       -1202.526          41.000  
  22169658.436   116502343.612       -1202.350          33.000  
  22300955.383   117192322.459       -1202.522          41.000  
  22530114.257   118396577.909       -1202.462          34.000  
  22428716.842   117863741.555       -1202.728          34.000  
  22500224.325   118239480.944       -1202.641          40.000  
  22545372.801   118476718.899       -1202.533          35.000  
  22404985.396   117738993.477       -1202.598          41.000  
  22214207.359   116736463.461       -1202.477          38.000  
  22412312.195   117777491.525       -1202.496          35.000  
  22343734.076   117417127.509       -1202.508          39.000  
  22353700.028   117469487.894       -1202.566          39.000  
  22407039.277   117749792.993       -1202.491          36.000  
  22273700.026   117049082.4842      -1202.500          40.000  
 25  8 16 11 37 44.6020000  0 27G 1G 3G 2G 4G 5G 6G 7G 8G10G22G23G21
                                G 9G29G28G20G14G15G24G32G17G12G13G16
                                G19G27G11
  22357250.867   117488209.730       -1202.626          49.000  
  22357247.281   117488222.002       -1202.690          49.000  
  22357252.082   117488193.032       -1202.690          49.000  
  22357250.597   117488156.959       -1202.639          49.000  
  22357258.118   117488226.625       -1202.822          44.000  
  22357257.837   117488205.451       -1202.714          46.000  
  22357256.763   117488150.153       -1202.610          46.000  
  22357257.220   117488212.987       -1202.724          49.000  
  22460420.225   118030323.455       -1202.809          38.000  
  22491670.858   118194527.509       -1202.814          39.000  
  22449280.136   117971781.997       -1202.728          40.000  
  22492355.544   118198130.549       -1202.741          40.000  
  22259386.508                       -1202.441          37.000  
  22428762.231   117863966.027       -1202.756          41.000  
  22169704.190   116502584.161       -1202.788          33.000  
  22301001.078   117192563.005       -1202.768          41.000  
  22530160.070   118396818.463       -1202.984          34.000  
  22428762.583   117863982.090       -1202.578          34.000  
  22500270.089   118239721.483       -1202.658          40.000  
  22545418.536   118476959.447       -1202.815          35.000  
  22405031.084   117739234.022       -1202.727          41.000  
  22214253.095   116736704.012       -1202.773          38.000  
  22412357.995   117777732.067       -1202.757          35.000  
  22343779.906   117417368.054       -1202.768          39.000  
  22353745.850   117469728.440       -1202.727          39.000  
  22407085.050   117750033.540       -1202.844          36.000  
  22273745.762   117049323.0292      -1202.716          40.000  
 25  8 16 11 37 44.8020000  0 27G 1G 3G 2G 4G 5G 6G 7G 8G10G22G23G21
                                G 9G29G28G20G14G15G24G32G17G12G13G16
                                G19G27G11
  22357296.630   117488450.256       -1202.506          49.000  
  22357293.051   117488462.525       -1202.555          49.000  
  22357297.848   117488433.554       -1202.566          49.000  
  22357296.322   117488397.487       -1202.526          49.000  
  22357303.839   117488467.137       -1202.496          44.000  
  22357303.627   117488445.975       -1202.601          46.000  
  22357302.572   117488390.677       -1202.589          46.000  
  22357302.988   117488453.513       -1202.582          49.000  
  22460465.960   118030563.978       -1202.598          38.000  
  22491716.655   118194768.032       -1202.604          39.000  
  22449325.892   117972022.519       -1202.546          40.000  
  22492401.337   118198371.074       -1202.590          40.000  
  22259432.489                       -1201.766          37.000  
  22428807.968   117864206.551       -1202.592          41.000  
  22169749.960   116502824.681       -1202.661          33.000  
  22301046.738   117192803.529       -1202.620          41.000  
  22530205.825   118397058.978       -1202.610          34.000  
  22428808.323   117864222.626       -1202.625          34.000  
  22500315.824   118239962.012       -1202.583          40.000  
  22545464.295   118477199.970       -1202.546          36.000  
  22405076.783   117739474.543       -1202.528          40.000  
  22214298.867   116736944.534       -1202.615          39.000  
  22412403.785   117777972.591       -1202.565          35.000  
  22343825.650   117417608.576       -1202.599          39.000  
  22353791.605   117469968.962       -1202.573          39.000  
  22407130.789   117750274.061       -1202.560          36.000  
  22273791.578   117049563.5522      -1202.572          40.000  
 25  8 16 11 37 45.0020000  0 27G 1G 3G 2G 4G 5G 6G 7G 8G10G22G23G21
                                G 9G29G28G20G14G15G24G32G17G12G13G16
                                G19G27G11
  22357342.412   117488690.762       -1202.587          49.000  
  22357338.844   117488703.026       -1202.546          49.000  
  22357343.632   117488674.055       -1202.549          49.000  
  22357342.049   117488637.987       -1202.471          49.000  
  22357349.614   117488707.643       -1202.525          44.000  
  22357349.409   117488686.478       -1202.511          46.000  
  22357348.355   117488631.164       -1202.642          46.000  
  22357348.761   117488694.014       -1202.509          49.000  
  22460511.689   118030804.481       -1202.607          38.000  
  22491762.448   118195008.532       -1202.563          39.000  
  22449371.669   117972263.020       -1202.599          40.000  
  22492447.065   118198611.576       -1202.614          40.000  
  22259478.127   116974347.5813      -1202.169          37.000  
  22428853.716   117864447.050       -1202.556          41.000  
  22169795.661   116503065.176       -1202.491          34.000  
  22301092.486   117193044.030       -1202.583          41.000  
  22530251.607   118397299.467       -1202.423          34.000  
  22428854.065   117864463.117       -1202.464          34.000  
  22500361.608   118240202.509       -1202.562          40.000  
  22545510.104   118477440.476       -1202.732          36.000  
  22405122.468   117739715.044       -1202.557          40.000  
  22214344.595   116737185.031       -1202.544          39.000  
  22412449.555   117778213.096       -1202.672          35.000  
  22343871.472   117417849.075       -1202.589          39.000  
  22353837.405   117470209.461       -1202.575          39.000  
  22407176.553   117750514.564       -1202.542          36.000  
  22273837.383   117049804.0532      -1202.562          40.000  
 25  8 16 11 37 45.2020000  0 27G 1G 3G 2G 4G 5G 6G 7G 8G10G22G23G21
                                G 9G29G28G20G14G15G24G32G17G12G13G16
                                G19G27G11
  22357388.154   117488931.275       -1202.583          49.000  
  22357384.625   117488943.547       -1202.620          49.000  
  22357389.380   117488914.581       -1202.731          49.000  
  22357387.809   117488878.509       -1202.625          49.000  
  22357395.377   117488948.166       -1202.709          44.000  
  22357395.177   117488927.000       -1202.712          46.000  
  22357394.067   117488871.687       -1202.620          46.000  
  22357394.522   117488934.534       -1202.555          49.000  
  22460557.455   118031045.008       -1202.803          38.000  
  22491808.221   118195249.049       -1202.619          39.000  
  22449417.424   117972503.551       -1202.781          40.000  
  22492492.846   118198852.095       -1202.640          40.000  
  22259523.838   116974588.0942      -1202.663          37.000  
  22428899.424   117864687.572       -1202.646          41.000  
  22169841.449   116503305.708       -1202.811          34.000  
  22301138.152   117193284.543       -1202.543          41.000  
  22530297.376   118397539.990       -1202.530          33.000  
  22428899.835   117864703.656       -1202.951          34.000  
  22500407.360   118240443.040       -1202.784          40.000  
  22545555.866   118477680.991       -1202.622          36.000  
  22405168.175   117739955.558       -1202.543          40.000  
  22214390.380   116737425.545       -1202.510          39.000  
  22412495.329   117778453.612       -1202.660          35.000  
  22343917.206   117418089.611       -1202.906          39.000  
  22353883.125   117470449.993       -1202.828          39.000  
  22407222.358   117750755.078       -1202.478          36.000  
  22273883.103   117050044.5792      -1202.721          40.000  
 25  8 16 11 37 45.4020000  0 27G 1G 3G 2G 4G 5G 6G 7G 8G10G22G23G21
                                G 9G29G28G20G14G15G24G32G17G12G13G16
                                G19G27G11
  22357433.928   117489171.772       -1202.606          49.000  
  22357430.394   117489184.043       -1202.533          49.000  
  22357435.138   117489155.078       -1202.594          49.000  
  22357433.565   117489119.007       -1202.580          49.000  
  22357441.176   117489188.655       -1202.623          43.000  
  22357440.990   117489167.491       -1202.580          46.000  
  22357439.853   117489112.178       -1202.556          46.000  
  22357440.285   117489175.034       -1202.605          49.000  
  22460603.173   118031285.497       -1202.531          39.000  
  22491853.960   118195489.537       -1202.527          39.000  
  22449463.249   117972744.041       -1202.556          40.000  
  22492538.557   118199092.592       -1202.618          40.000  
  22259569.712   116974828.5812      -1202.448          37.000  
  22428945.166   117864928.066       -1202.555          41.000  
  22169887.169   116503546.199       -1202.498          33.000  
  22301183.916   117193525.036       -1202.535          41.000  
  22530343.137   118397780.479       -1202.533          34.000  
  22428945.570   117864944.145       -1202.495          34.000  
  22500453.143   118240683.529       -1202.573          40.000  
  22545601.621   118477921.481       -1202.426          36.000  
  22405213.849   117740196.052       -1202.641          40.000  
  22214436.069   116737666.042       -1202.656          38.000  
  22412541.103   117778694.100       -1202.490          35.000  
  22343962.997   117418330.102       -1202.539          39.000  
  22353928.909   117470690.484       -1202.571          39.000  
  22407268.128   117750995.577       -1202.540          36.000  
  22273928.780   117050285.0682      -1202.544          40.000  
 25  8 16 11 37 45.6020000  0 27G 1G 3G 2G 4G 5G 6G 7G 8G10G22G23G21
                                G 9G29G28G20G14G15G24G32G17G12G13G16
                                G19G27G11
  22357479.667   117489412.276       -1202.530          49.000  
  22357476.184   117489424.550       -1202.595          49.000  
  22357480.903   117489395.578       -1202.552          49.000  
  22357479.314   117489359.512       -1202.611          49.000  
  22357486.914   117489429.154       -1202.469          43.000  
  22357486.737   117489407.999       -1202.485          46.000  
  22357485.607   117489352.689       -1202.562          46.000  
  22357486.069   117489415.536       -1202.618          49.000  
  22460648.915   118031526.003       -1202.482          39.000  
  22491899.729   118195730.043       -1202.491          39.000  
  22449509.005   117972984.546       -1202.511          40.000  
  22492584.317   118199333.090       -1202.433          40.000  
  22259615.372   116975069.0842      -1202.396          36.000  
  22428990.888   117865168.565       -1202.441          41.000  
  22169932.875   116503786.702       -1202.423          33.000  
  22301229.588   117193765.538       -1202.467          41.000  
  22530388.887   118398020.982       -1202.570          34.000  
  22428991.275   117865184.651       -1202.531          34.000  
  22500498.875   118240924.033       -1202.506          40.000  
  22545647.394   118478161.985       -1202.466          36.000  
  22405259.516   117740436.550       -1202.426          41.000  
  22214481.809   116737906.541       -1202.634          38.000  
  22412586.908   117778934.604       -1202.463          35.000  
  22344008.717   117418570.605       -1202.473          40.000  
  22353974.649   117470930.980       -1202.382          39.000  
  22407313.866   117751236.079       -1202.540          36.000  
  22273974.512   117050525.5732      -1202.424          40.000  
 25  8 16 11 37 45.8020000  0 27G 1G 3G 2G 4G 5G 6G 7G 8G10G22G23G21
                                G 9G29G28G20G14G15G24G32G17G12G13G16
                                G19G27G11
  22357525.419   117489652.780       -1202.387          49.000  
  22357521.942   117489665.051       -1202.459          49.000  
  22357526.663   117489636.087       -1202.397          49.000  
  22357525.040   117489600.016       -1202.418          49.000  
  22357532.633   117489669.664       -1202.427          43.000  
  22357532.540   117489648.511       -1202.371          46.000  
  22357531.379   117489593.194       -1202.360          46.000  
  22357531.837   117489656.043       -1202.465          49.000  
  22460694.622   118031766.512       -1202.408          39.000  
  22491945.519   118195970.550       -1202.346          39.000  
  22449554.779   117973225.051       -1202.358          40.000  
  22492630.041   118199573.600       -1202.352          40.000  
  22259661.033   116975309.5932      -1202.286          36.000  
  22429036.687   117865409.074       -1202.365          41.000  
  22169978.608   116504027.203       -1202.256          33.000  
  22301275.316   117194006.050       -1202.375          41.000  
  22530434.671   118398261.495       -1202.419          34.000  
  22429037.021   117865425.163       -1202.420          34.000  
  22500544.673   118241164.543       -1202.378          40.000  
  22545693.161   118478402.497       -1202.456          36.000  
  22405305.250   117740677.062       -1202.389          41.000  
  22214527.547   116738147.049       -1202.321          38.000  
  22412632.722   117779175.116       -1202.364          35.000  
  22344054.472   117418811.115       -1202.370          40.000  
  22354020.427   117471171.498       -1202.388          39.000  
  22407359.588   117751476.585       -1202.336          36.000  
  22274020.160   117050766.0792      -1202.365          40.000  
 25  8 16 11 37 46.0020000  0 27G 1G 3G 2G 4G 5G 6G 7G 8G10G22G23G21
                                G 9G29G28G20G14G15G24G32G17G12G13G16
                                G19G27G11
  22357571.177   117489893.274       -1202.509          49.000  
  22357567.718   117489905.546       -1202.468          49.000  
  22357572.437   117489876.581       -1202.522          49.000  
  22357570.805   117489840.511       -1202.543          49.000  
  22357578.403   117489910.168       -1202.672          43.000  
  22357578.342   117489888.999       -1202.491          46.000  
  22357577.154   117489833.699       -1202.602          46.000  
  22357577.634   117489896.538       -1202.456          49.000  
  22460740.366   118032007.007       -1202.494          39.000  
  22491991.283   118196211.047       -1202.539          39.000  
  22449600.577   117973465.549       -1202.526          40.000  
  22492675.785   118199814.095       -1202.494          40.000  
  22259706.678   116975550.0922      -1202.544          36.000  
  22429082.407   117865649.570       -1202.491          41.000  
  22170024.389   116504267.708       -1202.560          33.000  
  22301321.016   117194246.546       -1202.559          41.000  
  22530480.457   118398501.995       -1202.635          34.000  
  22429082.727   117865665.655       -1202.651          34.000  
  22500590.455   118241405.039       -1202.510          40.000  
  22545738.940   118478642.988       -1202.414          36.000  
  22405350.927   117740917.558       -1202.474          41.000  
  22214573.291   116738387.543       -1202.540          38.000  
  22412678.538   117779415.611       -1202.491          35.000  
  22344100.241   117419051.614       -1202.565          40.000  
  22354066.191   117471411.993       -1202.478          39.000  
  22407405.328   117751717.085       -1202.564          35.000  
  22274065.874   117051006.5762      -1202.486          40.000  
 25  8 16 11 37 46.2020000  0 27G 1G 3G 2G 4G 5G 6G 7G 8G10G22G23G21
                                G 9G29G28G20G14G15G24G32G17G12G13G16
                                G19G27G11
  22357616.925   117490133.755       -1202.348          49.000  
  22357613.479   117490146.025       -1202.360          49.000  
  22357618.184   117490117.055       -1202.384          49.000  
  22357616.526   117490080.989       -1202.341          49.000  
  22357624.200   117490150.643       -1202.434          44.000  
  22357624.122   117490129.472       -1202.415          46.000  
  22357622.877   117490074.163       -1202.360          46.000  
  22357623.396   117490137.015       -1202.344          49.000  
  22460786.118   118032247.478       -1202.378          39.000  
  22492037.035   118196451.529       -1202.320          39.000  
  22449646.311   117973706.020       -1202.433          40.000  
  22492721.523   118200054.574       -1202.309          40.000  
  22259752.312   116975790.5802      -1202.229          36.000  
  22429128.152   117865890.048       -1202.300          41.000  
  22170070.102   116504508.176       -1202.388          33.000  
  22301366.708   117194487.029       -1202.325          41.000  
  22530526.190   118398742.485       -1202.489          34.000  
  22429128.459   117865906.114       -1202.371          34.000  
  22500636.221   118241645.510       -1202.388          40.000  
  22545784.699   118478883.467       -1202.308          36.000  
  22405396.660   117741158.043       -1202.363          41.000  
  22214619.019   116738628.036       -1202.327          38.000  
  22412724.301   117779656.089       -1202.396          35.000  
  22344145.989   117419292.071       -1202.386          40.000  
  22354111.951   117471652.459       -1202.394          39.000  
  22407451.046   117751957.562       -1202.214          35.000  
  22274111.593   117051247.0522      -1202.363          40.000  
 25  8 16 11 37 46.4020000  0 27G 1G 3G 2G 4G 5G 6G 7G 8G10G22G23G21
                                G 9G29G28G20G14G15G24G32G17G12G13G16
                                G19G27G11
  22357662.650   117490374.240       -1202.358          49.000  
  22357659.250   117490386.506       -1202.305          49.000  
  22357663.941   117490357.536       -1202.304          49.000  
  22357662.266   117490321.467       -1202.313          49.000  
  22357669.905   117490391.118       -1202.340          44.000  
  22357669.885   117490369.959       -1202.488          46.000  
  22357668.662   117490314.652       -1202.420          46.000  
  22357669.147   117490377.496       -1202.346          49.000  
  22460831.848   118032487.960       -1202.330          39.000  
  22492082.789   118196692.018       -1202.441          39.000  
  22449692.120   117973946.503       -1202.404          40.000  
  22492767.264   118200295.064       -1202.505          40.000  
  22259797.944   116976031.0682      -1202.372          36.000  
  22429173.913   117866130.537       -1202.453          41.000  
  22170115.820   116504748.664       -1202.496          33.000  
  22301412.429   117194727.513       -1202.375          41.000  
  22530571.997   118398982.967       -1202.499          34.000  
  22429174.175   117866146.605       -1202.448          34.000  
  22500681.991   118241885.994       -1202.467          40.000  
  22545830.434   118479123.958       -1202.432          36.000  
  22405442.328   117741398.527       -1202.434          40.000  
  22214664.768   116738868.520       -1202.461          38.000  
  22412770.099   117779896.575       -1202.443          35.000  
  22344191.730   117419532.561       -1202.349          39.000  
  22354157.748   117471892.945       -1202.396          39.000  
  22407496.784   117752198.059       -1202.562          36.000  
  22274157.304   117051487.5402      -1202.459          40.000  
 25  8 16 11 37 46.6020000  0 27G 1G 3G 2G 4G 5G 6G 7G 8G10G22G23G21
                                G 9G29G28G20G14G15G24G32G17G12G13G16
                                G19G27G11
  22357708.430   117490614.717       -1202.594          49.000  
  22357705.027   117490626.984       -1202.595          49.000  
  22357709.738   117490598.014       -1202.622          49.000  
  22357708.063   117490561.947       -1202.606          49.000  
  22357715.750   117490631.598       -1202.691          44.000  
  22357715.652   117490610.434       -1202.551          46.000  
  22357714.465   117490555.123       -1202.696          46.000  
  22357714.950   117490617.976       -1202.592          49.000  
  22460877.577   118032728.439       -1202.732          39.000  
  22492128.583   118196932.487       -1202.612          39.000  
  22449737.824   117974186.976       -1202.613          40.000  
  22492813.033   118200535.533       -1202.672          40.000  
  22259843.561   116976271.5342      -1202.649          37.000  
  22429219.674   117866371.003       -1202.623          41.000  
  22170161.524   116504989.131       -1202.659          33.000  
  22301458.080   117194967.985       -1202.624          41.000  
  22530617.758   118399223.434       -1202.639          34.000  
  22429219.910   117866387.085       -1202.704          34.000  
  22500727.744   118242126.467       -1202.617          40.000  
  22545876.192   118479364.423       -1202.640          36.000  
  22405488.038   117741638.998       -1202.595          40.000  
  22214710.533   116739108.991       -1202.570          38.000  
  22412815.866   117780137.045       -1202.589          35.000  
  22344237.452   117419773.033       -1202.609          39.000  
  22354203.525   117472133.418       -1202.583          39.000  
  22407542.571   117752438.525       -1202.618          36.000  
  22274202.999   117051728.0102      -1202.682          40.000  
 25  8 16 11 37 46.8020000  0 27G 1G 3G 2G 4G 5G 6G 7G 8G10G22G23G21
                                G 9G29G28G20G14G15G24G32G17G12G13G16
                                G19G27G11
  22357754.147   117490855.201       -1202.404          49.000  
  22357750.803   117490867.469       -1202.465          49.000  
  22357755.469   117490838.494       -1202.355          49.000  
  22357753.759   117490802.430       -1202.366          49.000  
  22357761.364   117490872.079       -1202.253          44.000  
  22357761.435   117490850.917       -1202.385          46.000  
  22357760.188   117490795.608       -1202.379          46.000  
  22357760.706   117490858.458       -1202.385          49.000  
  22460923.301   118032968.920       -1202.379          39.000  
  22492174.343   118197172.973       -1202.380          39.000  
  22449783.600   117974427.457       -1202.302          40.000  
  22492858.760   118200776.013       -1202.303          40.000  
  22259889.184   116976512.0152      -1202.356          37.000  
  22429265.426   117866611.487       -1202.336          41.000  
  22170207.268   116505229.616       -1202.405          34.000  
  22301503.800   117195208.469       -1202.313          41.000  
  22530663.481   118399463.915       -1202.302          34.000  
  22429265.586   117866627.556       -1202.276          34.000  
  22500773.524   118242366.946       -1202.263          40.000  
  22545921.925   118479604.908       -1202.344          36.000  
  22405533.732   117741879.481       -1202.314          40.000  
  22214756.288   116739349.474       -1202.321          39.000  
  22412861.630   117780377.533       -1202.437          35.000  
  22344283.191   117420013.516       -1202.288          39.000  
  22354249.310   117472373.900       -1202.361          39.000  
  22407588.297   117752679.009       -1202.308          35.000  
  22274248.748   117051968.4922      -1202.347          40.000  
 25  8 16 11 37 47.0020000  0 27G 1G 3G 2G 4G 5G 6G 7G 8G10G22G23G21
                                G 9G29G28G20G14G15G24G32G17G12G13G16
                                G19G27G11
  22357799.876   117491095.702       -1202.589          49.000  
  22357796.572   117491107.964       -1202.525          49.000  
  22357801.232   117491079.001       -1202.609          49.000  
  22357799.509   117491042.935       -1202.628          49.000  
  22357807.089   117491112.583       -1202.659          44.000  
  22357807.193   117491091.415       -1202.557          46.000  
  22357806.011   117491036.115       -1202.605          46.000  
  22357806.478   117491098.958       -1202.563          49.000  
  22460969.034   118033209.416       -1202.582          39.000  
  22492220.129   118197413.467       -1202.458          39.000  
  22449829.345   117974667.967       -1202.604          40.000  
  22492904.485   118201016.521       -1202.551          40.000  
  22259934.789   116976752.5312      -1202.811          37.000  
  22429311.153   117866852.007       -1202.834          41.000  
  22170253.014   116505470.128       -1202.767          34.000  
  22301549.472   117195448.970       -1202.596          41.000  
  22530709.272   118399704.402       -1202.277          34.000  
  22429311.324   117866868.075       -1202.788          34.000  
  22500819.260   118242607.446       -1202.483          40.000  
  22545967.723   118479845.386       -1202.313          35.000  
  22405579.397   117742119.979       -1202.510          40.000  
  22214802.061   116739589.976       -1202.508          39.000  
  22412907.418   117780618.026       -1202.480          35.000  
  22344328.914   117420254.025       -1202.672          39.000  
  22354295.025   117472614.410       -1202.723          39.000  
  22407634.045   117752919.499       -1202.432          36.000  
  22274294.458   117052208.9922      -1202.523          40.000  
 25  8 16 11 37 47.2020000  0 27G 1G 3G 2G 4G 5G 6G 7G 8G10G22G23G21
                                G 9G29G28G20G14G15G24G32G17G12G13G16
                                G19G27G11
  22357845.616   117491336.185       -1202.516          49.000  
  22357842.355   117491348.454       -1202.553          49.000  
  22357846.994   117491319.483       -1202.505          49.000  
  22357845.243   117491283.417       -1202.531          49.000  
  22357852.948   117491353.069       -1202.594          44.000  
  22357852.979   117491331.902       -1202.620          46.000  
  22357851.775   117491276.595       -1202.573          46.000  
  22357852.255   117491339.444       -1202.523          49.000  
  22461014.821   118033449.899       -1202.537          39.000  
  22492265.894   118197653.954       -1202.600          39.000  
  22449875.131   117974908.448       -1202.504          40.000  
  22492950.237   118201257.005       -1202.588          40.000  
  22259980.395   116976993.0062      -1202.487          37.000  
  22429356.947   117867092.482       -1202.510          41.000  
  22170298.762   116505710.604       -1202.499          33.000  
  22301595.178   117195689.454       -1202.545          41.000  
  22530755.051   118399944.896       -1202.630          34.000  
  22429357.044   117867108.552       -1202.454          34.000  
  22500865.049   118242847.930       -1202.574          40.000  
  22546013.495   118480085.872       -1202.600          35.000  
  22405625.086   117742360.467       -1202.615          40.000  
  22214847.805   116739830.459       -1202.575          38.000  
  22412953.174   117780858.509       -1202.509          35.000  
  22344374.711   117420494.505       -1202.531          40.000  
  22354340.853   117472854.891       -1202.511          39.000  
  22407679.803   117753159.984       -1202.551          36.000  
  22274340.139   117052449.4752      -1202.510          40.000  
 25  8 16 11 37 47.4020000  0 27G 1G 3G 2G 4G 5G 6G 7G 8G10G22G23G21
                                G 9G29G28G20G14G15G24G32G17G12G13G16
                                G19G27G11
  22357891.415   117491576.667       -1202.631          49.000  
  22357888.146   117491588.937       -1202.604          49.000  
  22357892.777   117491559.972       -1202.683          49.000  
  22357890.992   117491523.902       -1202.635          49.000  
  22357898.729   117491593.547       -1202.717          44.000  
  22357898.733   117491572.385       -1202.638          46.000  
  22357897.547   117491517.081       -1202.623          46.000  
  22357898.034   117491579.930       -1202.628          49.000  
  22461060.543   118033690.381       -1202.604          39.000  
  22492311.697   118197894.434       -1202.623          39.000  
  22449920.875   117975148.933       -1202.586          40.000  
  22492995.982   118201497.487       -1202.636          40.000  
  22260026.057   116977233.4882      -1202.534          37.000  
  22429402.625   117867332.967       -1202.585          41.000  
  22170344.449   116505951.084       -1202.620          33.000  
  22301640.861   117195929.935       -1202.612          41.000  
  22530800.815   118400185.370       -1202.676          34.000  
  22429402.757   117867349.040       -1202.673          34.000  
  22500910.770   118243088.412       -1202.623          40.000  
  22546059.227   118480326.354       -1202.527          35.000  
  22405670.727   117742600.948       -1202.665          40.000  
  22214893.564   116740070.940       -1202.627          38.000  
  22412998.948   117781098.989       -1202.521          35.000  
  22344420.450   117420734.988       -1202.585          40.000  
  22354386.599   117473095.377       -1202.652          39.000  
  22407725.591   117753400.469       -1202.585          36.000  
  22274385.853   117052689.9602      -1202.652          40.000  
 25  8 16 11 37 47.6020000  0 27G 1G 3G 2G 4G 5G 6G 7G 8G10G22G23G21
                                G 9G29G28G20G14G15G24G32G17G12G13G16
                                G19G27G11
  22357937.165   117491817.151       -1202.573          49.000  
  22357933.922   117491829.421       -1202.546          49.000  
  22357938.535   117491800.454       -1202.512          49.000  
  22357936.749   117491764.386       -1202.524          49.000  
  22357944.467   117491834.016       -1202.323          44.000  
  22357944.464   117491812.860       -1202.332          46.000  
  22357943.241   117491757.563       -1202.521          46.000  
  22357943.765   117491820.412       -1202.518          49.000  
  22461106.274   118033930.862       -1202.407          39.000  
  22492357.500   118198134.916       -1202.424          39.000  
  22449966.635   117975389.416       -1202.415          40.000  
  22493041.743   118201737.971       -1202.479          40.000  
  22260071.668   116977473.9762      -1202.480          37.000  
  22429448.347   117867573.449       -1202.409          41.000  
  22170390.236   116506191.566       -1202.336          33.000  
  22301686.566   117196170.416       -1202.409          42.000  
  22530846.571   118400425.853       -1202.446          34.000  
  22429448.520   117867589.520       -1202.408          34.000  
  22500956.511   118243328.894       -1202.414          40.000  
  22546104.996   118480566.837       -1202.408          35.000  
  22405716.477   117742841.426       -1202.451          40.000  
  22214939.273   116740311.421       -1202.449          38.000  
  22413044.729   117781339.476       -1202.394          35.000  
  22344466.205   117420975.472       -1202.414          40.000  
  22354432.380   117473335.856       -1202.438          39.000  
  22407771.307   117753640.949       -1202.424          36.000  
  22274431.551   117052930.4412      -1202.428          40.000  
 25  8 16 11 37 47.8020000  0 27G 1G 3G 2G 4G 5G 6G 7G 8G10G22G23G21
                                G 9G29G28G20G14G15G24G32G17G12G13G16
                                G19G27G11
  22357982.892   117492057.646       -1202.550          49.000  
  22357979.684   117492069.919       -1202.579          49.000  
  22357984.248   117492040.947       -1202.490          49.000  
  22357982.490   117492004.879       -1202.502          49.000  
  22357990.161   117492074.518       -1202.385          44.000  
  22357990.209   117492053.367       -1202.543          46.000  
  22357988.950   117491998.050       -1202.443          46.000  
  22357989.498   117492060.908       -1202.534          49.000  
  22461152.047   118034171.363       -1202.478          39.000  
  22492403.265   118198375.416       -1202.539          39.000  
  22450012.384   117975629.916       -1202.494          40.000  
  22493087.504   118201978.466       -1202.461          40.000  
  22260117.339   116977714.4762      -1202.507          37.000  
  22429494.114   117867813.949       -1202.501          41.000  
  22170436.019   116506432.069       -1202.522          33.000  
  22301732.303   117196410.915       -1202.422          42.000  
  22530892.336   118400666.355       -1202.623          34.000  
  22429494.243   117867830.023       -1202.552          34.000  
  22501002.264   118243569.393       -1202.440          40.000  
  22546150.756   118480807.333       -1202.427          35.000  
  22405762.130   117743081.927       -1202.533          40.000  
  22214985.037   116740551.919       -1202.428          38.000  
  22413090.532   117781579.974       -1202.481          35.000  
  22344511.966   117421215.970       -1202.460          40.000  
  22354478.137   117473576.354       -1202.495          39.000  
  22407817.054   117753881.451       -1202.464          36.000  
  22274477.253   117053170.9432      -1202.546          40.000  
 25  8 16 11 37 48.0020000  0 27G 1G 3G 2G 4G 5G 6G 7G 8G10G22G23G21
                                G 9G29G28G20G14G15G24G32G17G12G13G16
                                G19G27G11
  22358028.664   117492298.144       -1202.494          49.000  
  22358025.459   117492310.416       -1202.540          49.000  
  22358030.009   117492281.446       -1202.546          49.000  
  22358028.237   117492245.378       -1202.566          49.000  
  22358035.919   117492315.028       -1202.519          44.000  
  22358035.950   117492293.865       -1202.526          46.000  
  22358034.657   117492238.552       -1202.457          46.000  
  22358035.267   117492301.405       -1202.525          49.000  
  22461197.810   118034411.871       -1202.573          39.000  
  22492449.026   118198615.919       -1202.461          39.000  
  22450058.133   117975870.408       -1202.534          40.000  
  22493133.281   118202218.962       -1202.474          40.000  
  22260162.999   116977954.9762      -1202.661          37.000  
  22429539.805   117868054.436       -1202.524          41.000  
  22170481.710   116506672.564       -1202.493          33.000  
  22301777.980   117196651.420       -1202.557          41.000  
  22530938.128   118400906.865       -1202.277          34.000  
  22429539.985   117868070.510       -1202.558          34.000  
  22501048.027   118243809.901       -1202.533          40.000  
  22546196.504   118481047.854       -1202.390          35.000  
  22405807.799   117743322.427       -1202.452          40.000  
  22215030.791   116740792.423       -1202.436          38.000  
  22413136.298   117781820.475       -1202.408          35.000  
  22344557.685   117421456.467       -1202.506          40.000  
  22354523.874   117473816.850       -1202.542          39.000  
  22407862.809   117754121.957       -1202.500          36.000  
  22274522.974   117053411.4412      -1202.540          40.000  
 25  8 16 11 37 48.2020000  0 27G 1G 3G 2G 4G 5G 6G 7G 8G10G22G23G21
                                G 9G29G28G20G14G15G24G32G17G12G13G16
                                G19G27G11
  22358074.405   117492538.652       -1202.529          49.000  
  22358071.232   117492550.923       -1202.516          49.000  
  22358075.749   117492521.955       -1202.588          49.000  
  22358073.971   117492485.886       -1202.574          49.000  
  22358081.756   117492555.535       -1202.581          44.000  
  22358081.725   117492534.369       -1202.405          46.000  
  22358080.464   117492479.068       -1202.604          46.000  
  22358081.051   117492541.911       -1202.550          49.000  
  22461243.568   118034652.378       -1202.637          39.000  
  22492494.830   118198856.427       -1202.509          39.000  
  22450103.910   117976110.920       -1202.593          40.000  
  22493179.027   118202459.475       -1202.579          40.000  
  22260208.607   116978195.4822      -1202.615          37.000  
  22429585.538   117868294.944       -1202.517          41.000  
  22170527.404   116506913.073       -1202.521          33.000  
  22301823.722   117196891.925       -1202.555          41.000  
  22530983.921   118401147.377       -1202.551          33.000  
  22429585.725   117868311.016       -1202.433          34.000  
  22501093.774   118244050.406       -1202.547          40.000  
  22546242.275   118481288.364       -1202.544          35.000  
  22405853.488   117743562.938       -1202.573          40.000  
  22215076.529   116741032.929       -1202.537          38.000  
  22413182.060   117782060.984       -1202.457          35.000  
  22344603.475   117421696.975       -1202.555          40.000  
  22354569.663   117474057.358       -1202.529          39.000  
  22407908.543   117754362.460       -1202.423          36.000  
  22274568.700   117053651.9522      -1202.533          40.000  
 25  8 16 11 37 48.4020000  0 27G 1G 3G 2G 4G 5G 6G 7G 8G10G22G23G21
                                G 9G29G28G20G14G15G24G32G17G12G13G16
                                G19G27G11
  22358120.105   117492779.156       -1202.471          49.000  
  22358116.985   117492791.426       -1202.498          49.000  
  22358121.477   117492762.452       -1202.465          49.000  
  22358119.699   117492726.387       -1202.477          49.000  
  22358127.475   117492796.032       -1202.491          44.000  
  22358127.506   117492774.878       -1202.446          46.000  
  22358126.170   117492719.562       -1202.478          46.000  
  22358126.809   117492782.413       -1202.465          49.000  
  22461289.312   118034892.874       -1202.519          39.000  
  22492540.601   118199096.931       -1202.476          39.000  
  22450149.635   117976351.421       -1202.509          40.000  
  22493224.796   118202699.972       -1202.484          40.000  
  22260254.227   116978435.9792      -1202.505          37.000  
  22429631.302   117868535.449       -1202.502          41.000  
  22170573.143   116507153.574       -1202.451          33.000  
  22301869.368   117197132.426       -1202.458          41.000  
  22531029.702   118401387.878       -1202.491          33.000  
  22429631.507   117868551.522       -1202.464          34.000  
  22501139.505   118244290.912       -1202.522          40.000  
  22546288.021   118481528.866       -1202.534          35.000  
  22405899.195   117743803.440       -1202.510          40.000  
  22215122.310   116741273.437       -1202.488          38.000  
  22413227.843   117782301.494       -1202.515          35.000  
  22344649.225   117421937.479       -1202.501          40.000  
  22354615.364   117474297.861       -1202.489          39.000  
  22407954.300   117754602.973       -1202.597          36.000  
  22274614.441   117053892.4552      -1202.510          40.000  
 25  8 16 11 37 48.6020000  0 27G 1G 3G 2G 4G 5G 6G 7G 8G10G22G23G21
                                G 9G29G28G20G14G15G24G32G17G12G13G16
                                G19G27G11
  22358165.846   117493019.659       -1202.470          49.000  
  22358162.739   117493031.927       -1202.464          49.000  
  22358167.221   117493002.958       -1202.502          49.000  
  22358165.460   117492966.889       -1202.458          49.000  
  22358173.305   117493036.537       -1202.482          44.000  
  22358173.285   117493015.377       -1202.463          46.000  
  22358171.873   117492960.069       -1202.509          46.000  
  22358172.550   117493022.916       -1202.457          49.000  
  22461335.067   118035133.382       -1202.546          39.000  
  22492586.369   118199337.434       -1202.509          39.000  
  22450195.401   117976591.925       -1202.549          40.000  
  22493270.556   118202940.479       -1202.495          40.000  
  22260299.840   116978676.4882      -1202.565          37.000  
  22429677.053   117868775.954       -1202.568          42.000  
  22170618.884   116507394.074       -1202.354          34.000  
  22301915.133   117197372.934       -1202.540          41.000  
  22531075.478   118401628.385       -1202.552          33.000  
  22429677.269   117868792.017       -1202.297          34.000  
  22501185.301   118244531.412       -1202.442          40.000  
  22546333.737   118481769.370       -1202.474          35.000  
  22405944.908   117744043.942       -1202.481          40.000  
  22215168.045   116741513.936       -1202.470          39.000  
  22413273.654   117782541.994       -1202.501          35.000  
  22344695.013   117422177.983       -1202.562          39.000  
  22354661.145   117474538.365       -1202.500          39.000  
  22408000.064   117754843.470       -1202.590          36.000  
  22274660.162   117054132.9562      -1202.502          40.000  
 25  8 16 11 37 48.8020000  0 27G 1G 3G 2G 4G 5G 6G 7G 8G10G22G23G21
                                G 9G29G28G20G14G15G24G32G17G12G13G16
                                G19G27G11
  22358211.628   117493260.178       -1202.712          49.000  
  22358208.518   117493272.442       -1202.637          49.000  
  22358212.979   117493243.473       -1202.624          49.000  
  22358211.226   117493207.407       -1202.663          49.000  
  22358219.043   117493277.051       -1202.649          44.000  
  22358219.035   117493255.898       -1202.726          46.000  
  22358217.656   117493200.586       -1202.687          46.000  
  22358218.344   117493263.434       -1202.690          49.000  
  22461380.808   118035373.914       -1202.928          39.000  
  22492632.161   118199577.941       -1202.560          39.000  
  22450241.151   117976832.443       -1202.727          40.000  
  22493316.329   118203180.994       -1202.680          40.000  
  22260345.454   116978917.0002      -1202.524          37.000  
  22429722.788   117869016.483       -1202.928          41.000  
  22170664.664   116507634.596       -1202.668          34.000  
  22301960.816   117197613.449       -1202.723          41.000  
  22531121.249   118401868.889       -1202.615          33.000  
  22429723.048   117869032.560       -1203.118          34.000  
  22501231.004   118244771.927       -1202.696          40.000  
  22546379.509   118482009.879       -1202.665          35.000  
  22405990.606   117744284.455       -1202.677          40.000  
  22215213.801   116741754.432       -1202.339          38.000  
  22413319.419   117782782.524       -1202.977          35.000  
  22344740.747   117422418.495       -1202.670          39.000  
  22354706.861   117474778.872       -1202.573          39.000  
  22408045.832   117755083.959       -1202.323          36.000  
  22274705.872   117054373.4852      -1202.878          40.000  
 25  8 16 11 37 49.0020000  0 27G 1G 3G 2G 4G 5G 6G 7G 8G10G22G23G21
                                G 9G29G28G20G14G15G24G32G17G12G13G16
                                G19G27G11
  22358257.398   117493500.683       -1202.572          49.000  
  22358254.301   117493512.955       -1202.630          49.000  
  22358258.728   117493483.985       -1202.604          49.000  
  22358256.988   117493447.921       -1202.657          49.000  
  22358264.812   117493517.562       -1202.602          44.000  
  22358264.802   117493496.408       -1202.630          46.000  
  22358263.423   117493441.093       -1202.627          46.000  
  22358264.115   117493503.945       -1202.626          49.000  
  22461426.610   118035614.415       -1202.528          39.000  
  22492677.925   118199818.454       -1202.668          40.000  
  22450286.911   117977072.953       -1202.598          40.000  
  22493362.097   118203421.506       -1202.629          40.000  
  22260391.090   116979157.5142      -1202.701          37.000  
  22429768.541   117869256.990       -1202.587          41.000  
  22170710.421   116507875.109       -1202.557          34.000  
  22302006.533   117197853.958       -1202.605          41.000  
  22531167.013   118402109.407       -1202.679          33.000  
  22429768.785   117869273.063       -1202.659          34.000  
  22501276.798   118245012.440       -1202.643          40.000  
  22546425.292   118482250.396       -1202.655          36.000  
  22406036.359   117744524.968       -1202.637          40.000  
  22215259.546   116741994.952       -1202.660          38.000  
  22413365.226   117783023.029       -1202.528          35.000  
  22344786.523   117422659.004       -1202.612          39.000  
  22354752.664   117475019.391       -1202.641          39.000  
  22408091.590   117755324.484       -1202.756          36.000  
  22274751.531   117054613.9912      -1202.580          40.000  
 25  8 16 11 37 49.2020000  0 27G 1G 3G 2G 4G 5G 6G 7G 8G10G22G23G21
                                G 9G29G28G20G14G15G24G32G17G12G13G16
                                G19G27G11
  22358303.123   117493741.193       -1202.566          49.000  
  22358300.068   117493753.459       -1202.561          49.000  
  22358304.490   117493724.489       -1202.567          49.000  
  22358302.718   117493688.426       -1202.571          49.000  
  22358310.550   117493758.058       -1202.488          44.000  
  22358310.548   117493736.910       -1202.536          46.000  
  22358309.210   117493681.606       -1202.637          46.000  
  22358309.869   117493744.450       -1202.553          49.000  
  22461472.429   118035854.927       -1202.566          39.000  
  22492723.686   118200058.957       -1202.594          40.000  
  22450332.681   117977313.461       -1202.586          40.000  
  22493407.843   118203662.013       -1202.585          40.000  
  22260436.731   116979398.0202      -1202.604          37.000  
  22429814.256   117869497.497       -1202.573          41.000  
  22170756.220   116508115.618       -1202.703          34.000  
  22302052.241   117198094.467       -1202.639          41.000  
  22531212.795   118402349.916       -1202.715          33.000  
  22429814.504   117869513.564       -1202.569          34.000  
  22501322.544   118245252.943       -1202.580          40.000  
  22546471.066   118482490.901       -1202.598          36.000  
  22406082.037   117744765.473       -1202.574          40.000  
  22215305.305   116742235.454       -1202.702          38.000  
  22413411.027   117783263.537       -1202.541          35.000  
  22344832.310   117422899.510       -1202.562          39.000  
  22354798.407   117475259.892       -1202.613          39.000  
  22408137.365   117755564.977       -1202.605          35.000  
  22274797.230   117054854.4962      -1202.535          40.000  
 25  8 16 11 37 49.4020000  0 27G 1G 3G 2G 4G 5G 6G 7G 8G10G22G23G21
                                G 9G29G28G20G14G15G24G32G17G12G13G16
                                G19G27G11
  22358348.857   117493981.674       -1202.389          49.000  
  22358345.835   117493993.946       -1202.486          49.000  
  22358350.227   117493964.973       -1202.476          49.000  
  22358348.488   117493928.910       -1202.501          49.000  
  22358356.290   117493998.545       -1202.367          44.000  
  22358356.320   117493977.390       -1202.337          46.000  
  22358354.946   117493922.081       -1202.385          46.000  
  22358355.635   117493984.932       -1202.427          49.000  
  22461518.200   118036095.407       -1202.349          39.000  
  22492769.464   118200299.437       -1202.323          40.000  
  22450378.415   117977553.938       -1202.305          40.000  
  22493453.569   118203902.490       -1202.363          40.000  
  22260482.386   116979638.495       -1202.310          37.000  
  22429860.015   117869737.978       -1202.391          41.000  
  22170801.980   116508356.092       -1202.263          34.000  
  22302097.929   117198334.943       -1202.324          41.000  
  22531258.567   118402590.391       -1202.380          33.000  
  22429860.225   117869754.037       -1202.281          34.000  
  22501368.290   118245493.418       -1202.278          40.000  
  22546516.829   118482731.381       -1202.447          36.000  
  22406127.754   117745005.950       -1202.391          40.000  
  22215351.049   116742475.932       -1202.318          38.000  
  22413456.774   117783504.021       -1202.406          35.000  
  22344878.110   117423139.987       -1202.314          39.000  
  22354844.180   117475500.374       -1202.436          39.000  
  22408183.123   117755805.451       -1202.215          35.000  
  22274842.936   117055094.975       -1202.323          40.000  
 25  8 16 11 37 49.6020000  0 27G 1G 3G 2G 4G 5G 6G 7G 8G10G22G23G21
                                G 9G29G28G20G14G15G24G32G17G12G13G16
                                G19G27G11
  22358394.565   117494222.143       -1202.288          49.000  
  22358391.600   117494234.411       -1202.321          49.000  
  22358395.960   117494205.437       -1202.270          49.000  
  22358394.208   117494169.376       -1202.313          49.000  
  22358402.030   117494239.013       -1202.317          44.000  
  22358402.100   117494217.866       -1202.368          46.000  
  22358400.692   117494162.553       -1202.246          45.000  
  22358401.388   117494225.402       -1202.340          49.000  
  22461563.916   118036335.876       -1202.295          39.000  
  22492815.210   118200539.910       -1202.319          40.000  
  22450424.163   117977794.414       -1202.318          40.000  
  22493499.359   118204142.963       -1202.319          40.000  
  22260528.006   116979878.960       -1202.164          37.000  
  22429905.751   117869978.449       -1202.340          41.000  
  22170847.712   116508596.562       -1202.222          33.000  
  22302143.670   117198575.414       -1202.254          41.000  
  22531304.344   118402830.865       -1202.240          33.000  
  22429905.914   117869994.520       -1202.351          34.000  
  22501414.045   118245733.893       -1202.280          40.000  
  22546562.604   118482971.848       -1202.281          36.000  
  22406173.430   117745246.423       -1202.246          41.000  
  22215396.783   116742716.407       -1202.338          38.000  
  22413502.559   117783744.488       -1202.311          35.000  
  22344923.884   117423380.463       -1202.298          39.000  
  22354889.928   117475740.841       -1202.220          39.000  
  22408228.878   117756045.926       -1202.160          35.000  
  22274888.613   117055335.448       -1202.304          40.000  
 25  8 16 11 37 49.8020000  0 27G 1G 3G 2G 4G 5G 6G 7G 8G10G22G23G21
                                G 9G29G28G20G14G15G24G32G17G12G13G16
                                G19G27G11
  22358440.358   117494462.644       -1202.557          49.000  
  22358437.373   117494474.915       -1202.595          49.000  
  22358441.726   117494445.940       -1202.518          49.000  
  22358439.955   117494409.877       -1202.557          49.000  
  22358447.851   117494479.525       -1202.457          44.000  
  22358447.860   117494458.364       -1202.677          46.000  
  22358446.472   117494403.057       -1202.628          46.000  
  22358447.171   117494465.902       -1202.557          49.000  
  22461609.659   118036576.370       -1202.642          39.000  
  22492860.966   118200780.421       -1202.617          40.000  
  22450469.906   117978034.914       -1202.653          40.000  
  22493545.100   118204383.464       -1202.579          40.000  
  22260573.649   116980119.472       -1202.424          37.000  
  22429951.514   117870218.938       -1202.701          41.000  
  22170893.434   116508837.064       -1202.542          33.000  
  22302189.334   117198815.919       -1202.627          41.000  
  22531350.138   118403071.370       -1202.579          33.000  
  22429951.682   117870235.008       -1202.571          34.000  
  22501459.791   118245974.400       -1202.618          40.000  
  22546608.384   118483212.364       -1202.745          36.000  
  22406219.149   117745486.933       -1202.637          40.000  
  22215442.546   116742956.927       -1202.618          38.000  
  22413548.301   117783984.975       -1202.531          35.000  
  22344969.611   117423620.970       -1202.644          39.000  
  22354935.708   117475981.353       -1202.638          39.000  
  22408274.646   117756286.451       -1202.444          35.000  
  22274934.332   117055575.943       -1202.645          40.000  
 25  8 16 11 37 50.0020000  0 27G 1G 3G 2G 4G 5G 6G 7G 8G10G22G23G21
                                G 9G29G28G20G14G15G24G32G17G12G13G16
                                G19G27G11
  22358486.110   117494703.136       -1202.434          49.000  
  22358483.149   117494715.407       -1202.482          49.000  
  22358487.487   117494686.438       -1202.479          49.000  
  22358485.656   117494650.371       -1202.461          49.000  
  22358493.653   117494720.021       -1202.544          44.000  
  22358493.641   117494698.855       -1202.409          46.000  
  22358492.238   117494643.547       -1202.437          46.000  
  22358492.917   117494706.396       -1202.441          49.000  
  22461655.431   118036816.861       -1202.422          39.000  
  22492906.739   118201020.913       -1202.513          40.000  
  22450515.687   117978275.407       -1202.492          40.000  
  22493590.861   118204623.958       -1202.459          40.000  
  22260619.316   116980359.966       -1202.548          37.000  
  22429997.219   117870459.430       -1202.448          41.000  
  22170939.218   116509077.560       -1202.538          34.000  
  22302235.071   117199056.409       -1202.437          41.000  
  22531395.922   118403311.866       -1202.508          33.000  
  22429997.448   117870475.506       -1202.541          34.000  
  22501505.534   118246214.893       -1202.493          40.000  
  22546654.141   118483452.851       -1202.558          36.000  
  22406264.864   117745727.426       -1202.560          40.000  
  22215488.262   116743197.418       -1202.514          38.000  
  22413594.073   117784225.469       -1202.321          35.000  
  22345015.385   117423861.457       -1202.464          39.000  
  22354981.498   117476221.845       -1202.488          39.000  
  22408320.391   117756526.942       -1202.499          35.000  
  22274980.049   117055816.434       -1202.441          40.000  
 25  8 16 11 37 50.2020000  0 27G 1G 3G 2G 4G 5G 6G 7G 8G10G22G23G21
                                G 9G29G28G20G14G15G24G32G17G12G13G16
                                G19G27G11
  22358531.874   117494943.635       -1202.520          49.000  
  22358528.922   117494955.901       -1202.482          49.000  
  22358533.222   117494926.933       -1202.541          49.000  
  22358531.406   117494890.865       -1202.502          49.000  
  22358539.337   117494960.508       -1202.457          44.000  
  22358539.411   117494939.350       -1202.467          46.000  
  22358537.996   117494884.043       -1202.473          46.000  
  22358538.716   117494946.895       -1202.546          49.000  
  22461701.199   118037057.357       -1202.494          39.000  
  22492952.543   118201261.404       -1202.488          40.000  
  22450561.395   117978515.901       -1202.547          40.000  
  22493636.585   118204864.453       -1202.506          40.000  
  22260664.971   116980600.459       -1202.502          37.000  
  22430042.966   117870699.926       -1202.512          41.000  
  22170984.990   116509318.051       -1202.568          34.000  
  22302280.755   117199296.906       -1202.507          41.000  
  22531441.696   118403552.366       -1202.614          34.000  
  22430043.173   117870716.001       -1202.481          34.000  
  22501551.281   118246455.385       -1202.513          40.000  
  22546699.907   118483693.342       -1202.473          36.000  
  22406310.577   117745967.917       -1202.443          40.000  
  22215534.013   116743437.912       -1202.489          38.000  
  22413639.858   117784465.966       -1202.349          35.000  
  22345061.129   117424101.951       -1202.435          39.000  
  22355027.277   117476462.337       -1202.468          39.000  
  22408366.151   117756767.439       -1202.453          36.000  
  22275025.726   117056056.927       -1202.481          40.000  
 25  8 16 11 37 50.4020000  0 27G 1G 3G 2G 4G 5G 6G 7G 8G10G22G23G21
                                G 9G29G28G20G14G15G24G32G17G12G13G16
                                G19G27G11
  22358577.653   117495184.111       -1202.310          49.000  
  22358574.678   117495196.378       -1202.259          49.000  
  22358578.945   117495167.407       -1202.264          49.000  
  22358577.123   117495131.340       -1202.239          49.000  
  22358585.067   117495200.985       -1202.191          44.000  
  22358585.172   117495179.828       -1202.281          46.000  
  22358583.763   117495124.522       -1202.280          46.000  
  22358584.453   117495187.367       -1202.279          49.000  
  22461746.951   118037297.834       -1202.188          39.000  
  22492998.296   118201501.880       -1202.226          40.000  
  22450607.183   117978756.374       -1202.212          40.000  
  22493682.313   118205104.925       -1202.186          40.000  
  22260710.622   116980840.943       -1202.292          37.000  
  22430088.719   117870940.398       -1202.151          41.000  
  22171030.724   116509558.526       -1202.228          34.000  
  22302326.489   117199537.382       -1202.282          41.000  
  22531487.481   118403792.829       -1202.104          34.000  
  22430088.952   117870956.478       -1202.449          34.000  
  22501597.033   118246695.861       -1202.284          40.000  
  22546745.660   118483933.816       -1202.109          36.000  
  22406356.271   117746208.395       -1202.285          40.000  
  22215579.723   116743678.382       -1202.182          38.000  
  22413685.646   117784706.443       -1202.229          35.000  
  22345106.884   117424342.430       -1202.234          39.000  
  22355073.054   117476702.812       -1202.223          39.000  
  22408411.903   117757007.917       -1202.251          36.000  
  22275071.390   117056297.403       -1202.265          40.000  
 25  8 16 11 37 50.6020000  0 27G 1G 3G 2G 4G 5G 6G 7G 8G10G22G23G21
                                G 9G29G28G20G14G15G24G32G17G12G13G16
                                G19G27G11
  22358623.366   117495424.571       -1202.210          49.000  
  22358620.435   117495436.838       -1202.211          49.000  
  22358624.669   117495407.872       -1202.275          49.000  
  22358622.841   117495371.805       -1202.308          49.000  
  22358630.823   117495441.456       -1202.424          44.000  
  22358630.921   117495420.291       -1202.275          46.000  
  22358629.536   117495364.982       -1202.275          46.000  
  22358630.216   117495427.832       -1202.290          49.000  
  22461792.722   118037538.311       -1202.609          39.000  
  22493044.070   118201742.342       -1202.197          39.000  
  22450652.880   117978996.837       -1202.248          40.000  
  22493728.034   118205345.388       -1202.202          40.000  
  22260756.308   116981081.395       -1202.221          37.000  
  22430134.462   117871180.872       -1202.379          41.000  
  22171076.495   116509798.997       -1202.430          34.000  
  22302372.192   117199777.839       -1202.178          41.000  
  22531533.260   118404033.277       -1201.891          33.000  
  22430134.683   117871196.929       -1202.091          34.000  
  22501642.752   118246936.323       -1202.242          40.000  
  22546791.407   118484174.281       -1202.257          35.000  
  22406401.939   117746448.847       -1202.073          40.000  
  22215625.476   116743918.843       -1202.090          38.000  
  22413731.409   117784946.904       -1202.206          35.000  
  22345152.604   117424582.896       -1202.301          39.000  
  22355118.804   117476943.279       -1202.300          39.000  
  22408457.664   117757248.359       -1201.911          36.000  
  22275117.078   117056537.856       -1202.100          40.000  
 25  8 16 11 37 50.8020000  0 27G 1G 3G 2G 4G 5G 6G 7G 8G10G22G23G21
                                G 9G29G28G20G14G15G24G32G17G12G13G16
                                G19G27G11
  22358669.139   117495665.020       -1202.184          49.000  
  22358666.205   117495677.291       -1202.224          49.000  
  22358670.415   117495648.322       -1202.212          49.000  
  22358668.581   117495612.256       -1202.219          49.000  
  22358676.562   117495681.904       -1202.259          44.000  
  22358676.707   117495660.740       -1202.124          46.000  
  22358675.240   117495605.433       -1202.195          46.000  
  22358675.976   117495668.283       -1202.250          49.000  
  22461838.454   118037778.749       -1202.088          39.000  
  22493089.798   118201982.786       -1202.086          39.000  
  22450698.647   117979237.287       -1202.159          40.000  
  22493773.791   118205585.839       -1202.184          40.000  
  22260801.945   116981321.842       -1202.146          37.000  
  22430180.244   117871421.317       -1202.098          41.000  
  22171122.176   116510039.432       -1201.982          33.000  
  22302417.914   117200018.288       -1202.130          41.000  
  22531578.995   118404273.727       -1202.284          33.000  
  22430180.442   117871437.383       -1202.235          34.000  
  22501688.491   118247176.775       -1202.193          40.000  
  22546837.202   118484414.732       -1202.267          35.000  
  22406447.678   117746689.303       -1202.260          40.000  
  22215671.176   116744159.295       -1202.290          38.000  
  22413777.215   117785187.353       -1202.095          35.000  
  22345198.376   117424823.344       -1202.169          39.000  
  22355164.545   117477183.725       -1202.163          39.000  
  22408503.398   117757488.812       -1202.240          36.000  
  22275162.754   117056778.311       -1202.169          40.000  
 25  8 16 11 37 51.0020000  0 27G 1G 3G 2G 4G 5G 6G 7G 8G10G22G23G21
                                G 9G29G28G20G14G15G24G32G17G12G13G16
                                G19G27G11
  22358714.892   117495905.464       -1202.411          49.000  
  22358711.983   117495917.734       -1202.411          49.000  
  22358716.186   117495888.764       -1202.399          49.000  
  22358714.348   117495852.699       -1202.397          49.000  
  22358722.397   117495922.349       -1202.396          44.000  
  22358722.442   117495901.182       -1202.331          46.000  
  22358721.009   117495845.874       -1202.353          46.000  
  22358721.762   117495908.726       -1202.383          49.000  
  22461884.218   118038019.202       -1202.463          38.000  
  22493135.589   118202223.231       -1202.303          39.000  
  22450744.411   117979477.724       -1202.352          40.000  
  22493819.520   118205826.278       -1202.336          40.000  
  22260847.590   116981562.288       -1202.475          37.000  
  22430225.976   117871661.762       -1202.370          41.000  
  22171167.933   116510279.882       -1202.366          33.000  
  22302463.622   117200258.732       -1202.404          41.000  
  22531624.755   118404514.161       -1202.371          33.000  
  22430226.148   117871677.821       -1202.292          34.000  
  22501734.227   118247417.212       -1202.383          40.000  
  22546882.928   118484655.174       -1202.375          35.000  
  22406493.352   117746929.739       -1202.314          40.000  
  22215716.931   116744399.729       -1202.401          39.000  
  22413822.981   117785427.795       -1202.371          35.000  
  22345244.138   117425063.788       -1202.417          39.000  
  22355210.283   117477424.166       -1202.336          39.000  
  22408549.162   117757729.257       -1202.433          36.000  
  22275208.429   117057018.750       -1202.324          40.000  
 25  8 16 11 37 51.2020000  0 27G 1G 3G 2G 4G 5G 6G 7G 8G10G22G23G21
                                G 9G29G28G20G14G15G24G32G17G12G13G16
                                G19G27G11
  22358760.599   117496145.924       -1202.314          49.000  
  22358757.742   117496158.193       -1202.343          49.000  
  22358761.922   117496129.224       -1202.315          49.000  
  22358760.083   117496093.158       -1202.297          49.000  
  22358768.204   117496162.812       -1202.512          44.000  
  22358768.224   117496141.639       -1202.225          46.000  
  22358766.732   117496086.339       -1202.365          46.000  
  22358767.495   117496149.185       -1202.315          49.000  
  22461929.994   118038259.660       -1202.355          38.000  
  22493181.419   118202463.692       -1202.223          39.000  
  22450790.154   117979718.190       -1202.287          40.000  
  22493865.279   118206066.740       -1202.264          40.000  
  22260893.235   116981802.740       -1202.209          37.000  
  22430271.722   117871902.222       -1202.314          41.000  
  22171213.692   116510520.339       -1202.206          33.000  
  22302509.353   117200499.190       -1202.290          41.000  
  22531670.492   118404754.623       -1202.247          33.000  
  22430271.897   117871918.292       -1202.408          34.000  
  22501779.993   118247657.673       -1202.217          40.000  
  22546928.689   118484895.635       -1202.321          35.000  
  22406539.040   117747170.203       -1202.301          41.000  
  22215762.673   116744640.190       -1202.220          39.000  
  22413868.742   117785668.258       -1202.279          35.000  
  22345289.884   117425304.246       -1202.344          40.000  
  22355256.045   117477664.627       -1202.290          39.000  
  22408594.901   117757969.713       -1202.324          36.000  
  22275254.148   117057259.216       -1202.347          40.000  
 25  8 16 11 37 51.4020000  0 27G 1G 3G 2G 4G 5G 6G 7G 8G10G22G23G21
                                G 9G29G28G20G14G15G24G32G17G12G13G16
                                G19G27G11
  22358806.369   117496386.381       -1202.455          49.000  
  22358803.519   117496398.648       -1202.402          49.000  
  22358807.672   117496369.681       -1202.422          49.000  
  22358805.827   117496333.613       -1202.389          49.000  
  22358814.022   117496403.265       -1202.562          44.000  
  22358813.966   117496382.104       -1202.518          46.000  
  22358812.552   117496326.789       -1202.443          46.000  
  22358813.275   117496389.641       -1202.413          49.000  
  22461975.777   118038500.111       -1202.419          38.000  
  22493227.180   118202704.150       -1202.381          39.000  
  22450835.927   117979958.645       -1202.505          40.000  
  22493911.047   118206307.199       -1202.478          40.000  
  22260938.889   116982043.197       -1202.271          37.000  
  22430317.486   117872142.679       -1202.449          41.000  
  22171259.502   116510760.804       -1202.556          33.000  
  22302555.083   117200739.648       -1202.441          41.000  
  22531716.205   118404995.081       -1202.578          33.000  
  22430317.615   117872158.742       -1202.487          34.000  
  22501825.769   118247898.133       -1202.505          40.000  
  22546974.449   118485136.084       -1202.362          35.000  
  22406584.740   117747410.661       -1202.513          41.000  
  22215808.413   116744880.652       -1202.572          39.000  
  22413914.527   117785908.716       -1202.546          35.000  
  22345335.644   117425544.701       -1202.416          40.000  
  22355301.839   117477905.086       -1202.451          39.000  
  22408640.626   117758210.174       -1202.486          36.000  
  22275299.847   117057499.669       -1202.431          40.000  
 25  8 16 11 37 51.6020000  0 27G 1G 3G 2G 4G 5G 6G 7G 8G10G22G23G21
                                G 9G29G28G20G14G15G24G32G17G12G13G16
                                G19G27G11
  22358852.105   117496626.847       -1202.397          49.000  
  22358849.275   117496639.114       -1202.351          49.000  
  22358853.438   117496610.147       -1202.402          49.000  
  22358851.550   117496574.079       -1202.378          49.000  
  22358859.734   117496643.725       -1202.356          44.000  
  22358859.769   117496622.565       -1202.467          46.000  
  22358858.272   117496567.255       -1202.392          46.000  
  22358859.046   117496630.103       -1202.379          49.000  
  22462021.533   118038740.569       -1202.390          38.000  
  22493272.915   118202944.620       -1202.369          39.000  
  22450881.646   117980199.115       -1202.434          40.000  
  22493956.805   118206547.665       -1202.416          40.000  
  22260984.550   116982283.676       -1202.306          37.000  
  22430363.241   117872383.140       -1202.446          41.000  
  22171305.259   116511001.264       -1202.487          33.000  
  22302600.759   117200980.120       -1202.402          41.000  
  22531761.944   118405235.577       -1202.222          33.000  
  22430363.355   117872399.218       -1202.443          34.000  
  22501871.499   118248138.605       -1202.500          40.000  
  22547020.202   118485376.562       -1202.334          35.000  
  22406630.443   117747651.134       -1202.393          40.000  
  22215854.175   116745121.127       -1202.471          39.000  
  22413960.296   117786149.186       -1202.532          35.000  
  22345381.355   117425785.164       -1202.439          39.000  
  22355347.576   117478145.551       -1202.405          39.000  
  22408686.379   117758450.657       -1202.350          36.000  
  22275345.555   117057740.141       -1202.374          40.000  
 25  8 16 11 37 51.8020000  0 27G 1G 3G 2G 4G 5G 6G 7G 8G10G22G23G21
                                G 9G29G28G20G14G15G24G32G17G12G13G16
                                G19G27G11
  22358897.887   117496867.317       -1202.416          49.000  
  22358895.055   117496879.585       -1202.418          49.000  
  22358899.207   117496850.615       -1202.417          49.000  
  22358897.287   117496814.550       -1202.410          49.000  
  22358905.526   117496884.193       -1202.404          44.000  
  22358905.534   117496863.032       -1202.418          46.000  
  22358904.039   117496807.724       -1202.358          46.000  
  22358904.821   117496870.575       -1202.410          49.000  
  22462067.318   118038981.040       -1202.424          39.000  
  22493318.689   118203185.091       -1202.438          39.000  
  22450927.418   117980439.583       -1202.466          40.000  
  22494002.542   118206788.133       -1202.470          40.000  
  22261030.249   116982524.144       -1202.446          37.000  
  22430409.006   117872623.610       -1202.445          41.000  
  22171350.963   116511241.731       -1202.412          33.000  
  22302646.508   117201220.590       -1202.468          41.000  
  22531807.713   118405476.047       -1202.699          33.000  
  22430409.086   117872639.685       -1202.461          34.000  
  22501917.257   118248379.067       -1202.411          40.000  
  22547065.951   118485617.030       -1202.435          35.000  
  22406676.175   117747891.602       -1202.484          40.000  
  22215899.930   116745361.592       -1202.417          39.000  
  22414006.050   117786389.648       -1202.351          35.000  
  22345427.124   117426025.635       -1202.437          39.000  
  22355393.363   117478386.021       -1202.397          39.000  
  22408732.109   117758691.129       -1202.482          36.000  
  22275391.265   117057980.611       -1202.436          40.000  
 25  8 16 11 37 52.0020000  0 27G 1G 3G 2G 4G 5G 6G 7G 8G10G22G23G21
                                G 9G29G28G20G14G15G24G32G17G12G13G16
                                G19G27G11
  22358943.611   117497107.753       -1202.108          49.000  
  22358940.822   117497120.023       -1202.094          49.000  
  22358944.940   117497091.052       -1202.080          49.000  
  22358943.037   117497054.988       -1202.094          49.000  
  22358951.130   117497124.635       -1202.115          44.000  
  22358951.263   117497103.469       -1202.066          46.000  
  22358949.776   117497048.163       -1202.093          46.000  
  22358950.555   117497111.015       -1202.134          49.000  
  22462113.079   118039221.480       -1202.165          39.000  
  22493364.469   118203425.530       -1202.119          39.000  
  22450973.129   117980680.018       -1202.034          40.000  
  22494048.302   118207028.568       -1202.060          40.000  
  22261075.962   116982764.582       -1202.079          37.000  
  22430454.702   117872864.046       -1202.093          41.000  
  22171396.714   116511482.174       -1202.255          33.000  
  22302692.207   117201461.026       -1202.088          41.000  
  22531853.425   118405716.478       -1201.991          33.000  
  22430454.829   117872880.122       -1202.080          34.000  
  22501963.001   118248619.510       -1202.113          40.000  
  22547111.746   118485857.471       -1202.203          36.000  
  22406721.855   117748132.038       -1202.087          40.000  
  22215945.658   116745602.030       -1202.033          39.000  
  22414051.780   117786630.091       -1202.144          35.000  
  22345472.837   117426266.072       -1202.080          39.000  
  22355439.118   117478626.462       -1202.140          39.000  
  22408777.836   117758931.572       -1202.218          36.000  
  22275436.940   117058221.047       -1202.095          40.000  
 25  8 16 11 37 52.2020000  0 27G 1G 3G 2G 4G 5G 6G 7G 8G10G22G23G21
                                G 9G29G28G20G14G15G24G32G17G12G13G16
                                G19G27G11
  22358989.379   117497348.220       -1202.367          49.000  
  22358986.605   117497360.491       -1202.394          49.000  
  22358990.730   117497331.519       -1202.375          49.000  
  22358988.817   117497295.453       -1202.383          49.000  
  22358996.947   117497365.103       -1202.397          44.000  
  22358997.074   117497343.940       -1202.397          46.000  
  22358995.506   117497288.633       -1202.425          46.000  
  22358996.364   117497351.481       -1202.395          49.000  
  22462158.846   118039461.944       -1202.312          39.000  
  22493410.238   118203666.000       -1202.483          39.000  
  22451018.921   117980920.489       -1202.419          40.000  
  22494094.097   118207269.039       -1202.430          40.000  
  22261121.599   116983005.051       -1202.309          37.000  
  22430500.478   117873104.515       -1202.379          42.000  
  22171442.494   116511722.638       -1202.383          34.000  
  22302737.914   117201701.497       -1202.384          41.000  
  22531899.202   118405956.947       -1202.324          33.000  
  22430500.568   117873120.591       -1202.445          34.000  
  22502008.791   118248859.975       -1202.425          40.000  
  22547157.468   118486097.930       -1202.314          36.000  
  22406767.602   117748372.510       -1202.417          40.000  
  22215991.408   116745842.497       -1202.398          39.000  
  22414097.545   117786870.558       -1202.399          35.000  
  22345518.626   117426506.542       -1202.404          39.000  
  22355484.925   117478866.928       -1202.378          39.000  
  22408823.625   117759172.037       -1202.451          36.000  
  22275482.683   117058461.517       -1202.373          40.000  
 25  8 16 11 37 52.4020000  0 27G 1G 3G 2G 4G 5G 6G 7G 8G10G22G23G21
                                G 9G29G28G20G14G15G24G32G17G12G13G16
                                G19G27G11
  22359035.096   117497588.665       -1202.238          49.000  
  22359032.363   117497600.930       -1202.181          49.000  
  22359036.456   117497571.970       -1202.329          49.000  
  22359034.548   117497535.902       -1202.308          49.000  
  22359042.606   117497605.544       -1202.178          44.000  
  22359042.795   117497584.384       -1202.318          46.000  
  22359041.253   117497529.088       -1202.466          46.000  
  22359042.113   117497591.925       -1202.271          49.000  
  22462204.634   118039702.391       -1202.242          39.000  
  22493455.988   118203906.424       -1201.988          39.000  
  22451064.665   117981160.943       -1202.473          40.000  
  22494139.832   118207509.467       -1201.973          40.000  
  22261167.264   116983245.492       -1202.122          37.000  
  22430546.213   117873344.966       -1202.354          41.000  
  22171488.216   116511963.100       -1202.511          34.000  
  22302783.627   117201941.947       -1202.402          41.000  
  22531944.966   118406197.342       -1201.414          33.000  
  22430546.314   117873361.042       -1202.486          34.000  
  22502054.503   118249100.404       -1202.026          40.000  
  22547203.159   118486338.348       -1201.756          36.000  
  22406813.262   117748612.963       -1202.472          40.000  
  22216037.157   116746082.926       -1202.059          39.000  
  22414143.272   117787110.957       -1201.552          35.000  
  22345564.336   117426746.964       -1201.895          39.000  
  22355530.655   117479107.379       -1202.361          39.000  
  22408869.323   117759412.472       -1202.213          36.000  
  22275528.409   117058701.951       -1202.108          40.000  
 25  8 16 11 37 52.6020000  0 27G 1G 3G 2G 4G 5G 6G 7G 8G10G22G23G21
                                G 9G29G28G20G14G15G24G32G17G12G13G16
                                G19G27G11
  22359080.850   117497829.134       -1202.256          49.000  
  22359078.133   117497841.398       -1202.240          49.000  
  22359082.209   117497812.434       -1202.240          49.000  
  22359080.287   117497776.366       -1202.227          49.000  
  22359088.442   117497846.019       -1202.320          44.000  
  22359088.575   117497824.857       -1202.334          46.000  
  22359087.009   117497769.559       -1202.301          46.000  
  22359087.874   117497832.389       -1202.227          49.000  
  22462250.375   118039942.860       -1202.336          38.000  
  22493501.759   118204146.906       -1202.363          39.000  
  22451110.439   117981401.416       -1202.303          40.000  
  22494185.570   118207749.944       -1202.352          40.000  
  22261213.008   116983485.966       -1202.519          37.000  
  22430591.940   117873585.438       -1202.321          41.000  
  22171533.953   116512203.566       -1202.255          34.000  
  22302829.343   117202182.418       -1202.249          41.000  
  22531990.660   118406437.834       -1202.568          33.000  
  22430592.042   117873601.509       -1202.276          34.000  
  22502100.278   118249340.880       -1202.331          40.000  
  22547248.909   118486578.832       -1202.485          35.000  
  22406859.011   117748853.433       -1202.316          40.000  
  22216082.899   116746323.405       -1202.271          39.000  
  22414189.073   117787351.446       -1202.377          35.000  
  22345610.126   117426987.446       -1202.468          39.000  
  22355576.443   117479347.847       -1202.322          39.000  
  22408915.089   117759652.947       -1202.375          36.000  
  22275574.127   117058942.428       -1202.372          40.000  
 25  8 16 11 37 52.8020000  0 27G 1G 3G 2G 4G 5G 6G 7G 8G10G22G23G21
                                G 9G29G28G20G14G15G24G32G17G12G13G16
                                G19G27G11
  22359126.583   117498069.590       -1202.267          49.000  
  22359123.903   117498081.856       -1202.252          49.000  
  22359127.968   117498052.891       -1202.254          49.000  
  22359126.061   117498016.825       -1202.267          49.000  
  22359134.221   117498086.471       -1202.253          44.000  
  22359134.359   117498065.309       -1202.333          46.000  
  22359132.819   117498010.012       -1202.272          45.000  
  22359133.669   117498072.847       -1202.256          49.000  
  22462296.103   118040183.310       -1202.314          38.000  
  22493547.508   118204387.356       -1202.319          39.000  
  22451156.215   117981641.869       -1202.245          40.000  
  22494231.257   118207990.401       -1202.363          40.000  
  22261258.693   116983726.414       -1202.275          37.000  
  22430637.659   117873825.892       -1202.312          41.000  
  22171579.706   116512444.025       -1202.360          34.000  
  22302875.061   117202422.877       -1202.324          41.000  
  22532036.340   118406678.270       -1202.314          33.000  
  22430637.754   117873841.954       -1202.194          34.000  
  22502146.028   118249581.330       -1202.254          40.000  
  22547294.709   118486819.279       -1202.334          35.000  
  22406904.708   117749093.887       -1202.294          40.000  
  22216128.629   116746563.855       -1202.246          39.000  
  22414234.862   117787591.891       -1202.314          34.000  
  22345655.912   117427227.892       -1202.344          39.000  
  22355622.169   117479588.299       -1202.246          39.000  
  22408960.849   117759893.392       -1202.222          36.000  
  22275619.841   117059182.879       -1202.314          40.000  
 25  8 16 11 37 53.0020000  0 27G 1G 3G 2G 4G 5G 6G 7G 8G10G22G23G21
                                G 9G29G28G20G14G15G24G32G17G12G13G16
                                G19G27G11
  22359172.318   117498310.060       -1202.230          49.000  
  22359169.657   117498322.325       -1202.233          49.000  
  22359173.746   117498293.361       -1202.244          49.000  
  22359171.823   117498257.293       -1202.212          49.000  
  22359180.003   117498326.943       -1202.321          44.000  
  22359180.104   117498305.783       -1202.288          46.000  
  22359178.610   117498250.485       -1202.343          45.000  
  22359179.423   117498313.316       -1202.231          49.000  
  22462341.875   118040423.780       -1202.309          38.000  
  22493593.261   118204627.824       -1202.239          39.000  
  22451201.968   117981882.342       -1202.254          40.000  
  22494277.030   118208230.871       -1202.290          40.000  
  22261304.347   116983966.888       -1202.322          37.000  
  22430683.401   117874066.363       -1202.288          42.000  
  22171625.442   116512684.500       -1202.332          34.000  
  22302920.741   117202663.349       -1202.301          41.000  
  22532082.001   118406918.747       -1202.181          33.000  
  22430683.497   117874082.430       -1202.281          34.000  
  22502191.805   118249821.807       -1202.301          40.000  
  22547340.434   118487059.750       -1202.376          35.000  
  22406950.440   117749334.361       -1202.333          40.000  
  22216174.367   116746804.329       -1202.253          39.000  
  22414280.632   117787832.364       -1202.296          34.000  
  22345701.606   117427468.363       -1202.276          40.000  
  22355667.936   117479828.771       -1202.294          39.000  
  22409006.593   117760133.868       -1202.286          36.000  
  22275665.587   117059423.351       -1202.262          40.000  
 25  8 16 11 37 53.2020000  0 27G 1G 3G 2G 4G 5G 6G 7G 8G10G22G23G21
                                G 9G29G28G20G14G15G24G32G17G12G13G16
                                G19G27G11
  22359218.073   117498550.478       -1201.976          49.000  
  22359215.419   117498562.743       -1201.996          49.000  
  22359219.472   117498533.779       -1201.975          49.000  
  22359217.545   117498497.712       -1201.969          49.000  
  22359225.790   117498567.359       -1202.081          44.000  
  22359225.829   117498546.199       -1202.069          46.000  
  22359224.385   117498490.901       -1202.062          45.000  
  22359225.164   117498553.734       -1201.983          49.000  
  22462387.604   118040664.194       -1202.049          38.000  
  22493639.021   118204868.244       -1202.067          39.000  
  22451247.743   117982122.759       -1202.102          40.000  
  22494322.761   118208471.290       -1202.036          40.000  
  22261349.994   116984207.299       -1202.039          36.000  
  22430729.131   117874306.778       -1202.029          42.000  
  22171671.211   116512924.917       -1202.148          34.000  
  22302966.477   117202903.765       -1202.075          41.000  
  22532127.726   118407159.167       -1202.099          33.000  
  22430729.236   117874322.846       -1202.048          34.000  
  22502237.532   118250062.224       -1202.062          40.000  
  22547386.187   118487300.158       -1202.006          35.000  
  22406996.165   117749574.776       -1202.068          40.000  
  22216220.064   116747044.744       -1202.090          39.000  
  22414326.410   117788072.784       -1202.098          34.000  
  22345747.372   117427708.778       -1201.977          40.000  
  22355713.721   117480069.188       -1202.080          39.000  
  22409052.336   117760374.282       -1202.140          36.000  
  22275711.278   117059663.766       -1202.022          40.000  
 25  8 16 11 37 53.4020000  0 27G 1G 3G 2G 4G 5G 6G 7G 8G10G22G23G21
                                G 9G29G28G20G14G15G24G32G17G12G13G16
                                G19G27G11
  22359263.814   117498790.934       -1202.344          49.000  
  22359261.175   117498803.202       -1202.311          49.000  
  22359265.220   117498774.232       -1202.344          49.000  
  22359263.279   117498738.167       -1202.337          49.000  
  22359271.566   117498807.811       -1202.411          44.000  
  22359271.529   117498786.652       -1202.383          46.000  
  22359270.157   117498731.344       -1202.394          45.000  
  22359270.904   117498794.190       -1202.332          49.000  
  22462433.350   118040904.656       -1202.367          38.000  
  22493684.809   118205108.710       -1202.329          39.000  
  22451293.506   117982363.199       -1202.442          40.000  
  22494368.524   118208711.751       -1202.343          40.000  
  22261395.680   116984447.764       -1202.398          37.000  
  22430774.885   117874547.227       -1202.412          42.000  
  22171716.981   116513165.352       -1202.494          34.000  
  22303012.143   117203144.206       -1202.459          41.000  
  22532173.473   118407399.669       -1202.280          33.000  
  22430775.003   117874563.306       -1202.427          34.000  
  22502283.306   118250302.689       -1202.374          40.000  
  22547431.942   118487540.649       -1202.193          35.000  
  22407041.880   117749815.221       -1202.442          40.000  
  22216265.815   116747285.215       -1202.396          39.000  
  22414372.167   117788313.279       -1202.308          34.000  
  22345793.102   117427949.259       -1202.335          40.000  
  22355759.459   117480309.638       -1202.418          39.000  
  22409098.087   117760614.744       -1202.357          36.000  
  22275756.998   117059904.232       -1202.343          40.000  
 25  8 16 11 37 53.6020000  0 27G 1G 3G 2G 4G 5G 6G 7G 8G10G22G23G21
                                G 9G29G28G20G14G15G24G32G17G12G13G16
                                G19G27G11
  22359309.539   117499031.352       -1202.044          49.000  
  22359306.926   117499043.624       -1202.064          49.000  
  22359310.967   117499014.653       -1202.077          49.000  
  22359309.021   117498978.587       -1202.038          49.000  
  22359317.249   117499048.228       -1201.985          44.000  
  22359317.288   117499027.065       -1201.979          46.000  
  22359315.871   117498971.757       -1201.967          46.000  
  22359316.644   117499034.610       -1202.017          49.000  
  22462479.101   118041145.069       -1202.000          38.000  
  22493730.542   118205349.124       -1201.993          39.000  
  22451339.247   117982603.616       -1201.974          40.000  
  22494414.231   118208952.168       -1202.032          40.000  
  22261441.358   116984688.177       -1202.076          37.000  
  22430820.623   117874787.642       -1201.932          42.000  
  22171762.635   116513405.763       -1201.892          34.000  
  22303057.831   117203384.622       -1201.952          41.000  
  22532219.241   118407640.079       -1202.155          33.000  
  22430820.690   117874803.720       -1202.012          34.000  
  22502329.049   118250543.100       -1201.975          40.000  
  22547477.678   118487781.067       -1202.188          36.000  
  22407087.616   117750055.637       -1201.988          40.000  
  22216311.548   116747525.627       -1202.018          39.000  
  22414417.892   117788553.688       -1202.112          34.000  
  22345838.909   117428189.670       -1202.059          39.000  
  22355805.214   117480550.053       -1201.979          39.000  
  22409143.781   117760855.161       -1201.997          36.000  
  22275802.680   117060144.648       -1202.038          40.000  
 25  8 16 11 37 53.8020000  0 27G 1G 3G 2G 4G 5G 6G 7G 8G10G22G23G21
                                G 9G29G28G20G14G15G24G32G17G12G13G16
                                G19G27G11
  22359355.277   117499271.803       -1202.405          49.000  
  22359352.689   117499284.072       -1202.405          49.000  
  22359356.714   117499255.100       -1202.378          49.000  
  22359354.750   117499219.034       -1202.380          49.000  
  22359362.988   117499288.679       -1202.349          44.000  
  22359363.045   117499267.523       -1202.440          46.000  
  22359361.612   117499212.211       -1202.430          46.000  
  22359362.414   117499275.061       -1202.413          49.000  
  22462524.805   118041385.521       -1202.318          38.000  
  22493776.317   118205589.577       -1202.382          40.000  
  22451385.002   117982844.070       -1202.477          40.000  
  22494459.993   118209192.620       -1202.447          40.000  
  22261487.058   116984928.630       -1202.495          37.000  
  22430866.344   117875028.099       -1202.512          42.000  
  22171808.436   116513646.229       -1202.534          34.000  
  22303103.547   117203625.075       -1202.390          41.000  
  22532264.979   118407880.528       -1202.474          33.000  
  22430866.455   117875044.173       -1202.490          34.000  
  22502374.775   118250783.557       -1202.446          40.000  
  22547523.439   118488021.513       -1202.477          36.000  
  22407133.316   117750296.089       -1202.409          40.000  
  22216357.324   116747766.081       -1202.463          39.000  
  22414463.662   117788794.142       -1202.516          35.000  
  22345884.630   117428430.126       -1202.416          39.000  
  22355850.957   117480790.507       -1202.463          39.000  
  22409189.529   117761095.615       -1202.436          36.000  
  22275848.379   117060385.097       -1202.378          40.000  
 25  8 16 11 37 54.0020000  0 27G 1G 3G 2G 4G 5G 6G 7G 8G10G22G23G21
                                G 9G29G28G20G14G15G24G32G17G12G13G16
                                G19G27G11
  22359400.987   117499512.243       -1202.065          49.000  
  22359398.440   117499524.511       -1202.074          49.000  
  22359402.444   117499495.539       -1202.041          49.000  
  22359400.458   117499459.477       -1202.072          49.000  
  22359408.732   117499529.123       -1202.085          44.000  
  22359408.782   117499507.961       -1202.044          46.000  
  22359407.269   117499452.649       -1202.066          46.000  
  22359408.139   117499515.502       -1202.078          49.000  
  22462570.554   118041625.968       -1202.115          39.000  
  22493822.080   118205830.019       -1202.071          39.000  
  22451430.772   117983084.506       -1202.021          40.000  
  22494505.735   118209433.060       -1202.062          40.000  
  22261532.742   116985169.073       -1202.176          37.000  
  22430912.070   117875268.537       -1202.098          42.000  
  22171854.194   116513886.660       -1202.002          34.000  
  22303149.269   117203865.518       -1202.111          41.000  
  22532310.757   118408120.967       -1202.092          33.000  
  22430912.203   117875284.611       -1202.051          34.000  
  22502420.561   118251023.996       -1202.085          40.000  
  22547569.173   118488261.957       -1202.119          36.000  
  22407179.045   117750536.530       -1202.059          40.000  
  22216403.048   116748006.514       -1201.942          39.000  
  22414509.414   117789034.577       -1202.008          35.000  
  22345930.434   117428670.565       -1202.072          39.000  
  22355896.720   117481030.948       -1202.073          39.000  
  22409235.274   117761336.057       -1202.143          36.000  
  22275894.076   117060625.542       -1202.095          40.000  
 25  8 16 11 37 54.2020000  0 27G 1G 3G 2G 4G 5G 6G 7G 8G10G22G23G21
                                G 9G29G28G20G14G15G24G32G17G12G13G16
                                G19G27G11
  22359446.746   117499752.667       -1202.043          49.000  
  22359444.204   117499764.931       -1201.966          49.000  
  22359448.222   117499735.968       -1202.083          49.000  
  22359446.192   117499699.904       -1202.089          49.000  
  22359454.516   117499769.554       -1202.274          44.000  
  22359454.569   117499748.402       -1202.312          46.000  
  22359453.063   117499693.092       -1202.367          46.000  
  22359453.895   117499755.924       -1202.012          49.000  
  22462616.304   118041866.394       -1202.241          39.000  
  22493867.846   118206070.435       -1202.001          39.000  
  22451476.533   117983324.952       -1202.386          40.000  
  22494551.503   118209673.486       -1202.115          40.000  
  22261578.436   116985409.497       -1202.181          37.000  
  22430957.826   117875508.972       -1202.291          42.000  
  22171899.934   116514127.102       -1202.358          34.000  
  22303194.976   117204105.962       -1202.486          41.000  
  22532356.497   118408361.348       -1201.484          33.000  
  22430957.990   117875525.047       -1202.296          34.000  
  22502466.297   118251264.419       -1202.096          40.000  
  22547614.939   118488502.351       -1201.623          36.000  
  22407224.776   117750776.971       -1202.369          40.000  
  22216448.812   116748246.936       -1201.958          39.000  
  22414555.190   117789274.978       -1201.608          35.000  
  22345976.131   117428910.981       -1201.971          39.000  
  22355942.436   117481271.382       -1202.235          39.000  
  22409281.034   117761576.478       -1202.169          36.000  
  22275939.806   117060865.964       -1202.068          40.000  
 25  8 16 11 37 54.4020000  0 27G 1G 3G 2G 4G 5G 6G 7G 8G10G22G23G21
                                G 9G29G28G20G14G15G24G32G17G12G13G16
                                G19G27G11
  22359492.486   117499993.092       -1202.127          49.000  
  22359489.981   117500005.358       -1202.142          49.000  
  22359493.949   117499976.392       -1202.087          49.000  
  22359491.916   117499940.327       -1202.129          49.000  
  22359500.248   117500009.975       -1202.080          44.000  
  22359500.325   117499988.815       -1202.189          46.000  
  22359498.834   117499933.508       -1202.096          45.000  
  22359499.652   117499996.349       -1202.121          49.000  
  22462662.004   118042106.814       -1202.186          38.000  
  22493913.585   118206310.856       -1202.204          39.000  
  22451522.290   117983565.366       -1202.037          40.000  
  22494597.217   118209913.909       -1202.177          40.000  
  22261624.135   116985649.912       -1202.137          36.000  
  22431003.579   117875749.388       -1202.096          42.000  
  22171945.748   116514367.514       -1201.969          34.000  
  22303240.673   117204346.375       -1202.091          41.000  
  22532402.207   118408601.783       -1202.216          33.000  
  22431003.716   117875765.468       -1202.013          34.000  
  22502512.047   118251504.840       -1202.186          40.000  
  22547660.685   118488742.781       -1202.173          36.000  
  22407270.542   117751017.390       -1202.074          40.000  
  22216494.557   116748487.358       -1202.117          39.000  
  22414600.942   117789515.413       -1202.326          34.000  
  22346021.844   117429151.402       -1202.177          39.000  
  22355988.225   117481511.798       -1202.116          39.000  
  22409326.775   117761816.897       -1202.143          35.000  
  22275985.472   117061106.388       -1202.186          40.000  
 25  8 16 11 37 54.6020000  0 27G 1G 3G 2G 4G 5G 6G 7G 8G10G22G23G21
                                G 9G29G28G20G14G15G24G32G17G12G13G16
                                G19G27G11
  22359538.233   117500233.530       -1202.208          49.000  
  22359535.746   117500245.799       -1202.281          49.000  
  22359539.724   117500216.832       -1202.236          49.000  
  22359537.676   117500180.766       -1202.262          49.000  
  22359546.066   117500250.411       -1202.274          44.000  
  22359546.083   117500229.249       -1202.197          46.000  
  22359544.651   117500173.950       -1202.261          45.000  
  22359545.425   117500236.791       -1202.293          49.000  
  22462707.778   118042347.257       -1202.353          38.000  
  22493959.317   118206551.292       -1202.248          39.000  
  22451568.047   117983805.807       -1202.140          40.000  
  22494642.958   118210154.346       -1202.259          40.000  
  22261669.800   116985890.353       -1202.274          36.000  
  22431049.296   117875989.832       -1202.253          42.000  
  22171991.505   116514607.967       -1202.325          34.000  
  22303286.399   117204586.815       -1202.195          41.000  
  22532447.859   118408842.212       -1202.184          33.000  
  22431049.417   117876005.906       -1202.157          34.000  
  22502557.793   118251745.275       -1202.163          40.000  
  22547706.457   118488983.223       -1202.324          36.000  
  22407316.219   117751257.824       -1202.148          40.000  
  22216540.306   116748727.792       -1202.130          39.000  
  22414646.708   117789755.844       -1202.247          34.000  
  22346067.595   117429391.835       -1202.208          39.000  
  22356033.973   117481752.235       -1202.197          39.000  
  22409372.498   117762057.332       -1202.162          35.000  
  22276031.203   117061346.823       -1202.196          40.000  
 25  8 16 11 37 54.8020000  0 27G 1G 3G 2G 4G 5G 6G 7G 8G10G22G23G21
                                G 9G29G28G20G14G15G24G32G17G12G13G16
                                G19G27G11
  22359583.976   117500473.975       -1202.036          49.000  
  22359581.504   117500486.242       -1202.089          49.000  
  22359585.474   117500457.276       -1202.056          49.000  
  22359583.427   117500421.211       -1202.069          49.000  
  22359591.750   117500490.848       -1201.889          44.000  
  22359591.837   117500469.696       -1202.066          46.000  
  22359590.415   117500414.396       -1201.979          45.000  
  22359591.188   117500477.234       -1202.082          49.000  
  22462753.521   118042587.700       -1202.008          38.000  
  22494005.068   118206791.735       -1201.891          39.000  
  22451613.759   117984046.251       -1201.988          40.000  
  22494688.727   118210394.787       -1201.932          40.000  
  22261715.498   116986130.795       -1201.863          36.000  
  22431095.008   117876230.276       -1201.985          42.000  
  22172037.254   116514848.407       -1201.908          34.000  
  22303332.077   117204827.258       -1201.947          41.000  
  22532493.562   118409082.662       -1202.073          33.000  
  22431095.189   117876246.356       -1202.056          33.000  
  22502603.544   118251985.722       -1201.931          40.000  
  22547752.209   118489223.671       -1202.053          36.000  
  22407361.954   117751498.271       -1201.999          40.000  
  22216586.063   116748968.241       -1201.992          39.000  
  22414692.497   117789996.286       -1202.002          34.000  
  22346113.322   117429632.283       -1202.004          40.000  
  22356079.724   117481992.680       -1202.015          39.000  
  22409418.260   117762297.782       -1202.024          35.000  
  22276076.881   117061587.269       -1201.992          40.000  
 25  8 16 11 37 55.0020000  0 27G 1G 3G 2G 4G 5G 6G 7G 8G10G22G23G21
                                G 9G29G28G20G14G15G24G32G17G12G13G16
                                G19G27G11
  22359629.762   117500714.421       -1202.316          49.000  
  22359627.266   117500726.687       -1202.296          49.000  
  22359631.241   117500697.721       -1202.303          49.000  
  22359629.190   117500661.656       -1202.316          49.000  
  22359637.582   117500731.299       -1202.412          44.000  
  22359637.612   117500710.144       -1202.371          46.000  
  22359636.195   117500654.845       -1202.403          45.000  
  22359636.977   117500717.678       -1202.296          49.000  
  22462799.254   118042828.149       -1202.379          38.000  
  22494050.870   118207032.189       -1202.434          39.000  
  22451659.530   117984286.701       -1202.386          40.000  
  22494734.474   118210635.236       -1202.353          40.000  
  22261761.204   116986371.243       -1202.326          36.000  
  22431140.757   117876470.725       -1202.385          42.000  
  22172083.063   116515088.861       -1202.440          33.000  
  22303377.817   117205067.708       -1202.374          41.000  
  22532539.253   118409323.104       -1202.329          33.000  
  22431140.950   117876486.797       -1202.370          33.000  
  22502649.320   118252226.171       -1202.412          40.000  
  22547797.929   118489464.116       -1202.410          36.000  
  22407407.668   117751738.713       -1202.305          40.000  
  22216631.762   116749208.686       -1202.380          39.000  
  22414738.303   117790236.739       -1202.369          34.000  
  22346159.053   117429872.730       -1202.396          40.000  
  22356125.465   117482233.121       -1202.250          39.000  
  22409464.010   117762538.225       -1202.375          35.000  
  22276122.586   117061827.715       -1202.360          40.000  
 25  8 16 11 37 55.2020000  0 27G 1G 3G 2G 4G 5G 6G 7G 8G10G22G23G21
                                G 9G29G28G20G14G15G24G32G17G12G13G16
                                G19G27G11
  22359675.447   117500954.840       -1202.050          49.000  
  22359673.017   117500967.111       -1202.089          49.000  
  22359676.976   117500938.140       -1202.070          49.000  
  22359674.917   117500902.075       -1202.098          49.000  
  22359683.171   117500971.712       -1202.014          44.000  
  22359683.338   117500950.555       -1202.080          46.000  
  22359681.914   117500895.245       -1201.993          45.000  
  22359682.759   117500958.102       -1202.081          49.000  
  22462844.965   118043068.558       -1202.097          38.000  
  22494096.629   118207272.607       -1202.057          39.000  
  22451705.246   117984527.104       -1202.063          40.000  
  22494780.229   118210875.656       -1201.956          40.000  
  22261806.912   116986611.671       -1201.938          36.000  
  22431186.473   117876711.145       -1201.990          42.000  
  22172128.825   116515329.262       -1202.095          33.000  
  22303423.483   117205308.107       -1202.092          41.000  
  22532585.001   118409563.532       -1201.898          33.000  
  22431186.704   117876727.206       -1202.191          33.000  
  22502695.026   118252466.587       -1202.072          40.000  
  22547843.665   118489704.531       -1201.979          36.000  
  22407453.356   117751979.120       -1202.072          40.000  
  22216677.518   116749449.114       -1202.128          39.000  
  22414784.011   117790477.173       -1202.037          34.000  
  22346204.747   117430113.164       -1201.916          40.000  
  22356171.196   117482473.547       -1202.061          39.000  
  22409509.732   117762778.644       -1202.017          35.000  
  22276168.247   117062068.134       -1201.977          40.000  
 25  8 16 11 37 55.4020000  0 27G 1G 3G 2G 4G 5G 6G 7G 8G10G22G23G21
                                G 9G29G28G20G14G15G24G32G17G12G13G16
                                G19G27G11
  22359721.180   117501195.241       -1201.987          49.000  
  22359718.778   117501207.511       -1202.032          49.000  
  22359722.704   117501178.540       -1201.978          49.000  
  22359720.629   117501142.477       -1202.030          49.000  
  22359728.970   117501212.120       -1201.995          44.000  
  22359729.094   117501190.957       -1201.931          46.000  
  22359727.630   117501135.652       -1201.924          45.000  
  22359728.517   117501198.504       -1202.003          49.000  
  22462890.666   118043308.962       -1201.948          38.000  
  22494142.389   118207513.010       -1202.016          39.000  
  22451751.005   117984767.507       -1201.951          40.000  
  22494825.956   118211116.062       -1202.030          40.000  
  22261852.587   116986852.077       -1202.071          36.000  
  22431232.200   117876951.547       -1201.976          42.000  
  22172174.538   116515569.666       -1201.875          33.000  
  22303469.213   117205548.510       -1201.932          41.000  
  22532630.756   118409803.934       -1201.953          33.000  
  22431232.424   117876967.597       -1201.791          33.000  
  22502740.783   118252706.986       -1201.971          40.000  
  22547889.457   118489944.935       -1201.975          36.000  
  22407499.099   117752219.521       -1201.919          40.000  
  22216723.233   116749689.512       -1202.004          39.000  
  22414829.757   117790717.569       -1201.986          34.000  
  22346250.521   117430353.568       -1202.040          40.000  
  22356216.945   117482713.946       -1201.943          39.000  
  22409555.445   117763019.050       -1202.080          36.000  
  22276213.965   117062308.541       -1202.082          40.000  
 25  8 16 11 37 55.6020000  0 27G 1G 3G 2G 4G 5G 6G 7G 8G10G22G23G21
                                G 9G29G28G20G14G15G24G32G17G12G13G16
                                G19G27G11
  22359766.901   117501435.647       -1202.040          49.000  
  22359764.529   117501447.918       -1202.086          49.000  
  22359768.446   117501418.948       -1202.060          49.000  
  22359766.354   117501382.882       -1202.047          49.000  
  22359774.709   117501452.526       -1202.171          44.000  
  22359774.800   117501431.370       -1202.202          46.000  
  22359773.412   117501376.058       -1202.000          45.000  
  22359774.273   117501438.909       -1202.058          49.000  
  22462936.371   118043549.371       -1202.185          38.000  
  22494188.145   118207753.423       -1202.214          39.000  
  22451796.719   117985007.916       -1202.111          40.000  
  22494871.706   118211356.469       -1202.097          40.000  
  22261898.249   116987092.478       -1202.162          36.000  
  22431277.896   117877191.956       -1202.133          42.000  
  22172220.230   116515810.077       -1202.129          33.000  
  22303514.919   117205788.922       -1202.163          41.000  
  22532676.485   118410044.347       -1202.098          33.000  
  22431278.179   117877208.027       -1202.137          33.000  
  22502786.530   118252947.399       -1202.174          40.000  
  22547935.204   118490185.343       -1202.175          36.000  
  22407544.794   117752459.934       -1202.155          40.000  
  22216769.015   116749929.927       -1202.179          38.000  
  22414875.517   117790957.980       -1202.151          34.000  
  22346296.244   117430593.975       -1202.165          40.000  
  22356262.650   117482954.357       -1202.131          39.000  
  22409601.184   117763259.455       -1202.233          36.000  
  22276259.679   117062548.945       -1202.098          40.000  
 25  8 16 11 37 55.8020000  0 27G 1G 3G 2G 4G 5G 6G 7G 8G10G22G23G21
                                G 9G29G28G20G14G15G24G32G17G12G13G16
                                G19G27G11
  22359812.676   117501676.065       -1202.162          49.000  
  22359810.287   117501688.338       -1202.208          49.000  
  22359814.202   117501659.368       -1202.189          49.000  
  22359812.090   117501623.304       -1202.208          49.000  
  22359820.462   117501692.939       -1202.110          44.000  
  22359820.545   117501671.788       -1202.273          46.000  
  22359819.121   117501616.473       -1201.991          45.000  
  22359820.026   117501679.327       -1202.215          49.000  
  22462982.136   118043789.784       -1202.064          39.000  
  22494233.920   118207993.836       -1202.181          39.000  
  22451842.493   117985248.332       -1202.196          40.000  
  22494917.455   118211596.888       -1202.206          40.000  
  22261943.959   116987332.893       -1201.985          37.000  
  22431323.639   117877432.371       -1202.143          42.000  
  22172265.995   116516050.494       -1202.185          33.000  
  22303560.649   117206029.334       -1202.119          41.000  
  22532722.221   118410284.762       -1202.087          33.000  
  22431323.938   117877448.438       -1202.320          33.000  
  22502832.302   118253187.815       -1202.192          40.000  
  22547980.950   118490425.755       -1202.081          35.000  
  22407590.595   117752700.351       -1202.215          40.000  
  22216814.718   116750170.342       -1202.313          38.000  
  22414921.283   117791198.394       -1202.150          34.000  
  22346342.006   117430834.392       -1202.189          40.000  
  22356308.412   117483194.776       -1202.187          39.000  
  22409646.920   117763499.869       -1202.145          36.000  
  22276305.359   117062789.361       -1202.177          40.000  
 25  8 16 11 37 56.0020000  0 27G 1G 3G 2G 4G 5G 6G 7G 8G10G22G23G21
                                G 9G29G28G20G14G15G24G32G17G12G13G16
                                G19G27G11
  22359858.416   117501916.489       -1202.118          49.000  
  22359856.043   117501928.757       -1202.120          49.000  
  22359859.938   117501899.789       -1202.138          49.000  
  22359857.812   117501863.723       -1202.134          49.000  
  22359866.195   117501933.365       -1202.171          44.000  
  22359866.282   117501912.210       -1202.158          46.000  
  22359864.897   117501856.904       -1202.195          45.000  
  22359865.775   117501919.749       -1202.145          49.000  
  22463027.910   118044030.209       -1202.219          39.000  
  22494279.653   118208234.257       -1202.118          39.000  
  22451888.218   117985488.756       -1202.105          40.000  
  22494963.193   118211837.309       -1202.118          40.000  
  22261989.688   116987573.318       -1202.172          37.000  
  22431369.369   117877672.793       -1202.160          42.000  
  22172311.734   116516290.915       -1202.180          33.000  
  22303606.420   117206269.757       -1202.120          42.000  
  22532767.913   118410525.186       -1202.208          33.000  
  22431369.714   117877688.860       -1202.151          33.000  
  22502878.027   118253428.238       -1202.232          40.000  
  22548026.656   118490666.176       -1202.047          35.000  
  22407636.292   117752940.772       -1202.178          40.000  
  22216860.491   116750410.759       -1202.128          38.000  
  22414967.037   117791438.819       -1202.111          34.000  
  22346387.742   117431074.815       -1202.198          40.000  
  22356354.144   117483435.200       -1202.251          39.000  
  22409692.625   117763740.291       -1202.178          36.000  
  22276351.051   117063029.785       -1202.145          40.000  
 25  8 16 11 37 56.2020000  0 27G 1G 3G 2G 4G 5G 6G 7G 8G10G22G23G21
                                G 9G29G28G20G14G15G24G32G17G12G13G16
                                G19G27G11
  22359904.150   117502156.908       -1202.226          49.000  
  22359901.802   117502169.177       -1202.192          49.000  
  22359905.696   117502140.208       -1202.206          49.000  
  22359903.563   117502104.143       -1202.200          49.000  
  22359911.981   117502173.779       -1202.210          44.000  
  22359912.030   117502152.628       -1202.266          46.000  
  22359910.679   117502097.320       -1202.209          45.000  
  22359911.549   117502160.166       -1202.178          49.000  
  22463073.660   118044270.624       -1202.220          39.000  
  22494325.398   118208474.676       -1202.252          39.000  
  22451933.946   117985729.174       -1202.261          40.000  
  22495008.956   118212077.728       -1202.225          40.000  
  22262035.405   116987813.738       -1202.287          37.000  
  22431415.131   117877913.212       -1202.247          42.000  
  22172357.465   116516531.333       -1202.194          33.000  
  22303652.116   117206510.177       -1202.241          42.000  
  22532813.654   118410765.601       -1202.167          33.000  
  22431415.442   117877929.280       -1202.274          33.000  
  22502923.749   118253668.656       -1202.311          40.000  
  22548072.394   118490906.599       -1202.222          35.000  
  22407682.030   117753181.190       -1202.253          40.000  
  22216906.236   116750651.180       -1202.240          38.000  
  22415012.773   117791679.241       -1202.384          35.000  
  22346433.500   117431315.230       -1202.202          40.000  
  22356399.935   117483675.618       -1202.326          39.000  
  22409738.397   117763980.708       -1202.281          36.000  
  22276396.727   117063270.203       -1202.254          40.000  
 25  8 16 11 37 56.4020000  0 27G 1G 3G 2G 4G 5G 6G 7G 8G10G22G23G21
                                G 9G29G28G20G14G15G24G32G17G12G13G16
                                G19G27G11
  22359949.898   117502397.308       -1202.153          49.000  
  22359947.560   117502409.578       -1202.131          49.000  
  22359951.454   117502380.609       -1202.179          49.000  
  22359949.301   117502344.543       -1202.159          49.000  
  22359957.819   117502414.188       -1202.216          44.000  
  22359957.803   117502393.026       -1202.162          46.000  
  22359956.455   117502337.721       -1202.140          45.000  
  22359957.300   117502400.570       -1202.144          49.000  
  22463119.394   118044511.027       -1202.185          39.000  
  22494371.148   118208715.078       -1202.190          39.000  
  22451979.693   117985969.577       -1202.271          40.000  
  22495054.712   118212318.129       -1202.196          40.000  
  22262081.077   116988054.136       -1202.054          37.000  
  22431460.869   117878153.613       -1202.185          42.000  
  22172403.196   116516771.733       -1202.191          33.000  
  22303697.843   117206750.579       -1202.186          42.000  
  22532859.412   118411006.002       -1202.192          33.000  
  22431461.173   117878169.672       -1202.144          33.000  
  22502969.522   118253909.055       -1202.237          40.000  
  22548118.149   118491147.001       -1202.150          35.000  
  22407727.763   117753421.590       -1202.228          40.000  
  22216951.961   116750891.577       -1202.229          38.000  
  22415058.547   117791919.636       -1202.144          35.000  
  22346479.276   117431555.636       -1202.213          40.000  
  22356445.689   117483916.016       -1202.194          39.000  
  22409784.130   117764221.112       -1202.258          36.000  
  22276442.392   117063510.601       -1202.114          40.000  
 25  8 16 11 37 56.6020000  0 27G 1G 3G 2G 4G 5G 6G 7G 8G10G22G23G21
                                G 9G29G28G20G14G15G24G32G17G12G13G16
                                G19G27G11
  22359995.601   117502637.723       -1202.154          49.000  
  22359993.309   117502649.992       -1202.109          49.000  
  22359997.169   117502621.023       -1202.135          49.000  
  22359994.996   117502584.958       -1202.120          49.000  
  22360003.586   117502654.599       -1202.158          44.000  
  22360003.567   117502633.444       -1202.147          46.000  
  22360002.158   117502578.140       -1202.194          45.000  
  22360003.020   117502640.983       -1202.096          49.000  
  22463165.142   118044751.442       -1202.184          39.000  
  22494416.881   118208955.495       -1202.206          39.000  
  22452025.393   117986209.988       -1202.075          40.000  
  22495100.425   118212558.544       -1202.114          40.000  
  22262126.762   116988294.551       -1202.174          37.000  
  22431506.612   117878394.027       -1202.129          42.000  
  22172448.935   116517012.150       -1202.194          33.000  
  22303743.498   117206990.993       -1202.150          42.000  
  22532905.144   118411246.415       -1202.074          33.000  
  22431506.933   117878410.096       -1202.179          33.000  
  22503015.298   118254149.468       -1202.095          40.000  
  22548163.870   118491387.418       -1202.287          35.000  
  22407773.466   117753662.005       -1202.177          40.000  
  22216997.705   116751131.996       -1202.107          38.000  
  22415104.291   117792160.060       -1202.284          35.000  
  22346524.986   117431796.049       -1202.141          40.000  
  22356491.434   117484156.432       -1202.223          39.000  
  22409829.849   117764461.521       -1202.032          36.000  
  22276488.077   117063751.019       -1202.135          40.000  
 25  8 16 11 37 56.8020000  0 27G 1G 3G 2G 4G 5G 6G 7G 8G10G22G23G21
                                G 9G29G28G20G14G15G24G32G17G12G13G16
                                G19G27G11
  22360041.340   117502878.142       -1202.235          49.000  
  22360039.067   117502890.410       -1202.208          49.000  
  22360042.926   117502861.441       -1202.216          49.000  
  22360040.757   117502825.377       -1202.237          49.000  
  22360049.344   117502895.014       -1202.152          43.000  
  22360049.356   117502873.858       -1202.232          46.000  
  22360047.925   117502818.553       -1202.151          45.000  
  22360048.790   117502881.400       -1202.196          49.000  
  22463210.909   118044991.854       -1202.173          39.000  
  22494462.637   118209195.907       -1202.202          39.000  
  22452071.117   117986450.409       -1202.229          40.000  
  22495146.173   118212798.959       -1202.176          40.000  
  22262172.466   116988534.962       -1202.097          37.000  
  22431552.329   117878634.440       -1202.180          42.000  
  22172494.669   116517252.561       -1202.146          33.000  
  22303789.241   117207231.406       -1202.119          42.000  
  22532950.907   118411486.839       -1202.217          33.000  
  22431552.695   117878650.510       -1202.168          33.000  
  22503061.048   118254389.885       -1202.215          40.000  
  22548209.630   118491627.826       -1202.131          35.000  
  22407819.197   117753902.421       -1202.202          40.000  
  22217043.434   116751372.410       -1202.155          38.000  
  22415150.042   117792400.466       -1202.118          35.000  
  22346570.737   117432036.465       -1202.192          40.000  
  22356537.200   117484396.847       -1202.204          39.000  
  22409875.569   117764701.935       -1202.052          36.000  
  22276533.776   117063991.434       -1202.211          40.000  
 25  8 16 11 37 57.0020000  0 27G 1G 3G 2G 4G 5G 6G 7G 8G10G22G23G21
                                G 9G29G28G20G14G15G24G32G17G12G13G16
                                G19G27G11
  22360087.071   117503118.554       -1202.129          49.000  
  22360084.819   117503130.819       -1202.105          49.000  
  22360088.651   117503101.851       -1202.123          49.000  
  22360086.484   117503065.784       -1202.125          49.000  
  22360095.035   117503135.431       -1202.073          43.000  
  22360095.089   117503114.273       -1202.069          46.000  
  22360093.671   117503058.965       -1202.106          45.000  
  22360094.535   117503121.811       -1202.138          49.000  
  22463256.653   118045232.278       -1202.271          39.000  
  22494508.380   118209436.323       -1202.051          39.000  
  22452116.834   117986690.815       -1202.125          40.000  
  22495191.925   118213039.370       -1202.098          40.000  
  22262218.186   116988775.377       -1202.181          37.000  
  22431598.063   117878874.842       -1202.149          42.000  
  22172540.405   116517492.965       -1202.097          33.000  
  22303834.935   117207471.825       -1202.134          42.000  
  22532996.681   118411727.263       -1202.028          33.000  
  22431598.448   117878890.915       -1202.220          33.000  
  22503106.763   118254630.305       -1202.060          40.000  
  22548255.304   118491868.261       -1201.990          35.000  
  22407864.908   117754142.835       -1202.103          40.000  
  22217089.172   116751612.830       -1202.122          38.000  
  22415195.795   117792640.887       -1202.114          35.000  
  22346616.440   117432276.874       -1202.173          40.000  
  22356582.967   117484637.258       -1202.163          39.000  
  22409921.286   117764942.361       -1202.141          36.000  
  22276579.466   117064231.848       -1202.125          40.000  
 25  8 16 11 37 57.2020000  0 27G 1G 3G 2G 4G 5G 6G 7G 8G10G22G23G21
                                G 9G29G28G20G14G15G24G32G17G12G13G16
                                G19G27G11
  22360132.803   117503358.964       -1202.132          49.000  
  22360130.568   117503371.232       -1202.132          49.000  
  22360134.392   117503342.261       -1202.111          49.000  
  22360132.232   117503306.196       -1202.132          49.000  
  22360140.861   117503375.843       -1202.157          43.000  
  22360140.842   117503354.688       -1202.149          46.000  
  22360139.383   117503299.378       -1202.138          45.000  
  22360140.290   117503362.222       -1202.138          49.000  
  22463302.426   118045472.682       -1202.194          39.000  
  22494554.132   118209676.736       -1202.097          39.000  
  22452162.609   117986931.227       -1202.112          40.000  
  22495237.643   118213279.783       -1202.156          40.000  
  22262263.891   116989015.784       -1202.182          37.000  
  22431643.830   117879115.252       -1202.071          42.000  
  22172586.116   116517733.377       -1202.025          33.000  
  22303880.688   117207712.236       -1202.184          41.000  
  22533042.454   118411967.677       -1202.082          33.000  
  22431644.158   117879131.324       -1202.085          33.000  
  22503152.490   118254870.716       -1202.131          40.000  
  22548301.020   118492108.676       -1202.299          35.000  
  22407910.613   117754383.251       -1202.203          40.000  
  22217134.897   116751853.241       -1202.110          38.000  
  22415241.552   117792881.298       -1202.070          35.000  
  22346662.233   117432517.286       -1202.137          40.000  
  22356628.748   117484877.667       -1202.160          39.000  
  22409967.002   117765182.766       -1202.035          36.000  
  22276625.157   117064472.260       -1202.137          40.000  
 25  8 16 11 37 57.4020000  0 27G 1G 3G 2G 4G 5G 6G 7G 8G10G22G23G21
                                G 9G29G28G20G14G15G24G32G17G12G13G16
                                G19G27G11
  22360178.519   117503599.387       -1202.189          49.000  
  22360176.323   117503611.656       -1202.207          49.000  
  22360180.133   117503582.685       -1202.202          49.000  
  22360177.979   117503546.620       -1202.215          49.000  
  22360186.580   117503616.263       -1202.117          43.000  
  22360186.587   117503595.109       -1202.189          46.000  
  22360185.117   117503539.800       -1202.135          45.000  
  22360186.063   117503602.647       -1202.235          49.000  
  22463348.150   118045713.097       -1201.995          39.000  
  22494599.871   118209917.159       -1202.154          39.000  
  22452208.365   117987171.650       -1202.149          40.000  
  22495283.371   118213520.203       -1202.143          40.000  
  22262309.580   116989256.202       -1202.029          37.000  
  22431689.578   117879355.676       -1202.190          42.000  
  22172631.865   116517973.803       -1202.184          33.000  
  22303926.400   117207952.656       -1202.129          41.000  
  22533088.216   118412208.101       -1202.121          33.000  
  22431689.872   117879371.748       -1202.215          34.000  
  22503198.231   118255111.142       -1202.212          40.000  
  22548346.708   118492349.094       -1202.221          35.000  
  22407956.281   117754623.669       -1202.198          40.000  
  22217180.665   116752093.665       -1202.220          39.000  
  22415287.317   117793121.718       -1202.089          35.000  
  22346707.923   117432757.703       -1202.116          40.000  
  22356674.474   117485118.085       -1202.085          39.000  
  22410012.727   117765423.193       -1202.103          36.000  
  22276670.841   117064712.681       -1202.131          40.000  
 25  8 16 11 37 57.6020000  0 27G 1G 3G 2G 4G 5G 6G 7G 8G10G22G23G21
                                G 9G29G28G20G14G15G24G32G17G12G13G16
                                G19G27G11
  22360224.212   117503839.821       -1202.135          49.000  
  22360222.085   117503852.088       -1202.130          49.000  
  22360225.864   117503823.117       -1202.137          49.000  
  22360223.676   117503787.054       -1202.155          49.000  
  22360232.303   117503856.701       -1202.074          43.000  
  22360232.323   117503835.542       -1202.141          46.000  
  22360230.849   117503780.236       -1202.094          46.000  
  22360231.779   117503843.078       -1202.130          49.000  
  22463393.905   118045953.539       -1202.051          39.000  
  22494645.620   118210157.592       -1202.129          39.000  
  22452254.127   117987412.084       -1202.088          40.000  
  22495329.097   118213760.639       -1202.162          40.000  
  22262355.305   116989496.642       -1202.027          37.000  
  22431735.306   117879596.109       -1202.069          42.000  
  22172677.561   116518214.232       -1202.030          34.000  
  22303972.151   117208193.094       -1202.167          41.000  
  22533133.964   118412448.533       -1202.069          33.000  
  22431735.613   117879612.185       -1202.219          34.000  
  22503244.021   118255351.575       -1202.219          40.000  
  22548392.453   118492589.530       -1202.127          35.000  
  22408002.031   117754864.101       -1202.063          40.000  
  22217226.397   116752334.097       -1202.135          39.000  
  22415333.047   117793362.155       -1202.135          35.000  
  22346753.702   117432998.140       -1202.109          40.000  
  22356720.219   117485358.528       -1202.192          39.000  
  22410058.465   117765663.627       -1202.107          36.000  
  22276716.538   117064953.119       -1202.160          40.000  
 25  8 16 11 37 57.8020000  0 27G 1G 3G 2G 4G 5G 6G 7G 8G10G22G23G21
                                G 9G29G28G20G14G15G24G32G17G12G13G16
                                G19G27G11
  22360269.976   117504080.232       -1202.116          49.000  
  22360267.852   117504092.503       -1202.156          49.000  
  22360271.609   117504063.528       -1202.096          49.000  
  22360269.413   117504027.469       -1202.183          49.000  
  22360278.113   117504097.113       -1202.222          44.000  
  22360278.100   117504075.957       -1202.177          46.000  
  22360276.658   117504020.647       -1202.185          46.000  
  22360277.570   117504083.493       -1202.157          49.000  
  22463439.663   118046193.954       -1202.244          39.000  
  22494691.390   118210398.006       -1202.208          39.000  
  22452299.872   117987652.492       -1202.101          40.000  
  22495374.845   118214001.062       -1202.402          40.000  
  22262401.038   116989737.062       -1202.273          37.000  
  22431781.085   117879836.535       -1202.398          42.000  
  22172723.357   116518454.612       -1201.543          34.000  
  22304017.886   117208433.505       -1202.192          41.000  
  22533179.732   118412688.937       -1202.010          33.000  
  22431781.360   117879852.593       -1202.132          34.000  
  22503289.770   118255591.987       -1202.215          40.000  
  22548438.160   118492829.924       -1201.925          35.000  
  22408047.719   117755104.507       -1202.061          40.000  
  22217272.136   116752574.509       -1202.117          39.000  
  22415378.760   117793602.551       -1201.838          35.000  
  22346799.412   117433238.557       -1202.210          40.000  
  22356765.973   117485598.929       -1202.096          39.000  
  22410104.205   117765904.032       -1202.046          36.000  
  22276762.204   117065193.532       -1202.203          40.000  
 25  8 16 11 37 58.0020000  0 27G 1G 3G 2G 4G 5G 6G 7G 8G10G22G23G21
                                G 9G29G28G20G14G15G24G32G17G12G13G16
                                G19G27G11
  22360315.693   117504320.655       -1202.114          49.000  
  22360313.599   117504332.926       -1202.142          49.000  
  22360317.369   117504303.952       -1202.135          49.000  
  22360315.149   117504267.890       -1202.123          49.000  
  22360323.750   117504337.538       -1202.079          44.000  
  22360323.832   117504316.375       -1202.037          46.000  
  22360322.383   117504261.069       -1202.100          46.000  
  22360323.314   117504323.916       -1202.154          49.000  
  22463485.396   118046434.376       -1202.067          39.000  
  22494737.140   118210638.426       -1202.062          40.000  
  22452345.594   117987892.915       -1202.125          40.000  
  22495420.587   118214241.479       -1202.058          40.000  
  22262446.742   116989977.482       -1202.056          37.000  
  22431826.812   117880076.951       -1202.038          41.000  
  22172769.183   116518695.044       -1202.133          34.000  
  22304063.527   117208673.925       -1202.029          41.000  
  22533225.507   118412929.359       -1202.081          34.000  
  22431827.049   117880093.011       -1202.074          34.000  
  22503335.513   118255832.405       -1202.043          40.000  
  22548483.889   118493070.353       -1202.065          35.000  
  22408093.441   117755344.930       -1202.140          40.000  
  22217317.899   116752814.931       -1202.132          39.000  
  22415424.520   117793842.979       -1202.215          35.000  
  22346845.150   117433478.980       -1202.096          40.000  
  22356811.677   117485839.355       -1202.060          39.000  
  22410150.009   117766144.459       -1202.145          36.000  
  22276807.941   117065433.955       -1202.038          40.000  
 25  8 16 11 37 58.2020000  0 27G 1G 3G 2G 4G 5G 6G 7G 8G10G22G23G21
                                G 9G29G28G20G14G15G24G32G17G12G13G16
                                G19G27G11
  22360361.439   117504561.078       -1202.152          49.000  
  22360359.362   117504573.348       -1202.151          49.000  
  22360363.092   117504544.374       -1202.138          49.000  
  22360360.879   117504508.312       -1202.145          49.000  
  22360369.531   117504577.959       -1202.311          44.000  
  22360369.600   117504556.804       -1202.202          46.000  
  22360368.138   117504501.496       -1202.234          46.000  
  22360369.092   117504564.337       -1202.132          49.000  
  22463531.137   118046674.803       -1202.175          39.000  
  22494782.929   118210878.853       -1202.222          40.000  
  22452391.362   117988133.338       -1202.192          40.000  
  22495466.329   118214481.903       -1202.100          40.000  
  22262492.434   116990217.910       -1202.126          37.000  
  22431872.552   117880317.381       -1202.169          41.000  
  22172814.959   116518935.475       -1202.249          34.000  
  22304109.240   117208914.351       -1202.169          41.000  
  22533271.291   118413169.784       -1202.137          34.000  
  22431872.762   117880333.430       -1202.134          34.000  
  22503381.305   118256072.831       -1202.157          40.000  
  22548529.670   118493310.783       -1202.179          35.000  
  22408139.164   117755585.355       -1202.231          40.000  
  22217363.610   116753055.348       -1202.188          39.000  
  22415470.285   117794083.403       -1202.275          35.000  
  22346890.917   117433719.405       -1202.203          40.000  
  22356857.390   117486079.781       -1202.187          39.000  
  22410195.756   117766384.878       -1202.165          36.000  
  22276853.652   117065674.379       -1202.176          40.000  
 25  8 16 11 37 58.4020000  0 27G 1G 3G 2G 4G 5G 6G 7G 8G10G22G23G21
                                G 9G29G28G20G14G15G24G32G17G12G13G16
                                G19G27G11
  22360407.216   117504801.488       -1202.164          49.000  
  22360405.104   117504813.760       -1202.177          49.000  
  22360408.866   117504784.784       -1202.157          49.000  
  22360406.637   117504748.725       -1202.190          49.000  
  22360415.286   117504818.370       -1202.177          44.000  
  22360415.343   117504797.209       -1202.186          46.000  
  22360413.924   117504741.900       -1202.173          46.000  
  22360414.870   117504804.749       -1202.191          49.000  
  22463576.892   118046915.214       -1202.209          39.000  
  22494828.674   118211119.261       -1202.189          40.000  
  22452437.074   117988373.747       -1202.198          40.000  
  22495512.072   118214722.314       -1202.170          40.000  
  22262538.176   116990458.318       -1202.118          37.000  
  22431918.262   117880557.787       -1202.206          41.000  
  22172860.745   116519175.883       -1202.240          34.000  
  22304154.926   117209154.758       -1202.180          41.000  
  22533317.081   118413410.192       -1202.185          34.000  
  22431918.465   117880573.850       -1202.295          34.000  
  22503427.049   118256313.239       -1202.198          39.000  
  22548575.413   118493551.189       -1202.185          35.000  
  22408184.879   117755825.763       -1202.231          40.000  
  22217409.374   116753295.758       -1202.192          39.000  
  22415516.024   117794323.810       -1202.244          34.000  
  22346936.628   117433959.812       -1202.179          40.000  
  22356903.131   117486320.190       -1202.199          39.000  
  22410241.485   117766625.285       -1202.167          36.000  
  22276899.356   117065914.789       -1202.204          40.000  
