     2.10           OBSERVATION DATA    M (MIXED)           RINEX VERSION / TYPE
RTKCONV 2.4.2                           20200427 132752 UTC PGM / RUN BY / DATE 
log: C:\Users\ygc\Desktop\差分分量估计\54所实验程序\54所实  COMMENT             
format: u-blox                                              COMMENT             
                                                            MARKER NAME         
                                                            MARKER NUMBER       
                                                            OBSERVER / AGENCY   
                                                            REC # / TYPE / VERS 
                                                            ANT # / TYPE        
        0.0000        0.0000        0.0000                  APPROX POSITION XYZ 
        0.0000        0.0000        0.0000                  ANTENNA: DELTA H/E/N
     1     1                                                WAVELENGTH FACT L1/2
     4    C1    L1    D1    S1                              # / TYPES OF OBSERV 
  2025     8    16    11    43   37.4020000     GPS         TIME OF FIRST OBS   
  2025     8    16    11    47   42.6030000     GPS         TIME OF LAST OBS    
                                                            END OF HEADER       
 25  8 16 11 43 37.4020000  0 15G 1G 3G 2G 4G 5G 6G 7G 8G26G13G10G31
                                G 9G17G20
  22437867.620   117911813.095       -1199.256          49.000  
  22437817.099   117911832.460       -1199.249          49.000  
  22437856.235   117911808.408       -1199.229          49.000  
  22437864.601   117911763.528       -1199.242          49.000  
  22437863.874   117911831.257       -1199.268          49.000  
  22437865.536   117911812.035       -1199.259          49.000  
  22437861.440   117911761.631       -1199.256          49.000  
  22437869.741   117911828.716       -1199.242          49.000  
  22492091.586   118196736.022       -1199.365          35.000  
  22517291.865                       -1198.568          35.000  
  22449299.657   117971869.110       -1199.207          38.000  
  22548940.035   118495496.351       -1199.245          35.000  
  22481830.713   118142805.194       -1199.318          35.000  
  22466880.123   118067278.548       -1199.247          36.000  
  22433480.189   117888738.399       -1199.291          37.000  
 25  8 16 11 43 37.6020000  0 15G 1G 3G 2G 4G 5G 6G 7G 8G26G13G10G31
                                G 9G17G20
  22437913.311   117912052.930       -1199.205          49.000  
  22437862.737   117912072.294       -1199.190          49.000  
  22437901.813   117912048.243       -1199.205          49.000  
  22437910.179   117912003.362       -1199.198          49.000  
  22437909.486   117912071.088       -1199.172          49.000  
  22437911.129   117912051.867       -1199.178          49.000  
  22437907.036   117912001.464       -1199.158          49.000  
  22437915.347   117912068.550       -1199.199          49.000  
  22492137.131   118196975.849       -1199.047          35.000  
  22517336.292                       -1198.568          35.000  
  22449345.257   117972108.950       -1199.281          38.000  
  22548985.532   118495736.183       -1199.209          35.000  
  22481876.352   118143045.029       -1199.249          35.000  
  22466925.829   118067518.383       -1199.262          37.000  
  22433525.673   117888978.230       -1199.305          37.000  
 25  8 16 11 43 37.8020000  0 15G 1G 3G 2G 4G 5G 6G 7G 8G26G13G10G31
                                G 9G17G20
  22437959.029   117912292.782       -1199.408          48.000  
  22437908.377   117912312.146       -1199.389          49.000  
  22437947.449   117912288.093       -1199.364          49.000  
  22437955.816   117912243.215       -1199.421          49.000  
  22437955.136   117912310.941       -1199.388          49.000  
  22437956.756   117912291.720       -1199.388          49.000  
  22437952.633   117912241.318       -1199.409          49.000  
  22437960.979   117912308.400       -1199.330          49.000  
  22492182.670   118197215.701       -1199.396          34.000  
  22517382.816                       -1198.568          35.000  
  22449390.843   117972348.794       -1199.355          38.000  
  22549031.076   118495976.033       -1199.366          35.000  
  22481922.073   118143284.881       -1199.430          35.000  
  22466971.559   118067758.231       -1199.417          37.000  
  22433571.217   117889218.073       -1199.239          36.000  
 25  8 16 11 43 38.0020000  0 15G 1G 3G 2G 4G 5G 6G 7G 8G26G13G10G31
                                G 9G17G20
  22438004.734   117912532.625       -1199.320          48.000  
  22437954.023   117912551.989       -1199.292          49.000  
  22437993.024   117912527.935       -1199.269          49.000  
  22438001.416   117912483.054       -1199.232          49.000  
  22438000.744   117912550.788       -1199.342          49.000  
  22438002.376   117912531.561       -1199.253          49.000  
  22437998.228   117912481.161       -1199.325          49.000  
  22438006.606   117912548.243       -1199.261          49.000  
  22492228.244   118197455.540       -1199.162          34.000  
  22517428.387                       -1198.568          35.000  
  22449436.461   117972588.657       -1199.611          38.000  
  22549076.699   118496215.887       -1199.478          35.000  
  22481967.721   118143524.756       -1199.856          35.000  
  22467017.330   118067998.082       -1199.389          37.000  
  22433616.620   117889457.938       -1199.557          36.000  
 25  8 16 11 43 38.2020000  0 15G 1G 3G 2G 4G 5G 6G 7G 8G26G13G10G31
                                G 9G17G20
  22438050.425   117912772.448       -1199.028          48.000  
  22437999.665   117912791.817       -1199.123          49.000  
  22438038.613   117912767.759       -1199.046          49.000  
  22438047.043   117912722.884       -1199.163          49.000  
  22438046.378   117912790.614       -1199.098          49.000  
  22438047.996   117912771.389       -1199.111          49.000  
  22438043.847   117912720.987       -1199.071          49.000  
  22438052.215   117912788.068       -1199.093          49.000  
  22492273.745   118197695.374       -1199.199          35.000  
  22517478.069                       -1198.568          35.000  
  22449482.036   117972828.476       -1198.948          38.000  
  22549122.280   118496455.709       -1199.002          35.000  
  22482013.311   118143764.570       -1198.992          35.000  
  22467063.017   118068237.907       -1199.028          37.000  
  22433662.090   117889697.754       -1198.996          36.000  
 25  8 16 11 43 38.4020000  0 15G 1G 3G 2G 4G 5G 6G 7G 8G26G13G10G31
                                G 9G17G20
  22438096.154   117913012.289       -1199.288          48.000  
  22438045.319   117913031.659       -1199.369          49.000  
  22438084.248   117913007.602       -1199.348          49.000  
  22438092.682   117912962.724       -1199.375          49.000  
  22438092.022   117913030.456       -1199.349          49.000  
  22438093.646   117913011.229       -1199.336          49.000  
  22438089.480   117912960.830       -1199.327          49.000  
  22438097.872   117913027.911       -1199.356          49.000  
  22492319.298   118197935.208       -1199.361          35.000  
  22517526.004                       -1199.179          35.000  
  22449527.690   117973068.324       -1199.385          38.000  
  22549167.849   118496695.551       -1199.319          35.000  
  22482058.872   118144004.409       -1199.257          35.000  
  22467108.743   118068477.749       -1199.269          37.000  
  22433707.589   117889937.595       -1199.189          36.000  
 25  8 16 11 43 38.6020000  0 15G 1G 3G 2G 4G 5G 6G 7G 8G26G13G10G31
                                G 9G17G20
  22438141.908   117913252.149       -1199.279          48.000  
  22438090.957   117913271.518       -1199.305          49.000  
  22438129.805   117913247.460       -1199.302          49.000  
  22438138.219   117913202.584       -1199.319          49.000  
  22438137.644   117913270.315       -1199.300          49.000  
  22438139.218   117913251.089       -1199.299          49.000  
  22438135.053   117913200.689       -1199.286          49.000  
  22438143.492   117913267.769       -1199.312          49.000  
  22492364.806   118198175.067       -1199.188          35.000  
  22517574.879                       -1199.179          35.000  
  22449573.278   117973308.183       -1199.298          38.000  
  22549213.424   118496935.420       -1199.400          35.000  
  22482104.434   118144244.270       -1199.185          35.000  
  22467154.443   118068717.611       -1199.339          37.000  
  22433753.077   117890177.459       -1199.291          36.000  
 25  8 16 11 43 38.8020000  0 15G 1G 3G 2G 4G 5G 6G 7G 8G26G13G10G31
                                G 9G17G20
  22438187.566   117913491.997       -1199.190          48.000  
  22438136.610   117913511.365       -1199.159          49.000  
  22438175.384   117913487.305       -1199.134          49.000  
  22438183.837   117913442.426       -1199.087          49.000  
  22438183.266   117913510.163       -1199.179          49.000  
  22438184.796   117913490.935       -1199.153          49.000  
  22438180.692   117913440.534       -1199.161          49.000  
  22438189.107   117913507.614       -1199.155          49.000  
  22492410.322   118198414.919       -1199.223          35.000  
  22517623.620                       -1199.179          35.000  
  22449618.872   117973548.029       -1199.166          38.000  
  22549259.009   118497175.263       -1199.223          35.000  
  22482150.014   118144484.123       -1199.205          35.000  
  22467200.134   118068957.456       -1199.174          37.000  
  22433798.623   117890417.302       -1199.128          36.000  
 25  8 16 11 43 39.0020000  0 15G 1G 3G 2G 4G 5G 6G 7G 8G26G13G10G31
                                G 9G17G20
  22438233.296   117913731.834       -1199.241          48.000  
  22438182.256   117913751.205       -1199.208          49.000  
  22438221.008   117913727.145       -1199.281          49.000  
  22438229.454   117913682.267       -1199.177          49.000  
  22438228.873   117913750.003       -1199.226          49.000  
  22438230.395   117913730.773       -1199.189          49.000  
  22438226.309   117913680.371       -1199.255          49.000  
  22438234.723   117913747.456       -1199.228          49.000  
  22492455.879   118198654.752       -1199.099          35.000  
  22517668.202                       -1199.179          35.000  
  22449664.444   117973787.866       -1199.269          38.000  
  22549304.539   118497415.110       -1198.927          35.000  
  22482195.530   118144723.933       -1199.342          35.000  
  22467245.855   118069197.295       -1199.162          37.000  
  22433844.106   117890657.135       -1199.264          36.000  
 25  8 16 11 43 39.2020000  0 18G 1G 3G 2G 4G 5G 6G 7G 8G26G13G12G21
                                G10G31G 9G24G17G20
  22438278.953   117913971.666       -1199.181          48.000  
  22438227.904   117913991.035       -1199.103          49.000  
  22438266.656   117913966.976       -1199.199          49.000  
  22438275.079   117913922.096       -1199.042          49.000  
  22438274.509   117913989.833       -1199.109          49.000  
  22438276.023   117913970.602       -1199.082          49.000  
  22438271.951   117913920.205       -1199.220          49.000  
  22438280.353   117913987.284       -1199.102          49.000  
  22492501.427   118198894.592       -1199.212          35.000  
  22517711.250                       -1199.179          35.000  
  22350667.432                       -1199.151          35.000  
  22573378.197   118623902.1442      -1199.243          39.000  
  22449710.072   117974027.698       -1199.180          38.000  
  22549350.102   118497654.952       -1199.160          34.000  
  22482241.044   118144963.763       -1199.065          35.000  
  22445494.535   117951869.0292      -1199.188          36.000  
  22467291.561   118069437.132       -1199.159          37.000  
  22433889.630   117890896.969       -1199.235          36.000  
 25  8 16 11 43 39.4020000  0 18G 1G 3G 2G 4G 5G 6G 7G 8G26G13G12G21
                                G10G31G 9G24G17G20
  22438324.630   117914211.503       -1199.369          48.000  
  22438273.548   117914230.874       -1199.302          49.000  
  22438312.302   117914206.811       -1199.310          49.000  
  22438320.670   117914161.937       -1199.303          49.000  
  22438320.146   117914229.672       -1199.304          49.000  
  22438321.676   117914210.443       -1199.323          49.000  
  22438317.599   117914160.040       -1199.316          49.000  
  22438326.005   117914227.123       -1199.316          49.000  
  22492546.989   118199134.422       -1199.342          35.000  
  22517755.946                       -1199.179          35.000  
  22350713.213                       -1199.151          35.000  
  22573423.907   118624141.9772      -1199.276          39.000  
  22449755.726   117974267.535       -1199.322          38.000  
  22549395.693   118497894.789       -1199.317          34.000  
  22482286.616   118145203.609       -1199.390          35.000  
  22445540.199   117952108.8702      -1199.447          36.000  
  22467337.208   118069676.969       -1199.361          37.000  
  22433935.112   117891136.808       -1199.395          36.000  
 25  8 16 11 43 39.6020000  0 18G 1G 3G 2G 4G 5G 6G 7G 8G26G13G12G21
                                G10G31G 9G24G17G20
  22438370.276   117914451.340       -1199.023          48.000  
  22438319.188   117914470.705       -1198.975          49.000  
  22438357.928   117914446.647       -1199.043          49.000  
  22438366.248   117914401.768       -1199.008          49.000  
  22438365.752   117914469.503       -1198.974          49.000  
  22438367.246   117914450.273       -1199.021          49.000  
  22438363.193   117914399.875       -1199.032          49.000  
  22438371.620   117914466.958       -1199.006          49.000  
  22492592.549   118199374.264       -1199.070          35.000  
  22517800.325                       -1199.179          35.000  
  22350759.257                       -1199.151          35.000  
  22573469.459   118624381.8222      -1199.109          39.000  
  22449801.313   117974507.368       -1198.984          38.000  
  22549441.213   118498134.618       -1198.929          34.000  
  22482332.173   118145443.438       -1199.027          35.000  
  22445585.851   117952348.6982      -1198.948          36.000  
  22467382.883   118069916.799       -1198.913          37.000  
  22433980.658   117891376.638       -1199.038          36.000  
 25  8 16 11 43 39.8020000  0 18G 1G 3G 2G 4G 5G 6G 7G 8G26G13G12G21
                                G10G31G 9G24G17G20
  22438415.961   117914691.160       -1199.205          48.000  
  22438364.836   117914710.533       -1199.223          49.000  
  22438403.559   117914686.472       -1199.229          49.000  
  22438411.901   117914641.593       -1199.177          49.000  
  22438411.418   117914709.329       -1199.229          49.000  
  22438412.878   117914690.101       -1199.183          49.000  
  22438408.815   117914639.699       -1199.229          49.000  
  22438417.272   117914706.783       -1199.177          49.000  
  22492638.110   118199614.087       -1199.246          35.000  
  22517846.122                       -1199.179          35.000  
  22350805.153                       -1199.151          35.000  
  22573515.161   118624621.6432      -1199.200          39.000  
  22449846.979   117974747.192       -1199.210          38.000  
  22549486.765   118498374.420       -1198.809          34.000  
  22482377.742   118145683.289       -1199.663          35.000  
  22445631.532   117952588.5342      -1199.465          37.000  
  22467428.564   118070156.617       -1199.214          37.000  
  22434026.118   117891616.473       -1199.466          36.000  
 25  8 16 11 43 40.0020000  0 18G 1G 3G 2G 4G 5G 6G 7G 8G26G13G12G21
                                G10G31G 9G24G17G20
  22438461.642   117914930.995       -1199.212          48.000  
  22438410.489   117914950.365       -1199.188          49.000  
  22438449.169   117914926.305       -1199.225          49.000  
  22438457.492   117914881.426       -1199.195          49.000  
  22438457.037   117914949.162       -1199.175          49.000  
  22438458.457   117914929.932       -1199.208          49.000  
  22438454.266   117914879.535       -1199.198          49.000  
  22438462.879   117914946.615       -1199.180          49.000  
  22492683.680   118199853.918       -1199.186          35.000  
  22517894.651                       -1199.179          35.000  
  22350851.177                       -1199.151          35.000  
  22573560.866   118624861.4752      -1199.194          38.000  
  22449892.616   117974987.025       -1199.192          38.000  
  22549532.334   118498614.253       -1199.158          34.000  
  22482423.256   118145923.109       -1199.054          35.000  
  22445677.174   117952828.3602      -1199.070          37.000  
  22467474.230   118070396.449       -1199.119          37.000  
  22434071.743   117891856.300       -1199.102          36.000  
 25  8 16 11 43 40.2020000  0 18G 1G 3G 2G 4G 5G 6G 7G 8G26G13G12G21
                                G10G31G 9G24G17G20
  22438507.439   117915170.830       -1199.187          48.000  
  22438456.126   117915190.194       -1199.181          49.000  
  22438494.781   117915166.135       -1199.155          49.000  
  22438503.130   117915121.254       -1199.195          49.000  
  22438502.679   117915188.989       -1199.157          49.000  
  22438504.087   117915169.763       -1199.195          49.000  
  22438499.486   117915119.358       -1199.178          49.000  
  22438508.494   117915186.446       -1199.187          49.000  
  22492729.203   118200093.755       -1199.309          35.000  
  22517942.411                       -1199.179          35.000  
  22350896.740                       -1199.151          35.000  
  22573606.525   118625101.2972      -1199.118          38.000  
  22449938.275   117975226.855       -1199.221          38.000  
  22549577.920   118498854.085       -1199.185          34.000  
  22482468.806   118146162.950       -1199.180          35.000  
  22445722.852   117953068.1942      -1199.160          37.000  
  22467519.933   118070636.282       -1199.161          37.000  
  22434117.260   117892096.140       -1199.216          36.000  
 25  8 16 11 43 40.4020000  0 19G 1G 3G 2G 4G 5G 6G 7G 8G26G13G12G21
                                G10G31G 9G24G17G20G25
  22438553.118   117915410.660       -1199.260          48.000  
  22438501.764   117915430.029       -1199.310          49.000  
  22438540.391   117915405.972       -1199.283          49.000  
  22438548.719   117915361.089       -1199.323          49.000  
  22438548.312   117915428.827       -1199.348          49.000  
  22438549.685   117915409.600       -1199.322          49.000  
  22438544.769   117915359.194       -1199.276          49.000  
  22438554.121   117915426.285       -1199.369          49.000  
  22492774.776   118200333.583       -1199.395          35.000  
  22517989.598                       -1199.179          35.000  
  22350942.313                       -1199.151          35.000  
  22573652.192   118625341.1362      -1199.316          38.000  
  22449983.874   117975466.689       -1199.303          39.000  
  22549623.513   118499093.921       -1199.341          35.000  
  22482514.364   118146402.781       -1199.321          35.000  
  22445768.508   117953308.0322      -1199.343          37.000  
  22467565.626   118070876.115       -1199.272          37.000  
  22434162.763   117892335.971       -1199.320          36.000  
  22322804.026                       -1199.023          41.000  
 25  8 16 11 43 40.6020000  0 19G 1G 3G 2G 4G 5G 6G 7G 8G26G13G12G21
                                G10G31G 9G24G17G20G25
  22438598.771   117915650.503       -1199.042          48.000  
  22438547.401   117915669.867       -1199.065          49.000  
  22438586.014   117915645.814       -1199.048          49.000  
  22438594.306   117915600.930       -1199.131          49.000  
  22438593.940   117915668.667       -1199.045          49.000  
  22438595.247   117915649.441       -1199.085          49.000  
  22438590.189   117915599.042       -1199.106          49.000  
  22438599.731   117915666.123       -1199.052          49.000  
  22492820.319   118200573.422       -1198.970          35.000  
  22518036.811                       -1199.179          35.000  
  22350988.226                       -1199.151          35.000  
  22573697.849   118625580.9802      -1198.941          38.000  
  22450029.493   117975706.533       -1199.108          39.000  
  22549669.040   118499333.759       -1199.033          35.000  
  22482559.921   118146642.619       -1198.981          35.000  
  22445814.162   117953547.8702      -1199.036          37.000  
  22467611.302   118071115.957       -1199.088          37.000  
  22434208.405   117892575.813       -1199.063          36.000  
  22322850.139                       -1199.023          41.000  
 25  8 16 11 43 40.8020000  0 19G 1G 3G 2G 4G 5G 6G 7G 8G26G13G12G21
                                G10G31G 9G24G17G20G25
  22438644.610   117915890.328       -1199.329          48.000  
  22438593.062   117915909.694       -1199.274          49.000  
  22438631.522   117915885.629       -1199.235          49.000  
  22438639.904   117915840.754       -1199.223          49.000  
  22438639.597   117915908.486       -1199.216          49.000  
  22438640.855   117915889.262       -1199.152          49.000  
  22438635.380   117915838.851       -1199.156          49.000  
  22438645.381   117915905.949       -1199.288          49.000  
  22492865.873   118200813.247       -1199.297          35.000  
  22518080.227                       -1199.179          35.000  
  22351033.915                       -1199.151          35.000  
  22573743.529   118625820.8022      -1199.036          38.000  
  22450075.114   117975946.362       -1199.335          39.000  
  22549714.626   118499573.604       -1199.194          35.000  
  22482605.502   118146882.411       -1199.536          35.000  
  22445859.792   117953787.6762      -1199.358          37.000  
  22467656.992   118071355.795       -1199.290          37.000  
  22434253.930   117892815.609       -1199.372          36.000  
  22322895.492                       -1199.023          41.000  
 25  8 16 11 43 41.0020000  0 20G 1G 3G 2G 4G 5G 6G 7G 8G26G13G12G21
                                G10G31G 9G24G17G20G27G25
  22438690.304   117916130.161       -1199.002          49.000  
  22438638.716   117916149.534       -1199.299          49.000  
  22438677.083   117916125.477       -1199.174          49.000  
  22438685.504   117916080.599       -1199.317          49.000  
  22438685.226   117916148.327       -1199.304          49.000  
  22438686.483   117916129.106       -1199.297          49.000  
  22438680.763   117916078.699       -1199.169          49.000  
  22438690.998   117916145.786       -1199.260          49.000  
  22492911.439   118201053.081       -1199.161          35.000  
  22518121.653                       -1199.179          35.000  
  22351079.266                       -1199.151          35.000  
  22573789.190   118626060.6452      -1199.256          38.000  
  22450120.677   117976186.195       -1199.087          38.000  
  22549760.157   118499813.441       -1199.147          35.000  
  22482651.057   118147122.248       -1199.035          35.000  
  22445905.442   117954027.5162      -1199.106          37.000  
  22467702.638   118071595.635       -1199.154          37.000  
  22434299.412   117893055.458       -1199.094          37.000  
  22573204.741   118622990.5582      -1199.215          39.000  
  22322941.631                       -1199.023          41.000  
 25  8 16 11 43 41.2020000  0 20G 1G 3G 2G 4G 5G 6G 7G 8G26G13G12G21
                                G10G31G 9G24G17G20G27G25
  22438736.217   117916370.021       -1199.241          49.000  
  22438684.356   117916389.379       -1199.167          49.000  
  22438722.311   117916365.326       -1199.173          49.000  
  22438731.061   117916320.441       -1199.162          49.000  
  22438730.835   117916388.171       -1199.169          49.000  
  22438732.054   117916368.954       -1199.199          49.000  
  22438726.229   117916318.548       -1199.160          49.000  
  22438736.605   117916385.635       -1199.166          49.000  
  22492956.982   118201292.935       -1199.149          35.000  
  22518164.160                       -1199.179          35.000  
  22351124.930                       -1199.151          36.000  
  22573834.845   118626300.4912      -1199.109          38.000  
  22450166.319   117976426.049       -1199.177          39.000  
  22549805.739   118500053.292       -1199.095          35.000  
  22482696.636   118147362.100       -1199.213          35.000  
  22445951.111   117954267.3722      -1199.230          37.000  
  22467748.347   118071835.490       -1199.184          36.000  
  22434344.898   117893295.314       -1199.147          37.000  
  22573250.700   118623230.4072      -1199.128          39.000  
  22322986.212                       -1199.023          41.000  
 25  8 16 11 43 41.4020000  0 20G 1G 3G 2G 4G 5G 6G 7G 8G26G13G12G21
                                G10G31G 9G24G17G20G27G25
  22438782.157   117916609.874       -1199.328          49.000  
  22438730.021   117916629.234       -1199.276          49.000  
  22438767.359   117916605.182       -1199.333          49.000  
  22438776.676   117916560.296       -1199.295          49.000  
  22438776.473   117916628.027       -1199.289          49.000  
  22438777.679   117916608.810       -1199.282          49.000  
  22438771.701   117916558.402       -1199.328          49.000  
  22438782.250   117916625.492       -1199.295          49.000  
  22493002.546   118201532.792       -1199.360          35.000  
  22518207.355                       -1199.179          35.000  
  22351170.750                       -1199.151          36.000  
  22573880.446   118626540.3512      -1199.312          39.000  
  22450211.940   117976665.903       -1199.273          39.000  
  22549851.302   118500293.147       -1199.217          35.000  
  22482742.249   118147601.952       -1199.249          35.000  
  22445996.762   117954507.2252      -1199.352          37.000  
  22467793.981   118072075.345       -1199.314          36.000  
  22434390.365   117893535.168       -1199.339          37.000  
  22573296.646   118623470.2682      -1199.379          39.000  
  22323030.871                       -1199.023          41.000  
 25  8 16 11 43 41.6020000  0 20G 1G 3G 2G 4G 5G 6G 7G 8G26G13G12G21
                                G10G31G 9G24G17G20G27G25
  22438828.028   117916849.716       -1199.167          49.000  
  22438775.660   117916869.084       -1199.272          49.000  
  22438812.337   117916845.026       -1199.208          49.000  
  22438822.270   117916800.139       -1199.176          49.000  
  22438822.099   117916867.873       -1199.227          49.000  
  22438823.287   117916848.658       -1199.239          49.000  
  22438817.079   117916798.252       -1199.277          49.000  
  22438827.876   117916865.336       -1199.202          49.000  
  22493048.118   118201772.612       -1198.834          35.000  
  22518252.391                       -1199.179          35.000  
  22351216.765                       -1199.151          36.000  
  22573926.101   118626780.2032      -1199.367          39.000  
  22450257.578   117976905.748       -1199.215          39.000  
  22549896.864   118500532.981       -1199.021          35.000  
  22482787.882   118147841.837       -1199.741          35.000  
  22446042.439   117954747.0822      -1199.374          37.000  
  22467839.659   118072315.193       -1199.260          36.000  
  22434435.918   117893775.015       -1199.273          37.000  
  22573342.975   118623710.1112      -1199.187          39.000  
  22323078.232                       -1199.023          41.000  
 25  8 16 11 43 41.8020000  0 20G 1G 3G 2G 4G 5G 6G 7G 8G26G13G12G21
                                G10G31G 9G24G17G20G27G25
  22438874.071   117917089.572       -1199.333          49.000  
  22438821.303   117917108.935       -1199.241          49.000  
  22438857.557   117917084.880       -1199.247          49.000  
  22438867.845   117917039.991       -1199.255          49.000  
  22438867.725   117917107.727       -1199.202          49.000  
  22438868.896   117917088.509       -1199.229          49.000  
  22438862.331   117917038.105       -1199.246          49.000  
  22438873.515   117917105.188       -1199.202          49.000  
  22493093.672   118202012.473       -1199.330          35.000  
  22518300.558                       -1199.179          35.000  
  22351262.209                       -1199.151          35.000  
  22573971.795   118627020.0582      -1199.116          38.000  
  22450303.230   117977145.603       -1199.346          39.000  
  22549942.422   118500772.838       -1199.393          35.000  
  22482833.447   118148081.683       -1199.379          35.000  
  22446088.081   117954986.9352      -1199.403          37.000  
  22467885.353   118072555.049       -1199.452          36.000  
  22434481.470   117894014.870       -1199.325          37.000  
  22573388.174   118623949.9612      -1199.157          39.000  
  22323123.918                       -1199.023          41.000  
 25  8 16 11 43 42.0020000  0 20G 1G 3G 2G 4G 5G 6G 7G 8G26G13G12G21
                                G10G31G 9G24G17G20G27G25
  22438920.104   117917329.416       -1199.330          49.000  
  22438866.953   117917348.777       -1199.226          49.000  
  22438902.697   117917324.724       -1199.337          49.000  
  22438913.448   117917279.835       -1199.219          49.000  
  22438913.380   117917347.572       -1199.271          49.000  
  22438914.512   117917328.354       -1199.218          49.000  
  22438907.574   117917277.951       -1199.295          49.000  
  22438919.161   117917345.034       -1199.276          49.000  
  22493139.228   118202252.313       -1199.248          35.000  
  22518347.604                       -1199.179          35.000  
  22351307.541                       -1199.151          35.000  
  22574017.434   118627259.9122      -1199.454          38.000  
  22450348.896   117977385.443       -1199.273          39.000  
  22549987.983   118501012.673       -1199.256          35.000  
  22482878.981   118148321.524       -1199.213          34.000  
  22446133.719   117955226.7722      -1199.199          37.000  
  22467931.028   118072794.888       -1199.238          36.000  
  22434526.970   117894254.713       -1199.284          37.000  
  22573433.742   118624189.8142      -1199.384          39.000  
  22323169.395                       -1199.023          41.000  
 25  8 16 11 43 42.2020000  0 20G 1G 3G 2G 4G 5G 6G 7G 8G26G13G12G21
                                G10G31G 9G24G17G20G27G25
  22438966.010   117917569.258       -1199.301          49.000  
  22438912.599   117917588.626       -1199.343          49.000  
  22438947.908   117917564.570       -1199.424          49.000  
  22438959.063   117917519.682       -1199.337          49.000  
  22438959.018   117917587.417       -1199.359          49.000  
  22438960.141   117917568.198       -1199.320          49.000  
  22438952.758   117917517.792       -1199.360          49.000  
  22438964.812   117917584.878       -1199.352          49.000  
  22493184.836   118202492.151       -1199.168          35.000  
  22518393.975                       -1199.179          35.000  
  22351352.981                       -1199.151          35.000  
  22574063.133   118627499.7462      -1199.410          38.000  
  22450394.514   117977625.289       -1199.339          39.000  
  22550033.597   118501252.520       -1199.237          35.000  
  22482924.563   118148561.372       -1199.343          34.000  
  22446179.391   117955466.6222      -1199.391          37.000  
  22467976.727   118073034.735       -1199.399          36.000  
  22434572.499   117894494.556       -1199.439          37.000  
  22573478.841   118624429.6502      -1199.340          39.000  
  22323215.033                       -1199.023          41.000  
 25  8 16 11 43 42.4020000  0 20G 1G 3G 2G 4G 5G 6G 7G 8G26G13G12G21
                                G10G31G 9G24G17G20G27G25
  22439011.665   117917809.090       -1199.186          49.000  
  22438958.235   117917828.456       -1199.206          49.000  
  22438993.101   117917804.397       -1199.162          49.000  
  22439004.646   117917759.511       -1199.225          49.000  
  22439004.647   117917827.246       -1199.226          49.000  
  22439005.712   117917808.029       -1199.225          49.000  
  22438997.965   117917757.621       -1199.174          49.000  
  22439010.448   117917824.708       -1199.220          49.000  
  22493230.404   118202731.993       -1199.188          35.000  
  22518439.658                       -1199.179          35.000  
  22351398.423                       -1199.151          35.000  
  22574108.756   118627739.5702      -1199.150          38.000  
  22450440.149   117977865.120       -1199.219          39.000  
  22550079.156   118501492.357       -1199.253          35.000  
  22482970.137   118148801.206       -1199.172          34.000  
  22446225.036   117955706.4522      -1199.226          37.000  
  22468022.373   118073274.561       -1199.192          36.000  
  22434618.034   117894734.386       -1199.261          37.000  
  22573524.757   118624669.4782      -1199.155          39.000  
  22323260.291                       -1199.023          41.000  
 25  8 16 11 43 42.6020000  0 20G 1G 3G 2G 4G 5G 6G 7G 8G26G13G12G21
                                G10G31G 9G24G17G20G27G25
  22439057.239   117918048.949       -1199.243          49.000  
  22439003.889   117918068.308       -1199.154          49.000  
  22439038.199   117918044.253       -1199.191          49.000  
  22439050.245   117917999.365       -1199.142          49.000  
  22439050.287   117918067.101       -1199.214          49.000  
  22439051.321   117918047.883       -1199.194          49.000  
  22439043.185   117917997.480       -1199.238          49.000  
  22439056.071   117918064.564       -1199.228          49.000  
  22493275.961   118202971.845       -1199.193          35.000  
  22518482.896                       -1199.179          35.000  
  22351443.859                       -1199.151          35.000  
  22574154.398   118627979.4372      -1199.358          38.000  
  22450485.757   117978104.981       -1199.331          39.000  
  22550124.749   118501732.222       -1199.003          35.000  
  22483015.726   118149041.033       -1199.430          34.000  
  22446270.714   117955946.3042      -1199.246          37.000  
  22468068.079   118073514.426       -1199.173          36.000  
  22434663.592   117894974.231       -1199.149          37.000  
  22573570.153   118624909.3522      -1199.120          39.000  
  22323305.884                       -1199.023          41.000  
 25  8 16 11 43 42.8020000  0 20G 1G 3G 2G 4G 5G 6G 7G 8G26G13G12G21
                                G10G31G 9G24G17G20G27G25
  22439102.759   117918288.791       -1199.181          49.000  
  22439049.541   117918308.155       -1199.129          49.000  
  22439083.406   117918284.098       -1199.173          49.000  
  22439095.849   117918239.213       -1199.147          49.000  
  22439095.911   117918306.947       -1199.148          49.000  
  22439096.944   117918287.729       -1199.122          49.000  
  22439088.431   117918237.323       -1199.146          49.000  
  22439101.711   117918304.408       -1199.121          49.000  
  22493321.531   118203211.689       -1199.141          35.000  
  22518526.394                       -1199.179          35.000  
  22351489.344                       -1199.151          35.000  
  22574200.075   118628219.2842      -1199.205          38.000  
  22450531.426   117978344.824       -1199.218          39.000  
  22550170.338   118501972.070       -1199.173          35.000  
  22483061.277   118149280.872       -1199.014          34.000  
  22446316.382   117956186.1472      -1199.179          37.000  
  22468113.757   118073754.265       -1199.154          36.000  
  22434709.149   117895214.078       -1199.154          37.000  
  22573615.337   118625149.1972      -1199.199          39.000  
  22323352.605                       -1199.023          41.000  
 25  8 16 11 43 43.0020000  0 20G 1G 3G 2G 4G 5G 6G 7G 8G26G13G12G21
                                G10G31G 9G24G17G20G27G25
  22439148.295   117918528.619       -1199.126          49.000  
  22439095.176   117918547.983       -1199.083          49.000  
  22439128.563   117918523.927       -1199.132          49.000  
  22439141.459   117918479.040       -1199.083          49.000  
  22439141.551   117918546.776       -1199.087          49.000  
  22439142.574   117918527.557       -1199.069          49.000  
  22439133.682   117918477.154       -1199.120          49.000  
  22439147.341   117918544.237       -1199.089          49.000  
  22493367.080   118203451.514       -1199.010          35.000  
  22518570.320                       -1199.179          35.000  
  22351534.831                       -1199.151          35.000  
  22574245.723   118628459.1162      -1199.144          38.000  
  22450577.036   117978584.650       -1199.100          39.000  
  22550215.908   118502211.897       -1199.108          35.000  
  22483106.857   118149520.703       -1199.053          34.000  
  22446362.032   117956425.9732      -1199.127          37.000  
  22468159.422   118073994.091       -1199.200          36.000  
  22434754.721   117895453.904       -1199.129          37.000  
  22573660.674   118625389.0262      -1199.112          39.000  
  22323398.530                       -1199.023          41.000  
 25  8 16 11 43 43.2020000  0 20G 1G 3G 2G 4G 5G 6G 7G 8G26G13G12G21
                                G10G31G 9G24G17G20G27G25
  22439193.898   117918768.446       -1199.221          48.000  
  22439140.837   117918787.813       -1199.229          49.000  
  22439173.597   117918763.754       -1199.229          49.000  
  22439187.087   117918718.871       -1199.236          49.000  
  22439187.210   117918786.603       -1199.189          49.000  
  22439188.205   117918767.386       -1199.209          49.000  
  22439178.787   117918716.979       -1199.208          49.000  
  22439192.991   117918784.065       -1199.216          49.000  
  22493412.690   118203691.342       -1199.182          35.000  
  22518614.665                       -1199.179          35.000  
  22351580.318                       -1199.151          35.000  
  22574291.392   118628698.9332      -1199.246          38.000  
  22450622.706   117978824.476       -1199.199          39.000  
  22550261.495   118502451.724       -1199.156          35.000  
  22483152.432   118149760.531       -1199.195          34.000  
  22446407.669   117956665.7992      -1199.150          37.000  
  22468205.126   118074233.922       -1199.169          36.000  
  22434800.276   117895693.736       -1199.255          37.000  
  22573706.413   118625628.8532      -1199.241          39.000  
  22323443.542                       -1199.023          41.000  
 25  8 16 11 43 43.4020000  0 20G 1G 3G 2G 4G 5G 6G 7G 8G26G13G12G21
                                G10G31G 9G24G17G20G27G25
  22439239.429   117919008.280       -1199.212          48.000  
  22439186.476   117919027.651       -1199.297          49.000  
  22439218.754   117919003.588       -1199.240          49.000  
  22439232.670   117918958.700       -1199.174          49.000  
  22439232.833   117919026.441       -1199.283          49.000  
  22439233.801   117919007.222       -1199.251          49.000  
  22439223.932   117918956.815       -1199.250          49.000  
  22439238.612   117919023.899       -1199.231          49.000  
  22493458.320   118203931.193       -1199.436          35.000  
  22518659.102                       -1199.179          35.000  
  22351625.809                       -1199.151          35.000  
  22574337.070   118628938.2601      -1199.076          38.000  
  22450668.338   117979064.301       -1199.056          39.000  
  22550307.080   118502691.533       -1198.780          35.000  
  22483198.033   118150000.416       -1199.979          34.000  
  22446453.334   117956905.1641      -1199.688          37.000  
  22468250.817   118074473.734       -1198.829          36.000  
  22434845.849   117895933.583       -1199.432          37.000  
  22573752.334   118625868.671       -1198.960          39.000  
  22323488.950                       -1198.975          41.000  
 25  8 16 11 43 43.6020000  0 20G 1G 3G 2G 4G 5G 6G 7G 8G26G13G12G21
                                G10G31G 9G24G17G20G27G25
  22439285.029   117919248.122       -1199.090          48.000  
  22439232.131   117919267.491       -1199.125          49.000  
  22439264.143   117919243.428       -1199.078          49.000  
  22439278.294   117919198.544       -1199.164          49.000  
  22439278.446   117919266.281       -1199.118          49.000  
  22439279.413   117919247.063       -1199.159          49.000  
  22439269.046   117919196.658       -1199.118          49.000  
  22439284.253   117919263.740       -1199.126          49.000  
  22493503.980   118204171.032       -1199.034          35.000  
  22518706.467                       -1199.179          35.000  
  22351671.330                       -1199.854          35.000  
  22574382.743   118629178.103       -1199.074          38.000  
  22450714.023   117979304.150       -1199.202          39.000  
  22550352.639   118502931.391       -1199.260          35.000  
  22483243.628   118150240.243       -1199.053          34.000  
  22446499.004   117957145.001       -1199.123          37.000  
  22468296.493   118074713.584       -1199.223          37.000  
  22434891.385   117896173.420       -1198.929          37.000  
  22573797.898   118626108.518       -1199.110          39.000  
  22323534.666   117310965.6122      -1199.394          41.000  
 25  8 16 11 43 43.8020000  0 20G 1G 3G 2G 4G 5G 6G 7G 8G26G13G12G21
                                G10G31G 9G24G17G20G27G25
  22439330.561   117919487.976       -1199.303          48.000  
  22439277.777   117919507.345       -1199.305          49.000  
  22439309.614   117919483.282       -1199.264          49.000  
  22439323.908   117919438.396       -1199.312          49.000  
  22439324.099   117919506.134       -1199.259          49.000  
  22439325.037   117919486.914       -1199.278          49.000  
  22439314.189   117919436.510       -1199.250          49.000  
  22439329.887   117919503.592       -1199.245          49.000  
  22493549.621   118204410.889       -1199.359          35.000  
  22518753.611                       -1199.179          35.000  
  22351716.838   117459064.2762      -1198.987          35.000  
  22574428.399   118629417.953       -1199.179          38.000  
  22450759.631   117979543.998       -1199.276          39.000  
  22550398.228   118503171.245       -1199.580          35.000  
  22483289.177   118150480.097       -1199.185          34.000  
  22446544.697   117957384.857       -1199.438          36.000  
  22468342.141   118074953.434       -1199.396          37.000  
  22434936.875   117896413.282       -1199.308          36.000  
  22573843.600   118626348.368       -1199.232          39.000  
  22323580.514   117311205.4582      -1199.409          41.000  
 25  8 16 11 43 44.0020000  0 19G 1G 3G 2G 4G 5G 6G 7G 8G26G13G12G21
                                G10G31G24G17G20G27G25
  22439376.081   117919727.815       -1199.189          48.000  
  22439323.407   117919747.187       -1199.202          49.000  
  22439355.027   117919723.124       -1199.197          49.000  
  22439369.471   117919678.237       -1199.189          49.000  
  22439369.716   117919745.977       -1199.202          49.000  
  22439370.630   117919726.755       -1199.196          49.000  
  22439359.402   117919676.352       -1199.182          49.000  
  22439375.536   117919743.435       -1199.189          49.000  
  22493595.242   118204650.728       -1199.179          35.000  
  22518800.700                       -1199.179          35.000  
  22351762.390   117459304.1262      -1199.023          35.000  
  22574474.057   118629657.796       -1199.161          38.000  
  22450805.240   117979783.840       -1199.222          39.000  
  22550443.814   118503411.083       -1199.231          35.000  
  22446590.366   117957624.698       -1199.269          36.000  
  22468387.779   118075193.274       -1199.220          37.000  
  22434982.463   117896653.121       -1199.222          36.000  
  22573889.199   118626588.208       -1199.171          39.000  
  22323626.232   117311445.2972      -1199.193          41.000  
 25  8 16 11 43 44.2020000  0 19G 1G 3G 2G 4G 5G 6G 7G 8G26G13G12G21
                                G10G31G24G17G20G27G25
  22439421.641   117919967.653       -1199.209          48.000  
  22439369.042   117919987.023       -1199.197          49.000  
  22439400.464   117919962.962       -1199.228          49.000  
  22439415.053   117919918.074       -1199.183          49.000  
  22439415.324   117919985.814       -1199.196          49.000  
  22439416.225   117919966.591       -1199.155          49.000  
  22439404.524   117919916.188       -1199.189          49.000  
  22439421.155   117919983.271       -1199.183          49.000  
  22493640.860   118204890.568       -1199.228          35.000  
  22518847.051                       -1199.179          35.000  
  22351807.940   117459543.9742      -1199.279          35.000  
  22574519.739   118629897.634       -1199.189          38.000  
  22450850.836   117980023.675       -1199.151          39.000  
  22550489.396   118503650.917       -1199.270          35.000  
  22446636.017   117957864.532       -1199.223          36.000  
  22468433.452   118075433.112       -1199.262          37.000  
  22435028.014   117896892.960       -1199.264          36.000  
  22573934.787   118626828.048       -1199.188          39.000  
  22323671.582   117311685.1352      -1199.221          41.000  
 25  8 16 11 43 44.4020000  0 19G 1G 3G 2G 4G 5G 6G 7G 8G26G13G12G21
                                G10G31G24G17G20G27G25
  22439467.244   117920207.499       -1199.343          48.000  
  22439414.701   117920226.865       -1199.313          49.000  
  22439445.607   117920202.810       -1199.343          49.000  
  22439460.671   117920157.922       -1199.290          49.000  
  22439460.989   117920225.655       -1199.354          49.000  
  22439461.852   117920206.437       -1199.319          49.000  
  22439449.547   117920156.034       -1199.344          49.000  
  22439466.772   117920223.118       -1199.325          49.000  
  22493686.483   118205130.406       -1199.410          35.000  
  22518892.093                       -1199.179          35.000  
  22351853.491   117459783.8212      -1199.482          35.000  
  22574565.357   118630137.481       -1199.370          38.000  
  22450896.469   117980263.519       -1199.441          39.000  
  22550534.969   118503890.756       -1199.314          35.000  
  22446681.663   117958104.352       -1199.362          36.000  
  22468479.110   118075672.957       -1199.167          37.000  
  22435073.513   117897132.780       -1199.362          36.000  
  22573980.385   118627067.896       -1199.309          39.000  
  22323717.362   117311924.9552      -1199.437          41.000  
 25  8 16 11 43 44.6020000  0 19G 1G 3G 2G 4G 5G 6G 7G 8G26G13G12G21
                                G10G31G24G17G20G27G25
  22439512.855   117920447.356       -1199.300          48.000  
  22439460.331   117920466.721       -1199.276          49.000  
  22439490.574   117920442.665       -1199.310          49.000  
  22439506.262   117920397.780       -1199.289          49.000  
  22439506.616   117920465.510       -1199.295          49.000  
  22439507.442   117920446.293       -1199.302          49.000  
  22439494.571   117920395.889       -1199.296          49.000  
  22439512.410   117920462.973       -1199.288          49.000  
  22493732.105   118205370.259       -1199.142          35.000  
  22518938.163                       -1199.179          35.000  
  22351899.003   117460023.6642      -1199.263          35.000  
  22574610.998   118630377.333       -1199.316          38.000  
  22450942.116   117980503.374       -1199.281          39.000  
  22550580.526   118504130.615       -1199.174          35.000  
  22446727.322   117958344.215       -1199.228          36.000  
  22468524.774   118075912.826       -1199.410          36.000  
  22435119.099   117897372.639       -1199.189          36.000  
  22574025.992   118627307.752       -1199.315          39.000  
  22323762.717   117312164.8142      -1199.152          41.000  
 25  8 16 11 43 44.8020000  0 19G 1G 3G 2G 4G 5G 6G 7G 8G26G13G12G21
                                G10G31G24G17G20G27G25
  22439558.491   117920687.213       -1199.406          48.000  
  22439505.977   117920706.579       -1199.372          49.000  
  22439535.586   117920682.521       -1199.406          49.000  
  22439551.894   117920637.636       -1199.344          49.000  
  22439552.272   117920705.367       -1199.379          49.000  
  22439553.076   117920686.149       -1199.365          49.000  
  22439539.666   117920635.746       -1199.399          49.000  
  22439558.054   117920702.830       -1199.386          49.000  
  22493777.717   118205610.125       -1199.434          35.000  
  22518984.659                       -1199.179          35.000  
  22351944.509   117460263.5252      -1199.388          35.000  
  22574656.626   118630617.189       -1199.340          38.000  
  22450987.741   117980743.233       -1199.485          39.000  
  22550626.118   118504370.479       -1199.532          35.000  
  22446772.976   117958584.076       -1199.470          37.000  
  22468570.421   118076152.675       -1199.427          36.000  
  22435164.610   117897612.499       -1199.458          37.000  
  22574071.540   118627547.611       -1199.437          39.000  
  22323808.427   117312404.6772      -1199.469          41.000  
 25  8 16 11 43 45.0020000  0 20G 1G 3G 2G 4G 5G 6G 7G 8G26G13G12G21
                                G10G31G 9G24G17G20G27G25
  22439604.086   117920927.066       -1199.174          48.000  
  22439551.617   117920946.430       -1199.142          49.000  
  22439580.589   117920922.376       -1199.212          49.000  
  22439597.487   117920877.487       -1199.155          49.000  
  22439597.889   117920945.221       -1199.187          49.000  
  22439598.665   117920926.002       -1199.187          49.000  
  22439584.852   117920875.603       -1199.252          49.000  
  22439603.677   117920942.685       -1199.214          49.000  
  22493823.315   118205849.972       -1199.118          35.000  
  22519029.402                       -1199.179          35.000  
  22351990.024   117460503.3912      -1199.429          35.000  
  22574702.262   118630857.057       -1199.413          38.000  
  22451033.360   117980983.086       -1199.246          39.000  
  22550671.678   118504610.320       -1199.081          35.000  
  22483562.696   118151919.1451      -1199.155          34.000  
  22446818.639   117958823.917       -1199.098          37.000  
  22468616.091   118076392.527       -1199.140          36.000  
  22435210.156   117897852.351       -1199.220          37.000  
  22574117.164   118627787.467       -1199.307          39.000  
  22323853.951   117312644.5232      -1199.108          41.000  
 25  8 16 11 43 45.2020000  0 20G 1G 3G 2G 4G 5G 6G 7G 8G26G13G12G21
                                G10G31G 9G24G17G20G27G25
  22439649.682   117921166.938       -1199.615          48.000  
  22439597.278   117921186.302       -1199.525          49.000  
  22439625.638   117921162.247       -1199.630          49.000  
  22439643.117   117921117.355       -1199.426          49.000  
  22439643.573   117921185.094       -1199.602          49.000  
  22439644.316   117921165.872       -1199.510          49.000  
  22439630.001   117921115.472       -1199.630          49.000  
  22439649.340   117921182.551       -1199.492          49.000  
  22493868.900   118206089.830       -1199.237          35.000  
  22519071.540                       -1199.179          35.000  
  22352035.544   117460743.2372      -1199.513          35.000  
  22574747.945   118631096.924       -1199.817          38.000  
  22451079.008   117981222.971       -1199.855          39.000  
  22550717.240   118504850.204       -1199.706          35.000  
  22483608.316   118152159.056       -1200.185          34.000  
  22446864.305   117959063.803       -1199.690          37.000  
  22468661.789   118076632.413       -1199.809          36.000  
  22435255.619   117898092.234       -1199.802          37.000  
  22574162.747   118628027.332       -1199.601          39.000  
  22323899.480   117312884.4212      -1199.924          41.000  
 25  8 16 11 43 45.4020000  0 20G 1G 3G 2G 4G 5G 6G 7G 8G26G13G12G21
                                G10G31G 9G24G17G20G27G25
  22439695.383   117921406.800       -1199.365          48.000  
  22439642.941   117921426.168       -1199.356          49.000  
  22439670.700   117921402.108       -1199.338          49.000  
  22439688.698   117921357.223       -1199.342          49.000  
  22439689.179   117921424.957       -1199.338          49.000  
  22439689.891   117921405.737       -1199.342          49.000  
  22439675.081   117921355.334       -1199.332          49.000  
  22439694.970   117921422.417       -1199.351          49.000  
  22493914.530   118206329.700       -1199.406          35.000  
  22519116.511                       -1199.179          35.000  
  22352081.097   117460983.0972      -1199.084          35.000  
  22574793.602   118631336.781       -1199.205          38.000  
  22451124.677   117981462.828       -1199.290          39.000  
  22550762.803   118505090.065       -1199.352          35.000  
  22483653.917   118152398.902       -1199.234          34.000  
  22446909.989   117959303.667       -1199.453          37.000  
  22468707.467   118076872.273       -1199.413          36.000  
  22435301.168   117898332.093       -1199.273          37.000  
  22574208.355   118628267.195       -1199.330          39.000  
  22323945.049   117313124.2812      -1199.433          41.000  
 25  8 16 11 43 45.6020000  0 20G 1G 3G 2G 4G 5G 6G 7G 8G26G13G12G21
                                G10G31G 9G24G17G20G27G25
  22439740.958   117921646.665       -1199.337          48.000  
  22439688.577   117921666.032       -1199.365          49.000  
  22439715.718   117921641.975       -1199.369          49.000  
  22439734.295   117921597.087       -1199.351          49.000  
  22439734.829   117921664.824       -1199.370          49.000  
  22439735.507   117921645.601       -1199.345          49.000  
  22439720.143   117921595.202       -1199.375          49.000  
  22439740.612   117921662.282       -1199.356          49.000  
  22493960.140   118206569.563       -1199.415          35.000  
  22519163.153                       -1199.179          35.000  
  22352126.624   117461222.9812      -1199.426          35.000  
  22574839.274   118631576.657       -1199.420          38.000  
  22451170.350   117981702.702       -1199.413          39.000  
  22550808.418   118505329.924       -1199.266          35.000  
  22483699.506   118152638.772       -1199.248          34.000  
  22446955.658   117959543.522       -1199.345          37.000  
  22468753.126   118077112.131       -1199.233          36.000  
  22435346.751   117898571.957       -1199.319          37.000  
  22574253.949   118628507.060       -1199.349          39.000  
  22323990.579   117313364.1382      -1199.237          41.000  
 25  8 16 11 43 45.8020000  0 21G 1G 3G 2G 4G 5G 6G 7G 8G26G13G12G21
                                G10G31G 9G24G17G20G19G27G25
  22439786.561   117921886.518       -1199.317          48.000  
  22439734.202   117921905.886       -1199.342          49.000  
  22439760.803   117921881.829       -1199.342          49.000  
  22439779.904   117921836.941       -1199.323          49.000  
  22439780.477   117921904.677       -1199.296          49.000  
  22439781.097   117921885.456       -1199.329          49.000  
  22439765.268   117921835.055       -1199.315          49.000  
  22439786.257   117921902.136       -1199.316          49.000  
  22494005.783   118206809.412       -1199.362          35.000  
  22519210.862                       -1199.179          35.000  
  22352172.216   117461462.8362      -1199.367          35.000  
  22574884.948   118631816.511       -1199.314          38.000  
  22451215.980   117981942.554       -1199.375          39.000  
  22550854.022   118505569.778       -1199.336          35.000  
  22483745.070   118152878.622       -1199.292          34.000  
  22447001.313   117959783.373       -1199.321          37.000  
  22468798.776   118077351.987       -1199.311          36.000  
  22435392.393   117898811.812       -1199.336          37.000  
  22547461.895   118487711.4512      -4199.353          34.000  
  22574299.524   118628746.914       -1199.328          39.000  
  22324036.134   117313603.9882      -1199.275          41.000  
 25  8 16 11 43 46.0020000  0 21G 1G 3G 2G 4G 5G 6G 7G 8G26G13G12G21
                                G10G31G 9G24G17G20G19G27G25
  22439832.153   117922126.367       -1199.251          48.000  
  22439779.849   117922145.733       -1199.253          49.000  
  22439805.816   117922121.677       -1199.250          49.000  
  22439825.451   117922076.789       -1199.250          49.000  
  22439826.115   117922144.527       -1199.259          49.000  
  22439826.682   117922125.304       -1199.244          49.000  
  22439810.404   117922074.904       -1199.265          49.000  
  22439831.888   117922141.985       -1199.265          49.000  
  22494051.384   118207049.261       -1199.230          35.000  
  22519259.107                       -1199.179          36.000  
  22352217.780   117461702.6852      -1199.317          35.000  
  22574930.627   118632056.361       -1199.277          38.000  
  22451261.612   117982182.396       -1199.214          39.000  
  22550899.570   118505809.626       -1199.230          35.000  
  22483790.630   118153118.474       -1199.199          34.000  
  22447046.989   117960023.224       -1199.263          37.000  
  22468844.391   118077591.834       -1199.266          36.000  
  22435438.011   117899051.661       -1199.278          37.000  
  22547506.608   118488551.3012      -4199.119          34.000  
  22574345.146   118628986.762       -1199.263          39.000  
  22324081.702   117313843.8392      -1199.203          41.000  
 25  8 16 11 43 46.2020000  0 21G 1G 3G 2G 4G 5G 6G 7G 8G26G13G12G21
                                G10G31G 9G24G17G20G19G27G25
  22439877.746   117922366.208       -1199.343          48.000  
  22439825.494   117922385.577       -1199.230          49.000  
  22439850.850   117922361.520       -1199.364          49.000  
  22439871.058   117922316.631       -1199.218          49.000  
  22439871.779   117922384.367       -1199.264          49.000  
  22439872.328   117922365.147       -1199.217          49.000  
  22439855.687   117922314.749       -1199.316          49.000  
  22439877.528   117922381.827       -1199.224          49.000  
  22494097.017   118207289.121       -1199.248          35.000  
  22519303.510                       -1199.179          36.000  
  22352263.315   117461942.5202      -1199.232          35.000  
  22574976.312   118632296.208       -1199.253          38.000  
  22451307.219   117982422.229       -1199.385          39.000  
  22550945.090   118506049.480       -1199.336          35.000  
  22483836.231   118153358.293       -1199.462          34.000  
  22447092.647   117960263.064       -1199.397          37.000  
  22468890.079   118077831.696       -1199.359          36.000  
  22435483.544   117899291.490       -1199.418          37.000  
  22547554.481   118489391.1312      -4199.471          34.000  
  22574390.688   118629226.605       -1199.382          39.000  
  22324127.245   117314083.6732      -1199.497          41.000  
 25  8 16 11 43 46.4020000  0 21G 1G 3G 2G 4G 5G 6G 7G 8G26G13G12G21
                                G10G31G 9G24G17G20G19G27G25
  22439923.350   117922606.049       -1199.181          48.000  
  22439871.141   117922625.421       -1199.175          49.000  
  22439895.905   117922601.362       -1199.187          49.000  
  22439916.641   117922556.475       -1199.155          49.000  
  22439917.386   117922624.212       -1199.186          49.000  
  22439917.955   117922604.993       -1199.193          49.000  
  22439900.943   117922554.591       -1199.226          49.000  
  22439923.177   117922621.672       -1199.200          49.000  
  22494142.656   118207528.965       -1199.284          34.000  
  22519346.314                       -1199.179          36.000  
  22352308.850   117462182.3672      -1199.173          35.000  
  22575021.960   118632536.050       -1199.207          38.000  
  22451352.896   117982662.071       -1199.182          39.000  
  22550990.659   118506289.322       -1199.211          35.000  
  22483881.891   118153598.133       -1199.100          34.000  
  22447138.319   117960502.903       -1199.156          37.000  
  22468935.762   118078071.533       -1199.148          36.000  
  22435529.132   117899531.336       -1199.174          37.000  
  22547609.371   118490230.9692      -4199.241          34.000  
  22574436.271   118629466.444       -1199.183          39.000  
  22324172.811   117314323.5092      -1199.110          40.000  
 25  8 16 11 43 46.6020000  0 21G 1G 3G 2G 4G 5G 6G 7G 8G26G13G12G21
                                G10G31G 9G24G17G20G19G27G25
  22439968.920   117922845.883       -1199.171          48.000  
  22439916.780   117922865.255       -1199.160          49.000  
  22439940.950   117922841.196       -1199.199          49.000  
  22439962.283   117922796.308       -1199.173          49.000  
  22439963.036   117922864.044       -1199.132          49.000  
  22439963.598   117922844.826       -1199.166          49.000  
  22439946.276   117922794.423       -1199.153          49.000  
  22439968.809   117922861.504       -1199.139          49.000  
  22494188.290   118207768.792       -1199.072          34.000  
  22519390.256                       -1199.179          36.000  
  22352354.398   117462422.2022      -1199.144          35.000  
  22575067.625   118632775.885       -1199.179          38.000  
  22451398.509   117982901.902       -1199.092          39.000  
  22551036.225   118506529.152       -1199.197          35.000  
  22483927.508   118153837.970       -1199.203          34.000  
  22447183.996   117960742.737       -1199.304          36.000  
  22468981.413   118078311.363       -1199.223          36.000  
  22435574.712   117899771.171       -1199.281          37.000  
  22547683.524   118491070.8152      -4199.182          34.000  
  22574481.786   118629706.279       -1199.202          39.000  
  22324218.288   117314563.3432      -1199.189          40.000  
 25  8 16 11 43 46.8020000  0 21G 1G 3G 2G 4G 5G 6G 7G 8G26G13G12G21
                                G10G31G 9G24G17G20G19G27G25
  22440014.539   117923085.739       -1199.484          48.000  
  22439962.423   117923105.107       -1199.386          49.000  
  22439985.990   117923081.050       -1199.424          49.000  
  22440007.893   117923036.162       -1199.379          49.000  
  22440008.680   117923103.896       -1199.352          49.000  
  22440009.251   117923084.679       -1199.371          49.000  
  22439991.435   117923034.277       -1199.425          49.000  
  22440014.457   117923101.357       -1199.365          49.000  
  22494233.911   118208008.652       -1199.454          34.000  
  22519435.059                       -1199.179          36.000  
  22352399.990   117462662.0502      -1199.230          35.000  
  22575113.316   118633015.737       -1199.423          38.000  
  22451444.158   117983141.758       -1199.398          39.000  
  22551081.774   118506769.008       -1199.436          35.000  
  22483973.111   118154077.826       -1199.522          34.000  
  22447229.656   117960982.591       -1199.538          36.000  
  22469027.109   118078551.227       -1199.634          36.000  
  22435620.291   117900011.024       -1199.567          37.000  
  22547767.252   118491910.6732      -4199.386          34.000  
  22574527.385   118629946.135       -1199.489          39.000  
  22324263.875   117314803.2032      -1199.603          40.000  
 25  8 16 11 43 47.0020000  0 21G 1G 3G 2G 4G 5G 6G 7G 8G26G13G12G21
                                G10G31G 9G24G17G20G19G27G25
  22440060.126   117923325.582       -1199.327          48.000  
  22440008.066   117923344.942       -1199.078          49.000  
  22440031.164   117923320.884       -1199.152          49.000  
  22440053.476   117923276.004       -1199.209          49.000  
  22440054.313   117923343.735       -1199.190          49.000  
  22440054.846   117923324.511       -1199.080          49.000  
  22440036.744   117923274.119       -1199.287          49.000  
  22440060.093   117923341.202       -1199.280          49.000  
  22494279.481   118208248.495       -1199.282          34.000  
  22519480.190                       -1199.179          36.000  
  22352445.520   117462901.8862      -1199.297          35.000  
  22575158.956   118633255.579       -1199.432          38.000  
  22451489.775   117983381.613       -1199.515          39.000  
  22551127.362   118507008.849       -1199.187          35.000  
  22484018.704   118154317.647       -1198.971          34.000  
  22447275.347   117961222.434       -1199.200          36.000  
  22469072.757   118078791.046       -1198.792          36.000  
  22435665.852   117900250.886       -1199.490          37.000  
  22547872.348   118492750.6422      -4201.344          34.000  
  22574572.953   118630185.962       -1199.023          39.000  
  22324309.396   117315043.0332      -1198.961          40.000  
 25  8 16 11 43 47.2020000  0 21G 1G 3G 2G 4G 5G 6G 7G 8G26G13G12G21
                                G10G31G 9G24G17G20G19G27G25
  22440105.687   117923565.431       -1199.258          48.000  
  22440053.720   117923584.796       -1199.310          49.000  
  22440076.360   117923560.737       -1199.302          49.000  
  22440099.070   117923515.853       -1199.265          49.000  
  22440099.938   117923583.587       -1199.283          49.000  
  22440100.493   117923564.364       -1199.290          49.000  
  22440082.949   117923513.966       -1199.245          49.000  
  22440105.743   117923581.053       -1199.284          49.000  
  22494325.156   118208488.347       -1199.178          34.000  
  22519529.054                       -1199.179          36.000  
  22352491.083   117463141.7322      -1199.292          35.000  
  22575204.614   118633495.427       -1199.232          38.000  
  22451535.392   117983621.459       -1199.214          39.000  
  22551172.946   118507248.707       -1199.379          35.000  
  22484064.298   118154557.507       -1199.225          33.000  
  22447321.005   117961462.285       -1199.317          36.000  
  22469118.413   118079030.908       -1199.409          36.000  
  22435711.476   117900490.735       -1199.247          37.000  
  22547989.639   118493590.4612      -4198.928          33.000  
  22574618.496   118630425.816       -1199.280          39.000  
  22324354.902   117315282.8932      -1199.338          40.000  
 25  8 16 11 43 47.4020000  0 20G 1G 3G 2G 4G 5G 6G 7G 8G26G13G12G21
                                G10G31G 9G24G17G20G27G25
  22440151.292   117923805.269       -1199.209          48.000  
  22440099.362   117923824.634       -1199.256          49.000  
  22440121.434   117923800.575       -1199.241          49.000  
  22440144.636   117923755.694       -1199.255          49.000  
  22440145.571   117923823.424       -1199.223          49.000  
  22440146.095   117923804.201       -1199.202          49.000  
  22440129.040   117923753.807       -1199.282          49.000  
  22440151.390   117923820.891       -1199.229          49.000  
  22494370.797   118208728.185       -1199.216          34.000  
  22519578.124                       -1199.179          36.000  
  22352536.655   117463381.5672      -1199.189          35.000  
  22575250.224   118633735.272       -1199.331          38.000  
  22451581.076   117983861.297       -1199.181          39.000  
  22551218.533   118507488.540       -1199.290          35.000  
  22484109.944   118154797.352       -1199.391          33.000  
  22447366.671   117961702.119       -1199.156          37.000  
  22469164.042   118079270.740       -1199.270          36.000  
  22435757.037   117900730.577       -1199.286          37.000  
  22574664.084   118630665.655       -1199.321          39.000  
  22324400.506   117315522.7292      -1199.268          40.000  
 25  8 16 11 43 47.6020000  0 20G 1G 3G 2G 4G 5G 6G 7G 8G26G13G12G21
                                G10G31G 9G24G17G20G27G25
  22440196.859   117924045.117       -1199.329          48.000  
  22440145.008   117924064.481       -1199.305          49.000  
  22440166.535   117924040.423       -1199.296          49.000  
  22440190.256   117923995.540       -1199.284          49.000  
  22440191.199   117924063.271       -1199.285          49.000  
  22440191.717   117924044.049       -1199.277          49.000  
  22440175.194   117923993.652       -1199.305          48.000  
  22440197.014   117924060.739       -1199.297          49.000  
  22494416.470   118208968.035       -1199.261          34.000  
  22519626.608                       -1199.179          36.000  
  22352582.213   117463621.4182      -1199.338          35.000  
  22575295.877   118633975.109       -1199.292          38.000  
  22451626.648   117984101.146       -1199.349          39.000  
  22551264.124   118507728.385       -1199.312          34.000  
  22484155.531   118155037.195       -1199.391          33.000  
  22447412.348   117961941.971       -1199.370          37.000  
  22469209.659   118079510.589       -1199.357          36.000  
  22435802.651   117900970.424       -1199.351          37.000  
  22574709.616   118630905.502       -1199.309          39.000  
  22324446.091   117315762.5812      -1199.381          40.000  
 25  8 16 11 43 47.8020000  0 20G 1G 3G 2G 4G 5G 6G 7G 8G26G13G12G21
                                G10G31G 9G24G17G20G27G25
  22440242.519   117924284.972       -1199.492          48.000  
  22440190.644   117924304.339       -1199.477          49.000  
  22440211.707   117924280.281       -1199.444          49.000  
  22440235.893   117924235.401       -1199.471          49.000  
  22440236.849   117924303.130       -1199.412          49.000  
  22440237.371   117924283.908       -1199.479          49.000  
  22440221.260   117924233.512       -1199.465          48.000  
  22440242.665   117924300.597       -1199.419          49.000  
  22494462.096   118209207.892       -1199.498          34.000  
  22519674.237                       -1199.179          36.000  
  22352627.786   117463861.2712      -1199.222          35.000  
  22575341.535   118634214.967       -1199.374          38.000  
  22451672.303   117984341.000       -1199.422          38.000  
  22551309.699   118507968.240       -1199.417          34.000  
  22484201.153   118155277.055       -1199.698          33.000  
  22447457.991   117962181.829       -1199.645          37.000  
  22469255.351   118079750.448       -1199.670          36.000  
  22435848.212   117901210.280       -1199.566          37.000  
  22574755.243   118631145.359       -1199.456          39.000  
  22324491.676   117316002.4382      -1199.723          40.000  
 25  8 16 11 43 48.0020000  0 20G 1G 3G 2G 4G 5G 6G 7G 8G26G13G12G21
                                G10G31G 9G24G17G20G27G25
  22440288.081   117924524.832       -1199.258          48.000  
  22440236.300   117924544.200       -1199.266          49.000  
  22440257.235   117924520.146       -1199.277          49.000  
  22440281.521   117924475.255       -1199.260          49.000  
  22440282.473   117924542.994       -1199.304          49.000  
  22440282.971   117924523.769       -1199.272          49.000  
  22440266.735   117924473.368       -1199.315          48.000  
  22440288.265   117924540.453       -1199.333          49.000  
  22494507.675   118209447.726       -1199.415          34.000  
  22519722.790                       -1199.179          36.000  
  22352673.341   117464101.1572      -1199.498          35.000  
  22575387.169   118634454.821       -1199.375          38.000  
  22451717.893   117984580.865       -1199.210          39.000  
  22551355.282   118508208.097       -1199.301          34.000  
  22484246.780   118155516.943       -1199.048          33.000  
  22447503.662   117962421.689       -1199.201          37.000  
  22469301.003   118079990.306       -1199.208          36.000  
  22435893.779   117901450.128       -1199.253          37.000  
  22574800.809   118631385.231       -1199.240          39.000  
  22324537.227   117316242.3092      -1199.048          40.000  
 25  8 16 11 43 48.2020000  0 20G 1G 3G 2G 4G 5G 6G 7G 8G26G13G12G21
                                G10G31G 9G24G17G20G27G25
  22440333.750   117924764.658       -1199.221          48.000  
  22440281.929   117924784.023       -1199.135          49.000  
  22440303.120   117924759.969       -1199.222          49.000  
  22440327.142   117924715.078       -1199.155          49.000  
  22440328.111   117924782.816       -1199.177          49.000  
  22440328.616   117924763.592       -1199.162          49.000  
  22440312.021   117924713.191       -1199.190          49.000  
  22440333.914   117924780.276       -1199.175          49.000  
  22494553.289   118209687.543       -1199.026          35.000  
  22519771.319                       -1199.179          36.000  
  22352718.892   117464340.9672      -1199.366          35.000  
  22575432.802   118634694.642       -1199.202          38.000  
  22451763.633   117984820.692       -1199.241          39.000  
  22551400.914   118508447.922       -1199.214          35.000  
  22484292.386   118155756.772       -1199.259          34.000  
  22447549.338   117962661.516       -1199.236          37.000  
  22469346.643   118080230.136       -1199.125          36.000  
  22435939.334   117901689.955       -1199.188          37.000  
  22574846.421   118631625.051       -1199.208          39.000  
  22324582.796   117316482.1402      -1199.226          41.000  
 25  8 16 11 43 48.4020000  0 20G 1G 3G 2G 4G 5G 6G 7G 8G26G13G12G21
                                G10G31G 9G24G17G20G27G25
  22440379.323   117925004.515       -1199.381          48.000  
  22440327.565   117925023.883       -1199.380          49.000  
  22440349.002   117924999.823       -1199.335          49.000  
  22440372.741   117924954.937       -1199.396          49.000  
  22440373.747   117925022.674       -1199.402          49.000  
  22440374.239   117925003.451       -1199.393          49.000  
  22440357.442   117924953.049       -1199.393          49.000  
  22440379.529   117925020.131       -1199.369          49.000  
  22494598.881   118209927.413       -1199.363          35.000  
  22519819.571                       -1199.179          36.000  
  22352764.441   117464580.8162      -1199.348          35.000  
  22575478.453   118634934.495       -1199.357          38.000  
  22451809.264   117985060.545       -1199.328          39.000  
  22551446.509   118508687.782       -1199.389          35.000  
  22484337.964   118155996.627       -1199.334          34.000  
  22447594.997   117962901.376       -1199.345          37.000  
  22469392.262   118080469.991       -1199.387          36.000  
  22435984.932   117901929.815       -1199.384          37.000  
  22574891.964   118631864.908       -1199.393          39.000  
  22324628.299   117316722.0012      -1199.430          41.000  
 25  8 16 11 43 48.6020000  0 20G 1G 3G 2G 4G 5G 6G 7G 8G26G13G12G21
                                G10G31G 9G24G17G20G27G25
  22440424.969   117925244.357       -1199.280          48.000  
  22440373.220   117925263.726       -1199.300          49.000  
  22440394.890   117925239.670       -1199.338          49.000  
  22440418.320   117925194.779       -1199.280          49.000  
  22440419.395   117925262.519       -1199.339          49.000  
  22440419.852   117925243.295       -1199.314          49.000  
  22440403.002   117925192.893       -1199.341          49.000  
  22440425.161   117925259.978       -1199.359          49.000  
  22494644.504   118210167.250       -1199.156          35.000  
  22519867.673                       -1199.179          36.000  
  22352810.031   117464820.6722      -1199.511          35.000  
  22575524.132   118635174.345       -1199.396          38.000  
  22451854.888   117985300.394       -1199.393          39.000  
  22551492.100   118508927.623       -1199.299          35.000  
  22484383.563   118156236.473       -1199.319          34.000  
  22447640.648   117963141.216       -1199.255          37.000  
  22469437.893   118080709.835       -1199.244          36.000  
  22436030.512   117902169.652       -1199.214          37.000  
  22574937.576   118632104.754       -1199.410          39.000  
  22324673.878   117316961.8352      -1199.215          41.000  
 25  8 16 11 43 48.8020000  0 20G 1G 3G 2G 4G 5G 6G 7G 8G26G13G12G21
                                G10G31G 9G24G17G20G27G25
  22440470.593   117925484.207       -1199.271          48.000  
  22440418.861   117925503.582       -1199.423          49.000  
  22440440.421   117925479.518       -1199.278          49.000  
  22440463.907   117925434.635       -1199.381          49.000  
  22440465.039   117925502.371       -1199.357          49.000  
  22440465.446   117925483.145       -1199.331          49.000  
  22440448.498   117925432.744       -1199.278          49.000  
  22440470.806   117925499.831       -1199.381          49.000  
  22494690.123   118210407.116       -1199.536          35.000  
  22519915.771                       -1199.179          36.000  
  22352855.617   117465060.547       -1199.764          35.000  
  22575569.780   118635414.185       -1199.137          38.000  
  22451900.548   117985540.214       -1198.804          39.000  
  22551537.689   118509167.448       -1198.911          35.000  
  22484429.194   118156476.335       -1199.561          34.000  
  22447686.313   117963381.089       -1199.628          37.000  
  22469483.501   118080949.653       -1198.821          37.000  
  22436076.089   117902409.513       -1199.508          37.000  
  22574983.117   118632344.604       -1199.263          39.000  
  22324719.486   117317201.6802      -1199.182          41.000  
 25  8 16 11 43 49.0020000  0 20G 1G 3G 2G 4G 5G 6G 7G 8G26G13G12G21
                                G10G31G 9G24G17G20G27G25
  22440516.251   117925724.055       -1199.385          48.000  
  22440464.510   117925743.430       -1199.396          49.000  
  22440485.518   117925719.371       -1199.415          49.000  
  22440509.540   117925674.483       -1199.328          49.000  
  22440510.699   117925742.220       -1199.383          49.000  
  22440511.092   117925722.995       -1199.387          49.000  
  22440494.206   117925672.595       -1199.409          49.000  
  22440516.439   117925739.682       -1199.374          49.000  
  22494735.753   118210646.971       -1199.400          35.000  
  22519962.259                       -1199.179          36.000  
  22352901.150   117465300.395       -1199.448          35.000  
  22575615.468   118635654.044       -1199.493          38.000  
  22451946.186   117985780.074       -1199.472          39.000  
  22551583.245   118509407.301       -1199.471          35.000  
  22484474.791   118156716.178       -1199.226          34.000  
  22447731.978   117963620.934       -1199.432          37.000  
  22469529.206   118081189.515       -1199.564          37.000  
  22436121.666   117902649.360       -1199.376          36.000  
  22575028.712   118632584.457       -1199.432          39.000  
  22324764.991   117317441.5312      -1199.372          41.000  
 25  8 16 11 43 49.2020000  0 20G 1G 3G 2G 4G 5G 6G 7G 8G26G13G12G21
                                G10G31G 9G24G17G20G27G25
  22440561.865   117925963.904       -1199.179          48.000  
  22440510.151   117925983.275       -1199.228          49.000  
  22440530.736   117925959.216       -1199.220          49.000  
  22440555.133   117925914.332       -1199.244          49.000  
  22440556.303   117925982.067       -1199.224          49.000  
  22440556.679   117925962.841       -1199.213          49.000  
  22440539.932   117925912.440       -1199.214          49.000  
  22440562.046   117925979.528       -1199.218          49.000  
  22494781.409   118210886.809       -1199.159          35.000  
  22520005.246                       -1199.179          36.000  
  22352946.714   117465540.236       -1199.317          35.000  
  22575661.095   118635893.882       -1199.319          38.000  
  22451991.822   117986019.916       -1199.202          39.000  
  22551628.835   118509647.145       -1199.142          35.000  
  22484520.371   118156956.030       -1199.142          34.000  
  22447777.651   117963860.779       -1199.116          37.000  
  22469574.841   118081429.354       -1199.131          37.000  
  22436167.265   117902889.211       -1199.225          36.000  
  22575074.324   118632824.301       -1199.199          39.000  
  22324810.560   117317681.3812      -1199.141          41.000  
 25  8 16 11 43 49.4020000  0 19G 1G 3G 2G 4G 5G 6G 7G 8G26G13G12G21
                                G10G 9G24G17G20G27G25
  22440607.472   117926203.766       -1199.343          48.000  
  22440555.804   117926223.134       -1199.246          49.000  
  22440576.051   117926199.077       -1199.304          49.000  
  22440600.746   117926154.191       -1199.308          49.000  
  22440601.945   117926221.925       -1199.299          49.000  
  22440602.305   117926202.700       -1199.260          49.000  
  22440585.498   117926152.301       -1199.285          49.000  
  22440607.685   117926219.385       -1199.254          49.000  
  22494827.039   118211126.670       -1199.267          34.000  
  22520049.006                       -1199.179          36.000  
  22352992.256   117465780.095       -1199.295          35.000  
  22575706.745   118636133.740       -1199.244          38.000  
  22452037.460   117986259.777       -1199.304          39.000  
  22484566.002   118157195.893       -1199.296          34.000  
  22447823.328   117964100.650       -1199.333          37.000  
  22469620.555   118081669.226       -1199.386          37.000  
  22436212.862   117903129.067       -1199.238          36.000  
  22575119.873   118633064.161       -1199.271          39.000  
  22324856.096   117317921.245       -1199.304          41.000  
 25  8 16 11 43 49.6020000  0 19G 1G 3G 2G 4G 5G 6G 7G 8G26G13G12G21
                                G10G 9G24G17G20G27G25
  22440653.108   117926443.613       -1199.258          48.000  
  22440601.456   117926462.985       -1199.251          49.000  
  22440621.427   117926438.927       -1199.285          49.000  
  22440646.300   117926394.043       -1199.271          49.000  
  22440647.556   117926461.774       -1199.240          49.000  
  22440647.917   117926442.552       -1199.279          49.000  
  22440631.067   117926392.149       -1199.306          49.000  
  22440653.333   117926459.237       -1199.260          49.000  
  22494872.691   118211366.527       -1199.269          34.000  
  22520093.693                       -1199.179          36.000  
  22353037.823   117466019.934       -1199.156          35.000  
  22575752.394   118636373.587       -1199.234          38.000  
  22452083.143   117986499.626       -1199.278          39.000  
  22484611.634   118157435.742       -1199.242          34.000  
  22447868.986   117964340.500       -1199.367          37.000  
  22469666.219   118081909.070       -1199.277          37.000  
  22436258.414   117903368.917       -1199.232          36.000  
  22575165.467   118633304.011       -1199.293          39.000  
  22324901.660   117318161.100       -1199.339          41.000  
 25  8 16 11 43 49.8020000  0 19G 1G 3G 2G 4G 5G 6G 7G 8G26G13G12G21
                                G10G 9G24G17G20G27G25
  22440698.725   117926683.443       -1199.190          48.000  
  22440647.092   117926702.811       -1199.191          49.000  
  22440667.126   117926678.751       -1199.093          49.000  
  22440691.941   117926633.874       -1199.200          49.000  
  22440693.216   117926701.600       -1199.212          49.000  
  22440693.533   117926682.382       -1199.180          49.000  
  22440676.592   117926631.974       -1199.119          49.000  
  22440698.976   117926699.063       -1199.158          49.000  
  22494918.289   118211606.350       -1199.365          34.000  
  22520136.001                       -1199.179          36.000  
  22353083.356   117466259.753       -1199.001          35.000  
  22575798.001   118636613.423       -1199.062          38.000  
  22452128.761   117986739.461       -1199.054          39.000  
  22484657.231   118157675.529       -1199.445          34.000  
  22447914.622   117964580.302       -1199.328          37.000  
  22469711.850   118082148.913       -1199.103          37.000  
  22436303.945   117903608.730       -1199.326          36.000  
  22575211.040   118633543.838       -1199.031          39.000  
  22324947.200   117318400.908       -1199.352          41.000  
 25  8 16 11 43 50.0020000  0 19G 1G 3G 2G 4G 5G 6G 7G 8G26G13G12G21
                                G10G 9G24G17G20G27G25
  22440744.412   117926923.297       -1199.410          48.000  
  22440692.739   117926942.666       -1199.435          49.000  
  22440713.034   117926918.607       -1199.403          49.000  
  22440737.584   117926873.727       -1199.435          49.000  
  22440738.861   117926941.454       -1199.429          49.000  
  22440739.183   117926922.235       -1199.442          49.000  
  22440722.289   117926871.830       -1199.411          49.000  
  22440744.624   117926938.918       -1199.443          49.000  
  22494963.879   118211846.197       -1199.226          35.000  
  22520177.021                       -1199.179          36.000  
  22353128.942   117466499.609       -1199.354          35.000  
  22575843.655   118636853.276       -1199.418          38.000  
  22452174.436   117986979.321       -1199.508          39.000  
  22484702.853   118157915.384       -1199.339          34.000  
  22447960.272   117964820.159       -1199.387          37.000  
  22469757.510   118082388.768       -1199.458          37.000  
  22436349.542   117903848.581       -1199.375          36.000  
  22575256.684   118633783.696       -1199.421          39.000  
  22324992.742   117318640.767       -1199.424          41.000  
 25  8 16 11 43 50.2020000  0 19G 1G 3G 2G 4G 5G 6G 7G 8G26G13G12G21
                                G10G 9G24G17G20G27G25
  22440790.056   117927163.147       -1199.395          48.000  
  22440738.390   117927182.519       -1199.449          49.000  
  22440758.668   117927158.458       -1199.379          49.000  
  22440783.200   117927113.583       -1199.473          49.000  
  22440784.503   117927181.308       -1199.449          49.000  
  22440784.810   117927162.089       -1199.481          49.000  
  22440768.286   117927111.680       -1199.393          49.000  
  22440790.265   117927178.772       -1199.443          49.000  
  22495009.487   118212086.056       -1199.446          35.000  
  22520219.376                       -1199.179          36.000  
  22353174.522   117466739.468       -1199.449          35.000  
  22575889.265   118637093.126       -1199.312          38.000  
  22452220.021   117987219.167       -1199.355          39.000  
  22484748.479   118158155.237       -1199.363          34.000  
  22448005.994   117965060.008       -1199.424          37.000  
  22469803.166   118082628.618       -1199.371          37.000  
  22436395.095   117904088.432       -1199.394          36.000  
  22575302.251   118634023.547       -1199.449          39.000  
  22325038.321   117318880.616       -1199.426          41.000  
 25  8 16 11 43 50.4020000  0 19G 1G 3G 2G 4G 5G 6G 7G 8G26G13G12G21
                                G10G 9G24G17G20G27G25
  22440835.745   117927403.013       -1199.146          48.000  
  22440784.033   117927422.382       -1199.205          49.000  
  22440804.189   117927398.324       -1199.146          49.000  
  22440828.818   117927353.440       -1199.167          49.000  
  22440830.106   117927421.171       -1199.212          49.000  
  22440830.388   117927401.949       -1199.200          49.000  
  22440814.345   117927351.548       -1199.166          49.000  
  22440835.877   117927418.635       -1199.220          49.000  
  22495055.113   118212325.918       -1199.249          35.000  
  22520263.187                       -1199.179          36.000  
  22353220.162   117466979.339       -1199.269          35.000  
  22575934.929   118637332.997       -1199.148          38.000  
  22452265.626   117987459.032       -1199.115          39.000  
  22484794.139   118158395.104       -1199.168          34.000  
  22448051.636   117965299.868       -1199.148          37.000  
  22469848.791   118082868.475       -1199.037          36.000  
  22436440.715   117904328.295       -1199.097          36.000  
  22575347.842   118634263.412       -1199.095          39.000  
  22325083.877   117319120.472       -1199.109          41.000  
 25  8 16 11 43 50.6020000  0 19G 1G 3G 2G 4G 5G 6G 7G 8G26G13G12G21
                                G10G 9G24G17G20G27G25
  22440881.375   117927642.850       -1199.207          48.000  
  22440829.693   117927662.224       -1199.279          49.000  
  22440849.653   117927638.164       -1199.339          49.000  
  22440874.443   117927593.274       -1199.145          49.000  
  22440875.772   117927661.012       -1199.280          49.000  
  22440876.010   117927641.790       -1199.267          49.000  
  22440860.004   117927591.391       -1199.385          49.000  
  22440881.527   117927658.467       -1199.142          49.000  
  22495100.732   118212565.768       -1199.429          35.000  
  22520307.546                       -1199.179          36.000  
  22353265.749   117467219.154       -1199.125          35.000  
  22575980.588   118637572.833       -1199.314          38.000  
  22452311.305   117987698.887       -1199.458          39.000  
  22484839.784   118158634.984       -1199.945          34.000  
  22448097.282   117965539.709       -1199.220          37.000  
  22469894.446   118083108.329       -1199.355          36.000  
  22436486.226   117904568.158       -1199.577          36.000  
  22575393.474   118634503.238       -1199.101          39.000  
  22325129.495   117319360.335       -1199.509          41.000  
 25  8 16 11 43 50.8020000  0 19G 1G 3G 2G 4G 5G 6G 7G 8G26G13G12G21
                                G10G 9G24G17G20G27G25
  22440927.020   117927882.709       -1199.363          48.000  
  22440875.347   117927902.081       -1199.300          49.000  
  22440895.004   117927878.020       -1199.326          49.000  
  22440920.093   117927833.133       -1199.314          49.000  
  22440921.397   117927900.867       -1199.281          49.000  
  22440921.624   117927881.648       -1199.292          49.000  
  22440905.433   117927831.245       -1199.302          49.000  
  22440927.141   117927898.327       -1199.299          49.000  
  22495146.363   118212805.621       -1199.279          35.000  
  22520354.313                       -1199.179          36.000  
  22353311.357   117467459.016       -1199.247          35.000  
  22576026.220   118637812.690       -1199.263          38.000  
  22452356.915   117987938.741       -1199.399          39.000  
  22484885.415   118158874.832       -1199.206          34.000  
  22448142.996   117965779.572       -1199.388          37.000  
  22469940.117   118083348.185       -1199.410          37.000  
  22436531.807   117904808.004       -1199.206          37.000  
  22575439.044   118634743.098       -1199.369          39.000  
  22325175.047   117319600.187       -1199.351          41.000  
 25  8 16 11 43 51.0020000  0 19G 1G 3G 2G 4G 5G 6G 7G 8G26G13G12G21
                                G10G 9G24G17G20G27G25
  22440972.763   117928122.560       -1199.360          48.000  
  22440920.990   117928141.933       -1199.275          49.000  
  22440940.378   117928117.876       -1199.385          49.000  
  22440965.704   117928072.985       -1199.274          49.000  
  22440967.036   117928140.722       -1199.315          49.000  
  22440967.255   117928121.499       -1199.254          49.000  
  22440950.995   117928071.103       -1199.398          49.000  
  22440972.790   117928138.182       -1199.326          49.000  
  22495191.997   118213045.474       -1199.283          35.000  
  22520400.898                       -1199.179          36.000  
  22353356.952   117467698.880       -1199.536          35.000  
  22576071.834   118638052.556       -1199.564          38.000  
  22452402.630   117988178.591       -1199.387          39.000  
  22484931.006   118159114.688       -1199.373          34.000  
  22448188.625   117966019.412       -1199.225          37.000  
  22469985.811   118083588.032       -1199.228          37.000  
  22436577.393   117905047.862       -1199.293          37.000  
  22575484.661   118634982.954       -1199.430          39.000  
  22325220.631   117319840.030       -1199.142          41.000  
 25  8 16 11 43 51.2020000  0 19G 1G 3G 2G 4G 5G 6G 7G 8G26G13G12G21
                                G10G 9G24G17G20G27G25
  22441018.459   117928362.411       -1199.323          48.000  
  22440966.640   117928381.788       -1199.335          49.000  
  22440985.746   117928357.726       -1199.330          49.000  
  22441011.303   117928312.841       -1199.342          49.000  
  22441012.669   117928380.576       -1199.354          49.000  
  22441012.857   117928361.356       -1199.335          49.000  
  22440996.448   117928310.951       -1199.324          49.000  
  22441018.433   117928378.033       -1199.336          49.000  
  22495237.660   118213285.331       -1199.317          35.000  
  22520447.853                       -1199.179          36.000  
  22353402.533   117467938.722       -1199.353          35.000  
  22576117.424   118638292.395       -1199.331          38.000  
  22452448.228   117988418.440       -1199.305          39.000  
  22484976.645   118159354.544       -1199.372          33.000  
  22448234.296   117966259.273       -1199.328          36.000  
  22470031.493   118083827.890       -1199.333          37.000  
  22436622.975   117905287.714       -1199.224          37.000  
  22575530.252   118635222.803       -1199.374          39.000  
  22325266.192   117320079.893       -1199.299          41.000  
 25  8 16 11 43 51.4020000  0 18G 1G 3G 2G 4G 5G 6G 7G 8G26G13G12G21
                                G10G24G17G20G27G25
  22441064.192   117928602.250       -1199.010          48.000  
  22441012.292   117928621.625       -1199.013          49.000  
  22441031.225   117928597.565       -1198.985          49.000  
  22441056.909   117928552.678       -1199.054          49.000  
  22441058.288   117928620.413       -1199.033          49.000  
  22441058.478   117928601.193       -1199.031          49.000  
  22441041.895   117928550.790       -1198.957          49.000  
  22441064.055   117928617.871       -1199.020          49.000  
  22495283.333   118213525.176       -1199.178          35.000  
  22520495.012                       -1199.179          36.000  
  22353448.119   117468178.556       -1198.827          35.000  
  22576163.064   118638532.231       -1198.878          38.000  
  22452493.891   117988658.279       -1198.977          39.000  
  22448279.988   117966499.111       -1199.051          36.000  
  22470077.143   118084067.727       -1199.070          37.000  
  22436668.521   117905527.556       -1198.983          37.000  
  22575575.840   118635462.636       -1198.916          39.000  
  22325311.761   117320319.736       -1199.114          41.000  
 25  8 16 11 43 51.6020000  0 18G 1G 3G 2G 4G 5G 6G 7G 8G26G13G12G21
                                G10G24G17G20G27G25
  22441109.826   117928842.088       -1199.148          48.000  
  22441057.926   117928861.457       -1199.126          49.000  
  22441077.075   117928837.400       -1199.229          49.000  
  22441102.512   117928792.509       -1199.079          49.000  
  22441103.922   117928860.244       -1199.141          49.000  
  22441104.100   117928841.022       -1199.127          49.000  
  22441087.348   117928790.615       -1199.216          49.000  
  22441109.680   117928857.706       -1199.159          49.000  
  22495328.958   118213765.058       -1198.880          35.000  
  22520538.114                       -1199.179          36.000  
  22353493.671   117468418.394       -1199.251          36.000  
  22576208.701   118638772.063       -1199.186          38.000  
  22452539.505   117988898.115       -1199.170          39.000  
  22448325.643   117966738.944       -1199.110          36.000  
  22470122.783   118084307.513       -1199.302          37.000  
  22436714.059   117905767.383       -1199.146          37.000  
  22575621.406   118635702.468       -1199.339          39.000  
  22325357.354   117320559.547       -1199.071          41.000  
 25  8 16 11 43 51.8020000  0 18G 1G 3G 2G 4G 5G 6G 7G 8G26G13G12G21
                                G10G24G17G20G27G25
  22441155.477   117929081.939       -1199.333          48.000  
  22441103.580   117929101.306       -1199.201          49.000  
  22441123.128   117929077.254       -1199.344          49.000  
  22441148.137   117929032.360       -1199.209          49.000  
  22441149.572   117929100.094       -1199.208          49.000  
  22441149.736   117929080.872       -1199.208          49.000  
  22441132.645   117929030.469       -1199.304          49.000  
  22441155.328   117929097.556       -1199.228          49.000  
  22495374.617   118214004.916       -1199.582          35.000  
  22520580.685                       -1199.179          36.000  
  22353539.297   117468658.242       -1199.273          36.000  
  22576254.359   118639011.923       -1199.366          39.000  
  22452585.175   117989137.968       -1199.412          39.000  
  22448371.314   117966978.796       -1199.327          37.000  
  22470168.394   118084547.365       -1199.183          37.000  
  22436759.729   117906007.235       -1199.268          37.000  
  22575667.007   118635942.315       -1199.182          39.000  
  22325402.927   117320799.396       -1199.291          41.000  
 25  8 16 11 43 52.0020000  0 18G 1G 3G 2G 4G 5G 6G 7G 8G26G13G12G21
                                G10G24G17G20G27G25
  22441201.089   117929321.779       -1199.261          48.000  
  22441149.227   117929341.151       -1199.254          49.000  
  22441169.136   117929317.094       -1199.286          49.000  
  22441193.760   117929272.205       -1199.261          49.000  
  22441195.216   117929339.938       -1199.240          49.000  
  22441195.341   117929320.717       -1199.254          49.000  
  22441178.018   117929270.309       -1199.293          49.000  
  22441200.968   117929337.398       -1199.220          49.000  
  22495420.284   118214244.748       -1199.374          35.000  
  22520624.548                       -1199.179          36.000  
  22353584.881   117468898.087       -1199.317          36.000  
  22576300.018   118639251.759       -1199.318          39.000  
  22452630.823   117989377.798       -1199.168          38.000  
  22448416.994   117967218.638       -1199.355          37.000  
  22470214.022   118084787.216       -1199.402          37.000  
  22436805.367   117906247.086       -1199.376          37.000  
  22575712.631   118636182.163       -1199.285          38.000  
  22325448.523   117321039.238       -1199.251          41.000  
 25  8 16 11 43 52.2020000  0 18G 1G 3G 2G 4G 5G 6G 7G 8G26G13G12G21
                                G10G24G17G20G27G25
  22441246.725   117929561.617       -1199.163          48.000  
  22441194.871   117929580.988       -1199.171          49.000  
  22441215.170   117929556.929       -1199.165          48.000  
  22441239.338   117929512.043       -1199.171          49.000  
  22441240.814   117929579.775       -1199.158          49.000  
  22441240.944   117929560.555       -1199.163          49.000  
  22441223.374   117929510.145       -1199.158          49.000  
  22441246.565   117929577.234       -1199.151          49.000  
  22495465.980   118214484.586       -1199.244          35.000  
  22520669.311                       -1199.179          36.000  
  22353630.475   117469137.919       -1199.171          36.000  
  22576345.648   118639491.590       -1199.160          39.000  
  22452676.476   117989617.643       -1199.200          38.000  
  22448462.669   117967458.476       -1199.177          37.000  
  22470259.683   118085027.052       -1199.155          36.000  
  22436851.000   117906486.925       -1199.221          37.000  
  22575758.221   118636421.997       -1199.085          38.000  
  22325494.037   117321279.085       -1199.239          41.000  
 25  8 16 11 43 52.4020000  0 18G 1G 3G 2G 4G 5G 6G 7G 8G26G13G12G21
                                G10G24G17G20G27G25
  22441292.386   117929801.473       -1199.346          48.000  
  22441240.511   117929820.840       -1199.269          49.000  
  22441261.131   117929796.788       -1199.365          48.000  
  22441284.933   117929751.896       -1199.276          49.000  
  22441286.464   117929819.634       -1199.379          49.000  
  22441286.550   117929800.408       -1199.296          49.000  
  22441268.869   117929750.009       -1199.450          49.000  
  22441292.197   117929817.091       -1199.329          49.000  
  22495511.689   118214724.382       -1198.467          35.000  
  22520715.877                       -1199.179          36.000  
  22353676.085   117469377.777       -1199.393          36.000  
  22576391.276   118639731.446       -1199.324          39.000  
  22452722.163   117989857.516       -1199.618          38.000  
  22448508.307   117967698.326       -1199.257          37.000  
  22470305.348   118085266.938       -1199.839          36.000  
  22436896.637   117906726.784       -1199.424          37.000  
  22575803.874   118636661.872       -1199.570          38.000  
  22325539.629   117321518.945       -1199.463          41.000  
 25  8 16 11 43 52.6020000  0 18G 1G 3G 2G 4G 5G 6G 7G 8G26G13G12G21
                                G10G24G17G20G27G25
  22441338.168   117930041.282       -1198.992          48.000  
  22441286.155   117930060.653       -1199.032          49.000  
  22441306.368   117930036.595       -1198.952          48.000  
  22441330.561   117929991.710       -1199.058          49.000  
  22441332.083   117930059.445       -1199.019          49.000  
  22441332.156   117930040.221       -1199.038          49.000  
  22441314.525   117929989.816       -1198.934          49.000  
  22441337.806   117930056.903       -1199.025          49.000  
  22495557.290   118214964.214       -1199.152          35.000  
  22520765.284                       -1199.179          36.000  
  22353721.683   117469617.585       -1198.973          36.000  
  22576436.900   118639971.255       -1198.913          39.000  
  22452767.804   117990097.316       -1198.942          38.000  
  22448553.982   117967938.135       -1199.054          37.000  
  22470351.001   118085506.732       -1198.890          36.000  
  22436942.263   117906966.595       -1199.030          37.000  
  22575849.410   118636901.677       -1198.920          38.000  
  22325585.169   117321758.749       -1198.988          41.000  
 25  8 16 11 43 52.8020000  0 18G 1G 3G 2G 4G 5G 6G 7G 8G26G13G12G21
                                G10G24G17G20G27G25
  22441384.009   117930281.111       -1199.056          49.000  
  22441331.803   117930300.480       -1199.118          49.000  
  22441351.731   117930276.424       -1199.056          49.000  
  22441376.190   117930231.536       -1199.118          49.000  
  22441377.720   117930299.270       -1199.078          49.000  
  22441377.784   117930280.047       -1199.099          49.000  
  22441360.223   117930229.645       -1199.017          49.000  
  22441383.444   117930296.727       -1199.040          49.000  
  22495602.892   118215204.026       -1198.989          35.000  
  22520813.205                       -1199.179          36.000  
  22353767.289   117469857.406       -1198.871          36.000  
  22576482.550   118640211.083       -1198.951          39.000  
  22452813.465   117990337.150       -1199.094          39.000  
  22448599.630   117968177.960       -1199.010          37.000  
  22470396.682   118085746.568       -1199.113          36.000  
  22436987.862   117907206.418       -1199.005          37.000  
  22575895.013   118637141.504       -1199.017          38.000  
  22325630.745   117321998.585       -1199.147          41.000  
 25  8 16 11 43 53.0020000  0 18G 1G 3G 2G 4G 5G 6G 7G 8G26G13G12G21
                                G10G24G17G20G27G25
  22441429.748   117930520.955       -1199.311          49.000  
  22441377.448   117930540.322       -1199.267          49.000  
  22441397.251   117930516.267       -1199.337          49.000  
  22441421.825   117930471.378       -1199.281          49.000  
  22441423.357   117930539.113       -1199.274          49.000  
  22441423.424   117930519.889       -1199.261          49.000  
  22441405.930   117930469.489       -1199.345          49.000  
  22441429.073   117930536.569       -1199.247          49.000  
  22495648.486   118215443.873       -1199.197          35.000  
  22520860.175                       -1199.179          36.000  
  22353812.894   117470097.252       -1199.406          36.000  
  22576528.141   118640450.927       -1199.368          39.000  
  22452859.075   117990576.992       -1199.258          39.000  
  22448645.285   117968417.804       -1199.239          37.000  
  22470442.308   118085986.410       -1199.313          36.000  
  22437033.431   117907446.269       -1199.336          37.000  
  22575940.641   118637381.345       -1199.359          38.000  
  22325676.337   117322238.431       -1199.259          41.000  
 25  8 16 11 43 53.2020000  0 18G 1G 3G 2G 4G 5G 6G 7G 8G26G13G12G21
                                G10G24G17G20G27G25
  22441475.604   117930760.805       -1199.277          49.000  
  22441423.099   117930780.171       -1199.223          49.000  
  22441442.888   117930756.118       -1199.295          49.000  
  22441467.414   117930711.228       -1199.250          49.000  
  22441468.987   117930778.963       -1199.230          49.000  
  22441469.040   117930759.741       -1199.263          49.000  
  22441451.651   117930709.338       -1199.277          49.000  
  22441474.709   117930776.420       -1199.250          49.000  
  22495694.141   118215683.721       -1199.278          35.000  
  22520907.783                       -1199.179          36.000  
  22353858.516   117470337.097       -1199.243          36.000  
  22576573.757   118640690.776       -1199.310          39.000  
  22452904.726   117990816.844       -1199.236          39.000  
  22448690.912   117968657.659       -1199.347          37.000  
  22470487.956   118086226.261       -1199.323          36.000  
  22437079.088   117907686.113       -1199.271          37.000  
  22575986.260   118637621.195       -1199.243          39.000  
  22325721.943   117322478.283       -1199.300          41.000  
 25  8 16 11 43 53.4020000  0 18G 1G 3G 2G 4G 5G 6G 7G 8G26G13G12G21
                                G10G24G17G20G27G25
  22441521.399   117931000.659       -1199.415          49.000  
  22441468.729   117931020.032       -1199.386          49.000  
  22441488.247   117930995.972       -1199.396          49.000  
  22441513.046   117930951.089       -1199.378          49.000  
  22441514.663   117931018.821       -1199.399          49.000  
  22441514.641   117930999.601       -1199.372          49.000  
  22441496.986   117930949.197       -1199.372          49.000  
  22441520.314   117931016.279       -1199.360          49.000  
  22495739.818   118215923.600       -1199.351          35.000  
  22520954.789                       -1199.179          36.000  
  22353904.102   117470576.962       -1199.478          36.000  
  22576619.417   118640930.638       -1199.364          39.000  
  22452950.388   117991056.684       -1199.428          39.000  
  22448736.553   117968897.511       -1199.483          37.000  
  22470533.576   118086466.125       -1199.253          36.000  
  22437124.664   117907925.962       -1199.473          37.000  
  22576031.898   118637861.049       -1199.401          39.000  
  22325767.543   117322718.119       -1199.497          41.000  
 25  8 16 11 43 53.6020000  0 18G 1G 3G 2G 4G 5G 6G 7G 8G26G13G12G21
                                G10G24G17G20G27G25
  22441567.201   117931240.528       -1199.336          49.000  
  22441514.379   117931259.901       -1199.360          49.000  
  22441533.630   117931235.843       -1199.375          49.000  
  22441558.660   117931190.956       -1199.348          49.000  
  22441560.288   117931258.689       -1199.355          49.000  
  22441560.250   117931239.470       -1199.382          49.000  
  22441542.208   117931189.067       -1199.359          49.000  
  22441565.925   117931256.148       -1199.361          49.000  
  22495785.484   118216163.470       -1199.476          35.000  
  22520996.331                       -1199.179          36.000  
  22353949.716   117470816.828       -1199.309          36.000  
  22576665.032   118641170.510       -1199.399          39.000  
  22452996.020   117991296.556       -1199.309          39.000  
  22448782.193   117969137.379       -1199.348          36.000  
  22470579.171   118086705.997       -1199.427          36.000  
  22437170.374   117908165.831       -1199.369          37.000  
  22576077.471   118638100.917       -1199.348          39.000  
  22325813.075   117322957.990       -1199.300          41.000  
 25  8 16 11 43 53.8020000  0 18G 1G 3G 2G 4G 5G 6G 7G 8G26G13G12G21
                                G10G24G17G20G27G25
  22441612.953   117931480.371       -1199.122          49.000  
  22441560.011   117931499.744       -1199.117          49.000  
  22441578.920   117931475.686       -1199.103          49.000  
  22441604.261   117931430.800       -1199.136          49.000  
  22441605.904   117931498.532       -1199.104          49.000  
  22441605.841   117931479.314       -1199.156          49.000  
  22441587.426   117931428.908       -1199.018          49.000  
  22441611.557   117931495.991       -1199.064          49.000  
  22495831.196   118216403.306       -1199.124          35.000  
  22521037.246                       -1199.179          36.000  
  22353995.315   117471056.671       -1198.948          36.000  
  22576710.695   118641410.352       -1199.004          38.000  
  22453041.708   117991536.400       -1199.122          39.000  
  22448827.857   117969377.217       -1199.112          36.000  
  22470624.784   118086945.837       -1199.189          36.000  
  22437216.000   117908405.673       -1199.150          37.000  
  22576123.125   118638340.758       -1198.994          39.000  
  22325858.749   117323197.835       -1199.361          41.000  
 25  8 16 11 43 54.0020000  0 18G 1G 3G 2G 4G 5G 6G 7G 8G26G13G12G21
                                G10G24G17G20G27G25
  22441658.738   117931720.220       -1199.233          49.000  
  22441605.667   117931739.592       -1199.207          49.000  
  22441624.246   117931715.537       -1199.264          49.000  
  22441649.885   117931670.648       -1199.220          49.000  
  22441651.578   117931738.382       -1199.238          49.000  
  22441651.432   117931719.162       -1199.239          49.000  
  22441632.677   117931668.763       -1199.302          49.000  
  22441657.206   117931735.842       -1199.244          49.000  
  22495876.840   118216643.152       -1199.267          35.000  
  22521078.352                       -1199.179          36.000  
  22354040.866   117471296.537       -1199.460          36.000  
  22576756.322   118641650.208       -1199.379          38.000  
  22453087.367   117991776.247       -1199.221          38.000  
  22448873.518   117969617.067       -1199.214          36.000  
  22470670.403   118087185.681       -1199.117          36.000  
  22437261.603   117908645.522       -1199.254          37.000  
  22576168.742   118638580.617       -1199.332          39.000  
  22325904.300   117323437.670       -1199.074          41.000  
 25  8 16 11 43 54.2020000  0 18G 1G 3G 2G 4G 5G 6G 7G 8G26G13G12G21
                                G10G24G17G20G27G25
  22441704.488   117931960.072       -1199.580          49.000  
  22441651.318   117931979.440       -1199.456          49.000  
  22441669.718   117931955.386       -1199.567          49.000  
  22441695.524   117931910.496       -1199.435          49.000  
  22441697.244   117931978.232       -1199.513          49.000  
  22441697.094   117931959.010       -1199.468          49.000  
  22441678.087   117931908.607       -1199.523          49.000  
  22441702.878   117931975.690       -1199.487          49.000  
  22495922.449   118216882.980       -1199.150          35.000  
  22521121.355                       -1199.179          35.000  
  22354086.443   117471536.370       -1199.540          36.000  
  22576801.958   118641890.045       -1199.503          38.000  
  22453133.055   117992016.113       -1199.721          38.000  
  22448919.152   117969856.927       -1199.677          36.000  
  22470716.050   118087425.525       -1199.297          36.000  
  22437307.165   117908885.385       -1199.763          37.000  
  22576214.359   118638820.469       -1199.739          39.000  
  22325949.938   117323677.554       -1199.874          41.000  
 25  8 16 11 43 54.4020000  0 18G 1G 3G 2G 4G 5G 6G 7G 8G26G13G12G21
                                G10G24G17G20G27G25
  22441750.184   117932199.944       -1199.348          49.000  
  22441696.979   117932219.314       -1199.406          49.000  
  22441715.427   117932195.256       -1199.323          49.000  
  22441741.119   117932150.371       -1199.406          49.000  
  22441742.843   117932218.104       -1199.387          49.000  
  22441742.692   117932198.883       -1199.387          49.000  
  22441723.755   117932148.477       -1199.315          49.000  
  22441748.489   117932215.563       -1199.394          49.000  
  22495968.063   118217122.863       -1199.494          35.000  
  22521167.233                       -1199.179          36.000  
  22354132.028   117471776.240       -1199.366          36.000  
  22576847.600   118642129.913       -1199.285          38.000  
  22453178.639   117992255.982       -1199.302          39.000  
  22448964.831   117970096.795       -1199.289          36.000  
  22470761.698   118087665.403       -1199.464          36.000  
  22437352.803   117909125.250       -1199.231          37.000  
  22576259.975   118639060.332       -1199.371          39.000  
  22325995.523   117323917.417       -1199.249          41.000  
 25  8 16 11 43 54.6020000  0 18G 1G 3G 2G 4G 5G 6G 7G 8G26G13G12G21
                                G10G24G17G20G27G25
  22441795.991   117932439.821       -1199.370          49.000  
  22441742.637   117932459.187       -1199.311          49.000  
  22441761.229   117932435.137       -1199.414          49.000  
  22441786.707   117932390.243       -1199.312          49.000  
  22441788.455   117932457.978       -1199.324          49.000  
  22441788.307   117932438.756       -1199.299          49.000  
  22441769.517   117932388.356       -1199.402          49.000  
  22441794.126   117932455.438       -1199.357          49.000  
  22496013.666   118217362.727       -1199.254          35.000  
  22521215.033                       -1199.179          36.000  
  22354177.637   117472016.132       -1199.556          36.000  
  22576893.254   118642369.796       -1199.421          38.000  
  22453224.313   117992495.862       -1199.362          39.000  
  22449010.504   117970336.677       -1199.407          36.000  
  22470807.363   118087905.277       -1199.395          36.000  
  22437398.434   117909365.129       -1199.299          37.000  
  22576305.612   118639300.213       -1199.409          39.000  
  22326041.143   117324157.296       -1199.304          41.000  
 25  8 16 11 43 54.8020000  0 18G 1G 3G 2G 4G 5G 6G 7G 8G26G13G12G21
                                G10G24G17G20G27G25
  22441841.649   117932679.704       -1199.498          49.000  
  22441788.294   117932699.068       -1199.386          49.000  
  22441806.792   117932675.019       -1199.518          49.000  
  22441832.319   117932630.123       -1199.354          49.000  
  22441834.108   117932697.859       -1199.400          49.000  
  22441833.945   117932678.637       -1199.380          49.000  
  22441815.299   117932628.239       -1199.517          49.000  
  22441839.780   117932695.317       -1199.400          49.000  
  22496059.300   118217602.615       -1199.485          35.000  
  22521261.894                       -1199.179          36.000  
  22354223.185   117472256.013       -1199.562          36.000  
  22576938.877   118642609.676       -1199.393          38.000  
  22453269.979   117992735.744       -1199.498          39.000  
  22449056.132   117970576.555       -1199.526          36.000  
  22470853.011   118088145.154       -1199.455          36.000  
  22437444.028   117909605.017       -1199.555          37.000  
  22576351.251   118639540.098       -1199.528          39.000  
  22326086.736   117324397.177       -1199.526          41.000  
 25  8 16 11 43 55.0020000  0 18G 1G 3G 2G 4G 5G 6G 7G 8G26G13G12G21
                                G10G24G17G20G27G25
  22441887.404   117932919.570       -1199.357          49.000  
  22441833.947   117932938.937       -1199.335          49.000  
  22441852.543   117932914.882       -1199.385          49.000  
  22441877.936   117932869.995       -1199.336          49.000  
  22441879.719   117932937.729       -1199.356          49.000  
  22441879.556   117932918.508       -1199.335          49.000  
  22441860.987   117932868.102       -1199.356          49.000  
  22441885.379   117932935.186       -1199.336          49.000  
  22496104.960   118217842.485       -1199.372          35.000  
  22521309.578                       -1199.179          36.000  
  22354268.754   117472495.867       -1199.427          36.000  
  22576984.499   118642849.542       -1199.369          38.000  
  22453315.616   117992975.615       -1199.469          39.000  
  22449101.799   117970816.423       -1199.349          36.000  
  22470898.653   118088385.029       -1199.421          36.000  
  22437489.655   117909844.882       -1199.468          37.000  
  22576396.851   118639779.960       -1199.416          39.000  
  22326132.333   117324637.047       -1199.353          41.000  
 25  8 16 11 43 55.2020000  0 18G 1G 3G 2G 4G 5G 6G 7G 8G26G13G12G21
                                G10G24G17G20G27G25
  22441933.043   117933159.424       -1199.473          49.000  
  22441879.615   117933178.792       -1199.426          49.000  
  22441898.192   117933154.737       -1199.454          49.000  
  22441923.559   117933109.852       -1199.417          49.000  
  22441925.359   117933177.579       -1199.394          49.000  
  22441925.192   117933158.362       -1199.419          49.000  
  22441906.774   117933107.955       -1199.455          49.000  
  22441931.017   117933175.041       -1199.391          49.000  
  22496150.655   118218082.349       -1199.393          35.000  
  22521356.191                       -1199.179          36.000  
  22354314.356   117472735.729       -1199.344          36.000  
  22577030.152   118643089.386       -1199.441          38.000  
  22453361.272   117993215.447       -1199.523          39.000  
  22449147.466   117971056.274       -1199.468          36.000  
  22470944.302   118088624.872       -1199.671          36.000  
  22437535.248   117910084.724       -1199.593          37.000  
  22576442.500   118640019.813       -1199.347          39.000  
  22326177.962   117324876.883       -1199.643          41.000  
 25  8 16 11 43 55.4020000  0 18G 1G 3G 2G 4G 5G 6G 7G 8G26G13G12G21
                                G10G24G17G20G27G25
  22441978.690   117933399.276       -1199.267          49.000  
  22441925.241   117933418.647       -1199.338          49.000  
  22441943.858   117933394.588       -1199.213          49.000  
  22441969.193   117933349.708       -1199.358          49.000  
  22441970.976   117933417.436       -1199.317          49.000  
  22441970.789   117933398.217       -1199.331          49.000  
  22441952.685   117933347.806       -1199.213          49.000  
  22441976.642   117933414.897       -1199.317          49.000  
  22496196.327   118218322.202       -1199.286          35.000  
  22521403.433                       -1199.179          36.000  
  22354359.931   117472975.583       -1199.253          36.000  
  22577075.802   118643329.235       -1199.128          38.000  
  22453406.918   117993455.300       -1199.173          39.000  
  22449193.101   117971296.131       -1199.266          37.000  
  22470989.941   118088864.725       -1199.286          36.000  
  22437580.906   117910324.574       -1199.199          37.000  
  22576488.073   118640259.667       -1199.166          38.000  
  22326223.487   117325116.736       -1199.253          41.000  
 25  8 16 11 43 55.6020000  0 18G 1G 3G 2G 4G 5G 6G 7G 8G26G13G12G21
                                G10G24G17G20G27G25
  22442024.302   117933639.149       -1199.432          49.000  
  22441970.899   117933658.515       -1199.407          49.000  
  22441989.515   117933634.463       -1199.464          49.000  
  22442014.796   117933589.574       -1199.387          49.000  
  22442016.610   117933657.304       -1199.422          49.000  
  22442016.380   117933638.086       -1199.407          49.000  
  22441998.571   117933587.679       -1199.426          49.000  
  22442022.278   117933654.765       -1199.415          49.000  
  22496242.014   118218562.075       -1199.437          35.000  
  22521447.042                       -1199.179          36.000  
  22354405.517   117473215.454       -1199.388          36.000  
  22577121.460   118643569.115       -1199.502          39.000  
  22453452.596   117993695.175       -1199.457          39.000  
  22449238.800   117971536.001       -1199.470          37.000  
  22471035.617   118089104.595       -1199.458          36.000  
  22437626.508   117910564.454       -1199.554          37.000  
  22576533.711   118640499.539       -1199.473          39.000  
  22326269.149   117325356.613       -1199.500          41.000  
 25  8 16 11 43 55.8020000  0 18G 1G 3G 2G 4G 5G 6G 7G 8G26G13G12G21
                                G10G24G17G20G27G25
  22442069.903   117933879.015       -1199.435          49.000  
  22442016.560   117933898.382       -1199.387          49.000  
  22442035.070   117933874.329       -1199.447          49.000  
  22442060.442   117933829.442       -1199.387          49.000  
  22442062.267   117933897.170       -1199.375          49.000  
  22442062.013   117933877.953       -1199.399          49.000  
  22442044.313   117933827.547       -1199.415          49.000  
  22442067.920   117933894.632       -1199.394          49.000  
  22496287.676   118218801.938       -1199.454          35.000  
  22521488.557                       -1199.179          36.000  
  22354451.145   117473455.322       -1199.394          36.000  
  22577167.071   118643808.979       -1199.441          38.000  
  22453498.212   117993935.042       -1199.461          39.000  
  22449284.455   117971775.868       -1199.533          37.000  
  22471081.271   118089344.466       -1199.558          36.000  
  22437672.082   117910804.315       -1199.522          37.000  
  22576579.282   118640739.402       -1199.265          38.000  
  22326314.748   117325596.481       -1199.598          41.000  
 25  8 16 11 43 56.0020000  0 18G 1G 3G 2G 4G 5G 6G 7G 8G26G13G12G21
                                G10G24G17G20G27G25
  22442115.541   117934118.891       -1199.385          49.000  
  22442062.197   117934138.256       -1199.318          49.000  
  22442080.777   117934114.202       -1199.324          49.000  
  22442106.024   117934069.311       -1199.254          49.000  
  22442107.906   117934137.049       -1199.391          49.000  
  22442107.631   117934117.825       -1199.285          49.000  
  22442090.027   117934067.423       -1199.385          49.000  
  22442113.518   117934134.505       -1199.293          49.000  
  22496333.326   118219041.793       -1198.952          35.000  
  22521533.590                       -1199.179          36.000  
  22354496.774   117473695.181       -1199.177          36.000  
  22577212.721   118644048.864       -1199.528          38.000  
  22453543.848   117994174.935       -1199.622          39.000  
  22449330.121   117972015.747       -1199.462          37.000  
  22471126.936   118089584.350       -1199.592          36.000  
  22437717.735   117911044.200       -1199.541          37.000  
  22576624.950   118640979.276       -1199.222          38.000  
  22326360.383   117325836.377       -1199.750          41.000  
 25  8 16 11 43 56.2020000  0 18G 1G 3G 2G 4G 5G 6G 7G 8G26G13G12G21
                                G10G24G17G20G27G25
  22442161.231   117934358.732       -1199.313          48.000  
  22442107.842   117934378.099       -1199.273          49.000  
  22442126.677   117934354.043       -1199.307          49.000  
  22442151.689   117934309.156       -1199.266          49.000  
  22442153.544   117934376.889       -1199.247          49.000  
  22442153.288   117934357.670       -1199.286          49.000  
  22442135.500   117934307.264       -1199.293          49.000  
  22442159.169   117934374.348       -1199.273          49.000  
  22496378.942   118219281.648       -1199.374          35.000  
  22521582.287                       -1199.179          36.000  
  22354542.375   117473935.032       -1199.330          36.000  
  22577258.338   118644288.703       -1199.280          39.000  
  22453589.488   117994414.770       -1199.230          39.000  
  22449375.813   117972255.584       -1199.290          37.000  
  22471172.559   118089824.181       -1199.178          36.000  
  22437763.336   117911284.036       -1199.239          37.000  
  22576670.572   118641219.121       -1199.357          39.000  
  22326406.039   117326076.207       -1199.252          41.000  
 25  8 16 11 43 56.4020000  0 18G 1G 3G 2G 4G 5G 6G 7G 8G26G13G12G21
                                G10G24G17G20G27G25
  22442206.968   117934598.601       -1199.357          49.000  
  22442153.495   117934617.963       -1199.235          49.000  
  22442172.435   117934593.915       -1199.351          49.000  
  22442197.302   117934549.019       -1199.235          49.000  
  22442199.181   117934616.756       -1199.265          49.000  
  22442198.924   117934597.534       -1199.254          49.000  
  22442181.027   117934547.136       -1199.363          49.000  
  22442204.814   117934614.215       -1199.287          49.000  
  22496424.556   118219521.514       -1199.406          35.000  
  22521631.166                       -1199.179          36.000  
  22354587.995   117474174.906       -1199.403          36.000  
  22577304.011   118644528.577       -1199.425          39.000  
  22453635.138   117994654.645       -1199.410          39.000  
  22449421.483   117972495.455       -1199.322          37.000  
  22471218.218   118090064.059       -1199.355          36.000  
  22437808.968   117911523.909       -1199.305          37.000  
  22576716.162   118641458.990       -1199.292          39.000  
  22326451.610   117326316.077       -1199.298          41.000  
 25  8 16 11 43 56.6020000  0 18G 1G 3G 2G 4G 5G 6G 7G 8G26G13G12G21
                                G10G24G17G20G27G25
  22442252.688   117934838.452       -1199.306          49.000  
  22442199.139   117934857.816       -1199.215          49.000  
  22442218.200   117934833.763       -1199.294          49.000  
  22442242.920   117934788.873       -1199.223          49.000  
  22442244.826   117934856.609       -1199.248          49.000  
  22442244.552   117934837.386       -1199.228          49.000  
  22442226.571   117934786.984       -1199.323          49.000  
  22442250.457   117934854.066       -1199.249          49.000  
  22496470.147   118219761.361       -1199.196          35.000  
  22521679.376                       -1199.179          36.000  
  22354633.600   117474414.746       -1199.307          36.000  
  22577349.668   118644768.419       -1199.223          39.000  
  22453680.773   117994894.494       -1199.334          39.000  
  22449467.160   117972735.305       -1199.327          37.000  
  22471263.824   118090303.908       -1199.354          36.000  
  22437854.557   117911763.761       -1199.334          37.000  
  22576761.821   118641698.838       -1199.311          39.000  
  22326497.220   117326555.931       -1199.312          41.000  
 25  8 16 11 43 56.8020000  0 18G 1G 3G 2G 4G 5G 6G 7G 8G26G13G12G21
                                G10G24G17G20G27G25
  22442298.493   117935078.301       -1199.417          49.000  
  22442244.795   117935097.668       -1199.397          49.000  
  22442263.855   117935073.611       -1199.391          49.000  
  22442288.565   117935028.725       -1199.375          49.000  
  22442290.479   117935096.460       -1199.396          49.000  
  22442290.217   117935077.239       -1199.402          49.000  
  22442272.163   117935026.831       -1199.386          49.000  
  22442296.105   117935093.916       -1199.383          49.000  
  22496515.791   118220001.216       -1199.438          35.000  
  22521726.777                       -1199.179          36.000  
  22354679.174   117474654.595       -1199.369          36.000  
  22577395.302   118645008.269       -1199.357          39.000  
  22453726.368   117995134.341       -1199.397          39.000  
  22449512.825   117972975.153       -1199.443          36.000  
  22471309.423   118090543.755       -1199.385          36.000  
  22437900.162   117912003.608       -1199.406          37.000  
  22576807.402   118641938.688       -1199.437          39.000  
  22326542.814   117326795.777       -1199.379          41.000  
 25  8 16 11 43 57.0020000  0 18G 1G 3G 2G 4G 5G 6G 7G 8G26G13G12G21
                                G10G24G17G20G27G25
  22442344.248   117935318.166       -1199.403          49.000  
  22442290.438   117935337.537       -1199.379          49.000  
  22442309.324   117935313.480       -1199.422          49.000  
  22442334.147   117935268.595       -1199.374          49.000  
  22442336.123   117935336.330       -1199.458          49.000  
  22442335.805   117935317.107       -1199.361          49.000  
  22442317.500   117935266.706       -1199.433          49.000  
  22442341.722   117935333.789       -1199.432          49.000  
  22496561.476   118220241.111       -1199.459          35.000  
  22521771.557                       -1199.179          36.000  
  22354724.795   117474894.484       -1199.511          36.000  
  22577440.938   118645248.153       -1199.559          38.000  
  22453771.987   117995374.195       -1199.422          39.000  
  22449558.514   117973215.011       -1199.303          36.000  
  22471355.041   118090783.633       -1199.228          36.000  
  22437945.772   117912243.463       -1199.394          37.000  
  22576853.031   118642178.562       -1199.542          39.000  
  22326588.469   117327035.618       -1199.276          41.000  
 25  8 16 11 43 57.2020000  0 18G 1G 3G 2G 4G 5G 6G 7G 8G26G13G12G21
                                G10G24G17G20G27G25
  22442389.955   117935558.042       -1199.332          49.000  
  22442336.089   117935577.412       -1199.346          49.000  
  22442354.577   117935553.354       -1199.338          49.000  
  22442379.774   117935508.471       -1199.366          49.000  
  22442381.737   117935576.203       -1199.366          49.000  
  22442381.426   117935556.984       -1199.359          49.000  
  22442362.663   117935506.579       -1199.371          49.000  
  22442387.332   117935573.661       -1199.359          49.000  
  22496607.114   118220480.980       -1199.442          35.000  
  22521817.795                       -1199.179          35.000  
  22354770.380   117475134.345       -1199.330          36.000  
  22577486.616   118645488.019       -1199.379          38.000  
  22453817.607   117995614.073       -1199.346          39.000  
  22449604.166   117973454.891       -1199.366          36.000  
  22471400.680   118091023.517       -1199.456          36.000  
  22437991.410   117912483.338       -1199.248          37.000  
  22576898.592   118642418.430       -1199.440          39.000  
  22326634.034   117327275.506       -1199.290          41.000  
 25  8 16 11 43 57.4020000  0 18G 1G 3G 2G 4G 5G 6G 7G 8G26G13G12G21
                                G10G24G17G20G27G25
  22442435.636   117935797.890       -1199.290          49.000  
  22442381.741   117935817.261       -1199.272          49.000  
  22442399.959   117935793.204       -1199.299          49.000  
  22442425.417   117935748.321       -1199.303          49.000  
  22442427.388   117935816.054       -1199.290          49.000  
  22442427.062   117935796.831       -1199.265          49.000  
  22442407.746   117935746.426       -1199.239          49.000  
  22442432.978   117935813.510       -1199.272          49.000  
  22496652.754   118220720.826       -1199.388          35.000  
  22521863.317                       -1199.179          35.000  
  22354815.987   117475374.194       -1199.153          36.000  
  22577532.256   118645727.864       -1199.254          38.000  
  22453863.301   117995853.922       -1199.258          39.000  
  22449649.819   117973694.738       -1199.263          36.000  
  22471446.309   118091263.360       -1199.320          36.000  
  22438037.031   117912723.193       -1199.348          37.000  
  22576944.256   118642658.273       -1199.176          39.000  
  22326679.658   117327515.360       -1199.446          41.000  
 25  8 16 11 43 57.6020000  0 18G 1G 3G 2G 4G 5G 6G 7G 8G26G13G12G21
                                G10G24G17G20G27G25
  22442481.185   117936037.758       -1199.400          49.000  
  22442427.382   117936057.127       -1199.390          49.000  
  22442445.231   117936033.072       -1199.413          49.000  
  22442471.024   117935988.184       -1199.364          49.000  
  22442473.022   117936055.921       -1199.443          49.000  
  22442472.683   117936036.697       -1199.389          49.000  
  22442452.928   117935986.298       -1199.421          49.000  
  22442478.610   117936053.378       -1199.396          49.000  
  22496698.416   118220960.699       -1199.522          35.000  
  22521906.059                       -1199.179          35.000  
  22354861.561   117475614.069       -1199.454          36.000  
  22577577.879   118645967.743       -1199.542          38.000  
  22453908.974   117996093.789       -1199.382          38.000  
  22449695.469   117973934.605       -1199.453          36.000  
  22471491.933   118091503.217       -1199.211          36.000  
  22438082.677   117912963.056       -1199.370          37.000  
  22576989.847   118642898.148       -1199.433          39.000  
  22326725.262   117327755.213       -1199.305          41.000  
 25  8 16 11 43 57.8020000  0 20G 1G 3G 2G 4G 5G 6G 7G 8G26G13G12G21
                                G10G 9G24G17G20G16G27G25
  22442526.714   117936277.632       -1199.551          48.000  
  22442473.031   117936296.995       -1199.407          49.000  
  22442490.351   117936272.945       -1199.505          49.000  
  22442516.627   117936228.055       -1199.373          49.000  
  22442518.656   117936295.793       -1199.451          49.000  
  22442518.320   117936276.569       -1199.425          49.000  
  22442498.459   117936226.168       -1199.486          49.000  
  22442524.253   117936293.249       -1199.413          49.000  
  22496744.081   118221200.553       -1199.199          35.000  
  22521949.138                       -1199.179          35.000  
  22354907.193   117475853.941       -1199.385          36.000  
  22577623.531   118646207.610       -1199.518          38.000  
  22453954.630   117996333.676       -1199.746          38.000  
  22440775.292   117927069.5703      -1199.155          39.000  
  22449741.128   117974174.478       -1199.544          36.000  
  22471537.630   118091743.082       -1199.354          36.000  
  22438128.300   117913202.941       -1199.681          37.000  
  22315058.135   117266421.9172      -1199.422          37.000  
  22577035.454   118643138.023       -1199.521          39.000  
  22326770.852   117327995.107       -1199.851          41.000  
 25  8 16 11 43 58.0020000  0 20G 1G 3G 2G 4G 5G 6G 7G 8G26G13G12G21
                                G10G 9G24G17G20G16G27G25
  22442572.245   117936517.503       -1199.534          48.000  
  22442518.685   117936536.872       -1199.579          49.000  
  22442535.391   117936512.818       -1199.505          49.000  
  22442562.257   117936467.936       -1199.584          49.000  
  22442564.315   117936535.668       -1199.565          49.000  
  22442563.963   117936516.443       -1199.539          49.000  
  22442544.299   117936466.040       -1199.547          49.000  
  22442569.911   117936533.125       -1199.572          49.000  
  22496789.751   118221440.431       -1199.560          35.000  
  22521996.722                       -1199.179          36.000  
  22354952.804   117476093.816       -1199.520          36.000  
  22577669.158   118646447.479       -1199.524          38.000  
  22454000.323   117996573.542       -1199.410          39.000  
  22440820.765   117927309.4512      -1199.583          39.000  
  22449786.826   117974414.353       -1199.505          36.000  
  22471583.267   118091982.960       -1199.509          36.000  
  22438173.944   117913442.810       -1199.489          37.000  
  22315103.681   117266661.7892      -1199.509          37.000  
  22577081.091   118643377.899       -1199.530          39.000  
  22326816.494   117328234.971       -1199.404          41.000  
 25  8 16 11 43 58.2020000  0 20G 1G 3G 2G 4G 5G 6G 7G 8G26G13G12G21
                                G10G 9G24G17G20G16G27G25
  22442617.965   117936757.375       -1199.117          49.000  
  22442564.328   117936776.742       -1199.209          49.000  
  22442580.444   117936752.684       -1199.193          49.000  
  22442607.841   117936707.808       -1199.228          49.000  
  22442609.904   117936775.535       -1199.169          49.000  
  22442609.542   117936756.318       -1199.220          49.000  
  22442590.397   117936705.914       -1199.246          49.000  
  22442615.509   117936772.996       -1199.215          49.000  
  22496835.420   118221680.296       -1199.121          35.000  
  22522044.811                       -1199.179          36.000  
  22354998.427   117476333.681       -1199.117          36.000  
  22577714.810   118646687.350       -1199.190          38.000  
  22454045.962   117996813.422       -1199.188          39.000  
  22440866.312   117927549.3212      -1199.182          38.000  
  22449832.480   117974654.230       -1199.288          36.000  
  22471628.914   118092222.834       -1199.233          36.000  
  22438219.669   117913682.683       -1199.144          37.000  
  22315149.200   117266901.6602      -1199.168          37.000  
  22577126.684   118643617.768       -1199.172          39.000  
  22326862.075   117328474.860       -1199.222          41.000  
 25  8 16 11 43 58.4020000  0 20G 1G 3G 2G 4G 5G 6G 7G 8G26G13G12G21
                                G10G 9G24G17G20G16G27G25
  22442663.826   117936997.242       -1199.349          49.000  
  22442609.983   117937016.606       -1199.308          49.000  
  22442626.027   117936992.551       -1199.277          49.000  
  22442653.536   117936947.672       -1199.474          49.000  
  22442655.554   117937015.401       -1199.394          49.000  
  22442655.213   117936996.179       -1199.385          49.000  
  22442636.549   117936945.777       -1199.371          48.000  
  22442661.143   117937012.854       -1199.303          49.000  
  22496881.095   118221920.165       -1199.449          35.000  
  22522092.060                       -1199.179          36.000  
  22355044.042   117476573.551       -1199.372          36.000  
  22577760.463   118646927.213       -1199.384          38.000  
  22454091.639   117997053.286       -1199.396          39.000  
  22440911.776   117927789.1852      -1199.385          38.000  
  22449878.097   117974894.086       -1199.233          36.000  
  22471674.548   118092462.693       -1199.241          37.000  
  22438265.287   117913922.549       -1199.270          37.000  
  22315194.734   117267141.5242      -1199.346          37.000  
  22577172.357   118643857.636       -1199.428          39.000  
  22326907.694   117328714.718       -1199.371          41.000  
 25  8 16 11 43 58.6020000  0 20G 1G 3G 2G 4G 5G 6G 7G 8G26G13G12G21
                                G10G 9G24G17G20G16G27G25
  22442709.509   117937237.104       -1199.423          49.000  
  22442655.639   117937256.465       -1199.337          49.000  
  22442671.155   117937232.409       -1199.393          49.000  
  22442699.181   117937187.530       -1199.412          49.000  
  22442701.193   117937255.264       -1199.439          49.000  
  22442700.828   117937236.041       -1199.338          49.000  
  22442682.412   117937185.640       -1199.330          48.000  
  22442706.754   117937252.723       -1199.389          49.000  
  22496926.726   118222160.020       -1199.341          35.000  
  22522139.170                       -1199.179          36.000  
  22355089.688   117476813.411       -1199.367          36.000  
  22577806.138   118647167.080       -1199.428          38.000  
  22454137.263   117997293.144       -1199.332          39.000  
  22440957.276   117928029.0472      -1199.378          38.000  
  22449923.733   117975133.954       -1199.454          37.000  
  22471720.150   118092702.556       -1199.443          37.000  
  22438310.907   117914162.413       -1199.407          37.000  
  22315240.304   117267381.3842      -1199.408          38.000  
  22577217.950   118644097.493       -1199.379          39.000  
  22326953.283   117328954.577       -1199.413          41.000  
 25  8 16 11 43 58.8020000  0 20G 1G 3G 2G 4G 5G 6G 7G 8G26G13G12G21
                                G10G 9G24G17G20G16G27G25
  22442755.133   117937476.959       -1199.367          49.000  
  22442701.279   117937496.333       -1199.306          49.000  
  22442716.477   117937472.270       -1199.193          49.000  
  22442744.748   117937427.390       -1199.258          49.000  
  22442746.793   117937495.126       -1199.239          49.000  
  22442746.455   117937475.899       -1199.260          49.000  
  22442728.104   117937425.503       -1199.312          48.000  
  22442752.350   117937492.582       -1199.246          49.000  
  22496972.397   118222399.891       -1199.077          35.000  
  22522186.026                       -1199.179          36.000  
  22355135.366   117477053.273       -1199.185          36.000  
  22577851.790   118647406.933       -1199.124          38.000  
  22454182.924   117997532.998       -1199.309          39.000  
  22441002.757   117928268.9222      -1199.143          38.000  
  22449969.369   117975373.804       -1199.305          36.000  
  22471765.782   118092942.425       -1199.370          37.000  
  22438356.546   117914402.265       -1199.443          37.000  
  22315285.888   117267621.2532      -1199.287          38.000  
  22577263.563   118644337.358       -1199.382          39.000  
  22326998.887   117329194.425       -1199.585          40.000  
 25  8 16 11 43 59.0020000  0 20G 1G 3G 2G 4G 5G 6G 7G 8G26G13G12G21
                                G10G 9G24G17G20G16G27G25
  22442800.761   117937716.819       -1199.238          48.000  
  22442746.923   117937736.185       -1199.183          49.000  
  22442761.449   117937712.128       -1199.264          49.000  
  22442790.369   117937667.242       -1199.198          49.000  
  22442792.448   117937734.980       -1199.249          49.000  
  22442792.077   117937715.760       -1199.252          49.000  
  22442773.411   117937665.355       -1199.157          48.000  
  22442797.973   117937732.439       -1199.267          49.000  
  22497018.049   118222639.755       -1199.382          35.000  
  22522233.054                       -1199.179          36.000  
  22355180.950   117477293.125       -1199.328          36.000  
  22577897.416   118647646.792       -1199.259          38.000  
  22454228.541   117997772.855       -1199.223          38.000  
  22441048.228   117928508.7802      -1199.412          39.000  
  22450015.043   117975613.666       -1199.193          36.000  
  22471811.429   118093182.284       -1199.250          36.000  
  22438402.227   117914642.120       -1199.154          37.000  
  22315331.449   117267861.1022      -1199.203          38.000  
  22577309.170   118644577.208       -1199.261          39.000  
  22327044.441   117329434.280       -1199.095          41.000  
 25  8 16 11 43 59.2020000  0 20G 1G 3G 2G 4G 5G 6G 7G 8G26G13G12G21
                                G10G 9G24G17G20G16G27G25
  22442846.442   117937956.695       -1199.398          49.000  
  22442792.578   117937976.054       -1199.238          49.000  
  22442806.426   117937951.996       -1199.309          49.000  
  22442836.007   117937907.108       -1199.227          49.000  
  22442838.109   117937974.847       -1199.312          49.000  
  22442837.716   117937955.623       -1199.235          49.000  
  22442818.720   117937905.227       -1199.397          49.000  
  22442843.611   117937972.303       -1199.314          49.000  
  22497063.711   118222879.617       -1199.240          35.000  
  22522277.701                       -1199.179          36.000  
  22355226.557   117477532.991       -1199.236          36.000  
  22577943.030   118647886.661       -1199.361          38.000  
  22454274.167   117998012.726       -1199.363          38.000  
  22441093.819   117928748.6412      -1199.219          39.000  
  22450060.712   117975853.537       -1199.295          36.000  
  22471857.073   118093422.151       -1199.355          36.000  
  22438447.779   117914881.989       -1199.324          37.000  
  22315377.009   117268100.9722      -1199.262          38.000  
  22577354.805   118644817.075       -1199.296          39.000  
  22327090.061   117329674.149       -1199.263          41.000  
 25  8 16 11 43 59.4020000  0 20G 1G 3G 2G 4G 5G 6G 7G 8G26G13G12G21
                                G10G 9G24G17G20G16G27G25
  22442892.496   117938196.562       -1199.337          49.000  
  22442838.228   117938215.932       -1199.427          49.000  
  22442851.466   117938191.868       -1199.329          49.000  
  22442881.712   117938146.987       -1199.475          49.000  
  22442883.761   117938214.721       -1199.323          49.000  
  22442883.364   117938195.502       -1199.393          49.000  
  22442863.938   117938145.092       -1199.352          49.000  
  22442889.262   117938212.170       -1199.333          49.000  
  22497109.392   118223119.498       -1199.438          35.000  
  22522317.610                       -1199.179          36.000  
  22355272.185   117477772.866       -1199.413          36.000  
  22577988.638   118648126.527       -1199.324          38.000  
  22454319.780   117998252.596       -1199.319          38.000  
  22441139.381   117928988.5212      -1199.384          39.000  
  22450106.374   117976093.410       -1199.421          36.000  
  22471902.702   118093662.020       -1199.386          36.000  
  22438493.353   117915121.865       -1199.402          37.000  
  22315422.518   117268340.8472      -1199.452          38.000  
  22577400.388   118645056.949       -1199.368          39.000  
  22327135.693   117329914.022       -1199.355          41.000  
 25  8 16 11 43 59.6020000  0 20G 1G 3G 2G 4G 5G 6G 7G 8G26G13G12G21
                                G10G 9G24G17G20G16G27G25
  22442938.510   117938436.443       -1199.385          49.000  
  22442883.878   117938455.810       -1199.419          49.000  
  22442896.344   117938431.749       -1199.542          49.000  
  22442927.314   117938386.864       -1199.365          49.000  
  22442929.407   117938454.599       -1199.411          49.000  
  22442929.004   117938435.385       -1199.497          49.000  
  22442909.507   117938384.970       -1199.344          49.000  
  22442934.896   117938452.051       -1199.438          49.000  
  22497155.063   118223359.395       -1199.686          35.000  
  22522359.974                       -1199.179          35.000  
  22355317.765   117478012.718       -1198.965          36.000  
  22578034.286   118648366.424       -1199.667          38.000  
  22454365.433   117998492.489       -1199.691          38.000  
  22441184.845   117929228.3692      -1198.917          39.000  
  22450152.052   117976333.304       -1199.632          36.000  
  22471948.362   118093901.881       -1199.088          36.000  
  22438538.940   117915361.762       -1199.795          37.000  
  22315468.064   117268580.7192      -1199.367          38.000  
  22577445.945   118645296.801       -1198.894          39.000  
  22327181.282   117330153.933       -1199.908          41.000  
 25  8 16 11 43 59.8020000  0 20G 1G 3G 2G 4G 5G 6G 7G 8G26G13G12G21
                                G10G 9G24G17G20G16G27G25
  22442984.461   117938676.301       -1199.421          49.000  
  22442929.513   117938695.671       -1199.367          49.000  
  22442941.320   117938671.603       -1199.170          49.000  
  22442972.923   117938626.723       -1199.261          49.000  
  22442975.053   117938694.459       -1199.299          49.000  
  22442974.632   117938675.239       -1199.355          49.000  
  22442954.716   117938624.828       -1199.306          49.000  
  22442980.529   117938691.909       -1199.248          49.000  
  22497200.728   118223599.242       -1199.325          35.000  
  22522407.232                       -1199.179          35.000  
  22355363.332   117478252.584       -1199.164          36.000  
  22578079.959   118648606.276       -1199.194          38.000  
  22454411.076   117998732.339       -1199.153          38.000  
  22441230.302   117929468.2342      -1199.231          39.000  
  22450197.688   117976573.157       -1199.239          36.000  
  22471994.047   118094141.741       -1199.398          36.000  
  22438584.544   117915601.607       -1199.274          37.000  
  22315513.635   117268820.5792      -1199.302          38.000  
  22577491.552   118645536.669       -1199.205          39.000  
  22327226.937   117330393.779       -1199.414          41.000  
 25  8 16 11 44  0.0020000  0 19G 1G 3G 2G 4G 5G 6G 7G 8G26G12G21G10
                                G 9G24G17G20G16G27G25
  22443030.553   117938916.178       -1199.438          49.000  
  22442975.169   117938935.551       -1199.490          49.000  
  22442986.524   117938911.494       -1199.551          49.000  
  22443018.557   117938866.600       -1199.432          49.000  
  22443020.669   117938934.337       -1199.470          49.000  
  22443020.259   117938915.121       -1199.548          49.000  
  22442999.850   117938864.711       -1199.507          49.000  
  22443026.189   117938931.794       -1199.467          49.000  
  22497246.417   118223839.120       -1199.406          35.000  
  22355408.950   117478492.479       -1199.781          36.000  
  22578125.608   118648846.166       -1199.511          38.000  
  22454456.731   117998972.231       -1199.552          39.000  
  22441275.775   117929708.1192      -1199.583          39.000  
  22450243.334   117976813.047       -1199.497          37.000  
  22472039.710   118094381.615       -1199.392          36.000  
  22438630.272   117915841.494       -1199.386          37.000  
  22315559.199   117269060.4622      -1199.521          38.000  
  22577537.168   118645776.556       -1199.555          39.000  
  22327272.533   117330633.656       -1199.328          41.000  
 25  8 16 11 44  0.2020000  0 20G 1G 3G 2G 4G 5G 6G 7G 8G26G13G12G21
                                G10G 9G24G17G20G16G27G25
  22443076.346   117939156.052       -1199.348          49.000  
  22443020.825   117939175.426       -1199.342          49.000  
  22443032.034   117939151.364       -1199.363          49.000  
  22443064.152   117939106.477       -1199.353          49.000  
  22443066.294   117939174.213       -1199.347          49.000  
  22443065.865   117939154.994       -1199.314          49.000  
  22443045.325   117939104.581       -1199.304          49.000  
  22443071.840   117939171.666       -1199.336          49.000  
  22497292.077   118224078.992       -1199.231          35.000  
  22522501.873                       -1199.179          35.000  
  22355454.551   117478732.337       -1199.383          36.000  
  22578171.252   118649086.035       -1199.316          39.000  
  22454502.370   117999212.098       -1199.383          39.000  
  22441321.271   117929947.9872      -1199.322          39.000  
  22450288.996   117977052.916       -1199.337          37.000  
  22472085.371   118094621.493       -1199.387          36.000  
  22438675.932   117916081.368       -1199.295          37.000  
  22315604.774   117269300.3362      -1199.280          38.000  
  22577582.785   118646016.426       -1199.441          38.000  
  22327318.139   117330873.537       -1199.286          41.000  
 25  8 16 11 44  0.4020000  0 20G 1G 3G 2G 4G 5G 6G 7G 8G26G13G12G21
                                G10G 9G24G17G20G16G27G25
  22443122.161   117939395.941       -1199.202          49.000  
  22443066.482   117939415.311       -1199.250          49.000  
  22443077.964   117939391.255       -1199.285          49.000  
  22443109.782   117939346.363       -1199.282          49.000  
  22443111.936   117939414.096       -1199.291          49.000  
  22443111.509   117939394.880       -1199.268          49.000  
  22443090.710   117939344.471       -1199.294          49.000  
  22443117.480   117939411.556       -1199.286          49.000  
  22497337.740   118224318.892       -1199.339          35.000  
  22522551.077                       -1199.179          35.000  
  22355500.166   117478972.224       -1199.337          36.000  
  22578216.882   118649325.923       -1199.224          39.000  
  22454547.974   117999451.985       -1199.315          39.000  
  22441366.873   117930187.8762      -1199.396          39.000  
  22450334.719   117977292.811       -1199.346          37.000  
  22472131.033   118094861.384       -1199.313          36.000  
  22438721.574   117916321.261       -1199.277          37.000  
  22315650.338   117269540.2292      -1199.346          38.000  
  22577628.388   118646256.308       -1199.185          38.000  
  22327363.757   117331113.428       -1199.311          41.000  
 25  8 16 11 44  0.6020000  0 20G 1G 3G 2G 4G 5G 6G 7G 8G26G13G12G21
                                G10G 9G24G17G20G16G27G25
  22443168.003   117939635.818       -1199.457          49.000  
  22443112.160   117939655.175       -1199.485          49.000  
  22443123.532   117939631.118       -1199.542          49.000  
  22443155.424   117939586.237       -1199.487          49.000  
  22443157.626   117939653.972       -1199.586          49.000  
  22443157.179   117939634.749       -1199.469          49.000  
  22443136.480   117939584.345       -1199.552          49.000  
  22443163.111   117939651.434       -1199.493          49.000  
  22497383.390   118224558.726       -1199.605          35.000  
  22522594.859                       -1199.179          35.000  
  22355545.824   117479212.130       -1199.602          36.000  
  22578262.589   118649565.793       -1199.658          39.000  
  22454593.600   117999691.848       -1199.559          39.000  
  22441412.427   117930427.7592      -1199.500          39.000  
  22450380.425   117977532.658       -1199.471          37.000  
  22472176.711   118095101.284       -1199.443          36.000  
  22438767.173   117916561.106       -1199.685          37.000  
  22315695.891   117269780.1212      -1199.554          38.000  
  22577674.045   118646496.212       -1199.307          39.000  
  22327409.367   117331353.274       -1199.543          41.000  
 25  8 16 11 44  0.8020000  0 21G 1G 3G 2G 4G 5G 6G 7G 8G26G13G12G21
                                G15G10G 9G24G17G20G16G27G25
  22443214.323   117939875.697       -1199.422          49.000  
  22443157.809   117939895.055       -1199.343          49.000  
  22443169.525   117939871.001       -1199.406          49.000  
  22443201.040   117939826.117       -1199.336          49.000  
  22443203.254   117939893.854       -1199.368          49.000  
  22443202.785   117939874.626       -1199.363          49.000  
  22443182.036   117939824.226       -1199.414          49.000  
  22443208.746   117939891.312       -1199.349          49.000  
  22497428.972   118224798.604       -1199.321          35.000  
  22522636.495                       -1199.179          35.000  
  22355591.397   117479452.009       -1199.476          36.000  
  22578308.228   118649805.674       -1199.355          39.000  
  22553983.774                       -1199.464          39.000  
  22454639.233   117999931.727       -1199.362          39.000  
  22441457.984   117930667.6412      -1199.420          39.000  
  22450426.121   117977772.547       -1199.366          37.000  
  22472222.410   118095341.161       -1199.447          36.000  
  22438812.802   117916800.984       -1199.351          37.000  
  22315741.437   117270019.9992      -1199.385          38.000  
  22577719.655   118646736.096       -1199.479          39.000  
  22327455.003   117331593.151       -1199.291          41.000  
 25  8 16 11 44  1.0020000  0 21G 1G 3G 2G 4G 5G 6G 7G 8G26G13G12G21
                                G15G10G 9G24G17G20G16G27G25
  22443260.554   117940115.554       -1199.454          49.000  
  22443203.458   117940134.912       -1199.415          49.000  
  22443215.587   117940110.850       -1199.378          49.000  
  22443246.685   117940065.975       -1199.408          49.000  
  22443248.937   117940133.707       -1199.376          49.000  
  22443248.412   117940114.486       -1199.414          49.000  
  22443227.389   117940064.084       -1199.440          49.000  
  22443254.417   117940131.168       -1199.448          49.000  
  22497474.568   118225038.466       -1199.297          35.000  
  22522679.317                       -1199.179          35.000  
  22355636.999   117479691.851       -1199.435          36.000  
  22578353.875   118650045.526       -1199.401          38.000  
  22554029.548                       -1199.464          39.000  
  22454684.888   118000171.581       -1199.436          38.000  
  22441503.478   117930907.4902      -1199.451          39.000  
  22450471.786   117978012.398       -1199.448          37.000  
  22472268.073   118095581.022       -1199.521          36.000  
  22438858.417   117917040.842       -1199.381          37.000  
  22315786.986   117270259.8502      -1199.457          38.000  
  22577765.293   118646975.941       -1199.382          39.000  
  22327500.612   117331833.013       -1199.398          41.000  
 25  8 16 11 44  1.2020000  0 21G 1G 3G 2G 4G 5G 6G 7G 8G26G13G12G21
                                G15G10G 9G24G17G20G16G27G25
  22443306.517   117940355.410       -1199.172          49.000  
  22443249.109   117940374.774       -1199.249          49.000  
  22443261.010   117940350.720       -1199.164          49.000  
  22443292.306   117940305.838       -1199.329          49.000  
  22443294.596   117940373.569       -1199.270          49.000  
  22443294.026   117940354.344       -1199.153          49.000  
  22443273.378   117940303.939       -1199.175          49.000  
  22443300.030   117940371.032       -1199.216          49.000  
  22497520.184   118225278.323       -1199.072          35.000  
  22522723.908                       -1199.179          35.000  
  22355682.632   117479931.724       -1199.170          36.000  
  22578399.546   118650285.389       -1199.202          38.000  
  22554075.051                       -1199.464          39.000  
  22454730.529   118000411.441       -1199.117          38.000  
  22441549.056   117931147.3602      -1199.226          39.000  
  22450517.437   117978252.255       -1199.172          37.000  
  22472313.690   118095820.874       -1199.187          36.000  
  22438904.064   117917280.700       -1199.077          37.000  
  22315832.497   117270499.7152      -1199.188          38.000  
  22577810.978   118647215.808       -1199.222          39.000  
  22327546.257   117332072.860       -1198.969          41.000  
 25  8 16 11 44  1.4020000  0 21G 1G 3G 2G 4G 5G 6G 7G 8G26G13G12G21
                                G15G10G 9G24G17G20G16G27G25
  22443352.404   117940595.282       -1199.240          49.000  
  22443294.763   117940614.654       -1199.416          49.000  
  22443306.725   117940590.591       -1199.325          49.000  
  22443337.920   117940545.698       -1199.195          49.000  
  22443340.240   117940613.445       -1199.364          49.000  
  22443339.692   117940594.220       -1199.332          49.000  
  22443319.189   117940543.818       -1199.360          49.000  
  22443345.660   117940610.902       -1199.261          49.000  
  22497565.833   118225518.221       -1199.666          35.000  
  22522768.276                       -1199.179          35.000  
  22355728.262   117480171.599       -1199.456          36.000  
  22578445.166   118650525.247       -1199.069          38.000  
  22554120.528                       -1199.464          39.000  
  22454776.095   118000651.309       -1199.218          38.000  
  22441594.585   117931386.7451      -1199.609          39.000  
  22450563.085   117978492.155       -1199.614          37.000  
  22472359.342   118096060.721       -1198.847          36.000  
  22438949.597   117917520.606       -1199.777          37.000  
  22315878.053   117270739.557       -1198.859          38.000  
  22577856.597   118647455.664       -1199.002          39.000  
  22327591.852   117332312.765       -1199.643          41.000  
 25  8 16 11 44  1.6020000  0 21G 1G 3G 2G 4G 5G 6G 7G 8G26G13G12G21
                                G15G10G 9G24G17G20G16G27G25
  22443397.686   117940835.153       -1199.459          49.000  
  22443340.425   117940854.522       -1199.421          49.000  
  22443351.750   117940830.460       -1199.546          49.000  
  22443383.564   117940785.574       -1199.506          49.000  
  22443385.898   117940853.313       -1199.441          49.000  
  22443385.328   117940834.090       -1199.480          49.000  
  22443365.190   117940783.682       -1199.509          49.000  
  22443391.309   117940850.775       -1199.487          49.000  
  22497611.503   118225758.089       -1199.472          35.000  
  22522816.745                       -1199.179          35.000  
  22355773.875   117480411.456       -1199.375          36.000  
  22578490.804   118650765.118       -1199.486          38.000  
  22554165.990                       -1199.464          39.000  
  22454821.783   118000891.176       -1199.526          38.000  
  22441640.150   117931626.602       -1199.409          39.000  
  22450608.790   117978732.021       -1199.520          36.000  
  22472404.976   118096300.598       -1199.594          36.000  
  22438995.214   117917760.470       -1199.479          37.000  
  22315923.622   117270979.434       -1199.577          38.000  
  22577902.281   118647695.539       -1199.516          39.000  
  22327637.514   117332552.632       -1199.507          41.000  
 25  8 16 11 44  1.8020000  0 21G 1G 3G 2G 4G 5G 6G 7G 8G26G13G12G21
                                G15G10G 9G24G17G20G16G27G25
  22443443.155   117941075.040       -1199.471          49.000  
  22443386.079   117941094.410       -1199.411          49.000  
  22443396.793   117941070.351       -1199.457          49.000  
  22443429.156   117941025.462       -1199.405          49.000  
  22443431.551   117941093.202       -1199.417          49.000  
  22443430.958   117941073.979       -1199.431          49.000  
  22443410.861   117941023.576       -1199.449          49.000  
  22443436.909   117941090.660       -1199.382          49.000  
  22497657.169   118225997.977       -1199.450          35.000  
  22522866.739                       -1199.179          35.000  
  22355819.498   117480651.348       -1199.191          36.000  
  22578536.447   118651005.004       -1199.300          38.000  
  22554211.545                       -1199.464          39.000  
  22454867.393   118001131.062       -1199.471          38.000  
  22441685.820   117931866.493       -1199.294          39.000  
  22450654.430   117978971.911       -1199.474          36.000  
  22472450.646   118096540.488       -1199.575          37.000  
  22439040.910   117918000.364       -1199.468          37.000  
  22315969.184   117271219.319       -1199.529          38.000  
  22577947.919   118647935.427       -1199.384          39.000  
  22327683.128   117332792.523       -1199.527          41.000  
 25  8 16 11 44  2.0020000  0 21G 1G 3G 2G 4G 5G 6G 7G 8G26G13G12G21
                                G15G10G 9G24G17G20G16G27G25
  22443488.766   117941314.942       -1199.552          49.000  
  22443431.734   117941334.318       -1199.519          49.000  
  22443441.748   117941310.260       -1199.551          49.000  
  22443474.779   117941265.369       -1199.512          49.000  
  22443477.200   117941333.110       -1199.513          49.000  
  22443476.621   117941313.884       -1199.526          49.000  
  22443456.657   117941263.481       -1199.553          49.000  
  22443482.540   117941330.565       -1199.527          49.000  
  22497702.906   118226237.882       -1199.505          35.000  
  22522912.668                       -1199.179          35.000  
  22355865.140   117480891.256       -1199.493          36.000  
  22578582.101   118651244.915       -1199.594          38.000  
  22554257.176                       -1199.464          39.000  
  22454913.052   118001370.968       -1199.543          38.000  
  22441731.441   117932106.400       -1199.467          39.000  
  22450700.113   117979211.816       -1199.517          36.000  
  22472496.313   118096780.392       -1199.592          37.000  
  22439086.562   117918240.272       -1199.556          37.000  
  22316014.736   117271459.224       -1199.478          38.000  
  22577993.609   118648175.333       -1199.479          39.000  
  22327728.810   117333032.427       -1199.569          41.000  
 25  8 16 11 44  2.2020000  0 21G 1G 3G 2G 4G 5G 6G 7G 8G26G13G12G21
                                G15G10G 9G24G17G20G16G27G25
  22443534.680   117941554.822       -1199.430          49.000  
  22443477.392   117941574.199       -1199.457          49.000  
  22443486.886   117941550.139       -1199.445          49.000  
  22443520.411   117941505.250       -1199.437          49.000  
  22443522.829   117941572.989       -1199.424          49.000  
  22443522.245   117941553.764       -1199.438          49.000  
  22443502.587   117941503.360       -1199.405          49.000  
  22443528.162   117941570.445       -1199.417          49.000  
  22497748.550   118226477.762       -1199.432          35.000  
  22522959.841                       -1199.179          35.000  
  22355910.781   117481131.141       -1199.522          36.000  
  22578627.692   118651484.788       -1199.309          38.000  
  22554302.814                       -1199.464          39.000  
  22454958.667   118001610.844       -1199.413          38.000  
  22441777.026   117932346.283       -1199.449          39.000  
  22450745.808   117979451.697       -1199.450          36.000  
  22472541.952   118097020.272       -1199.458          37.000  
  22439132.176   117918480.147       -1199.360          37.000  
  22316060.278   117271699.101       -1199.392          38.000  
  22578039.246   118648415.216       -1199.476          39.000  
  22327774.434   117333272.302       -1199.354          41.000  
 25  8 16 11 44  2.4020000  0 21G 1G 3G 2G 4G 5G 6G 7G 8G26G13G12G21
                                G15G10G 9G24G17G20G16G27G25
  22443580.689   117941794.681       -1199.261          49.000  
  22443523.043   117941814.049       -1199.332          49.000  
  22443532.563   117941789.998       -1199.276          49.000  
  22443566.035   117941745.106       -1199.295          49.000  
  22443568.491   117941812.836       -1199.341          49.000  
  22443567.861   117941793.620       -1199.295          49.000  
  22443548.666   117941743.213       -1199.312          48.000  
  22443573.787   117941810.303       -1199.355          49.000  
  22497794.225   118226717.609       -1199.334          35.000  
  22523004.733                       -1199.179          35.000  
  22355956.448   117481370.990       -1199.331          36.000  
  22578673.314   118651724.642       -1199.304          38.000  
  22554348.483                       -1199.464          39.000  
  22455004.318   118001850.707       -1199.295          38.000  
  22441822.577   117932586.125       -1199.350          39.000  
  22450791.459   117979691.526       -1199.395          36.000  
  22472587.602   118097260.124       -1199.218          37.000  
  22439177.778   117918719.983       -1199.314          37.000  
  22316105.838   117271938.978       -1199.230          38.000  
  22578084.851   118648655.076       -1199.295          39.000  
  22327820.027   117333512.134       -1199.343          41.000  
 25  8 16 11 44  2.6020000  0 21G 1G 3G 2G 4G 5G 6G 7G 8G26G13G12G21
                                G15G10G 9G24G17G20G16G27G25
  22443626.831   117942034.534       -1199.169          49.000  
  22443568.690   117942053.898       -1199.166          49.000  
  22443578.576   117942029.850       -1199.196          49.000  
  22443611.616   117941984.955       -1199.165          49.000  
  22443614.115   117942052.685       -1199.166          49.000  
  22443613.446   117942033.468       -1199.172          49.000  
  22443594.738   117941983.066       -1199.190          48.000  
  22443619.400   117942050.150       -1199.153          49.000  
  22497839.892   118226957.463       -1199.117          35.000  
  22523046.923                       -1199.179          35.000  
  22356002.074   117481610.836       -1199.207          36.000  
  22578718.935   118651964.490       -1199.139          38.000  
  22554394.180                       -1199.464          39.000  
  22455049.956   118002090.555       -1199.117          38.000  
  22441868.228   117932825.971       -1199.074          39.000  
  22450837.095   117979931.381       -1199.109          36.000  
  22472633.234   118097499.985       -1199.227          37.000  
  22439223.399   117918959.841       -1199.080          37.000  
  22316151.381   117272178.824       -1199.238          37.000  
  22578130.447   118648894.930       -1199.276          39.000  
  22327865.637   117333751.991       -1199.094          41.000  
 25  8 16 11 44  2.8020000  0 21G 1G 3G 2G 4G 5G 6G 7G 8G26G13G12G21
                                G15G10G 9G24G17G20G16G27G25
  22443672.935   117942274.423       -1199.610          49.000  
  22443614.359   117942293.783       -1199.512          49.000  
  22443624.587   117942269.736       -1199.617          49.000  
  22443657.280   117942224.838       -1199.473          49.000  
  22443659.792   117942292.570       -1199.518          49.000  
  22443659.105   117942273.353       -1199.491          49.000  
  22443640.804   117942222.953       -1199.590          48.000  
  22443665.050   117942290.036       -1199.540          49.000  
  22497885.551   118227197.357       -1199.709          35.000  
  22523090.348                       -1199.179          35.000  
  22356047.678   117481850.721       -1199.547          36.000  
  22578764.619   118652204.379       -1199.550          38.000  
  22554439.874                       -1199.464          39.000  
  22455095.587   118002330.448       -1199.656          38.000  
  22441913.772   117933065.863       -1199.610          39.000  
  22450882.716   117980171.270       -1199.635          36.000  
  22472678.938   118097739.872       -1199.762          37.000  
  22439268.975   117919199.731       -1199.612          37.000  
  22316196.992   117272418.709       -1199.531          37.000  
  22578176.038   118649134.812       -1199.623          39.000  
  22327911.240   117333991.884       -1199.705          41.000  
 25  8 16 11 44  3.0020000  0 21G 1G 3G 2G 4G 5G 6G 7G 8G26G13G12G21
                                G15G10G 9G24G17G20G16G27G25
  22443718.996   117942514.288       -1199.395          49.000  
  22443660.017   117942533.654       -1199.415          49.000  
  22443670.525   117942509.604       -1199.436          49.000  
  22443702.917   117942464.710       -1199.407          49.000  
  22443705.453   117942532.442       -1199.453          49.000  
  22443704.729   117942513.224       -1199.407          49.000  
  22443686.781   117942462.821       -1199.442          48.000  
  22443710.681   117942529.909       -1199.467          49.000  
  22497931.211   118227437.217       -1199.450          35.000  
  22523136.092                       -1199.179          35.000  
  22356093.283   117482090.597       -1199.541          36.000  
  22578810.259   118652444.251       -1199.478          39.000  
  22554485.588                       -1199.464          39.000  
  22455141.224   118002570.311       -1199.402          38.000  
  22441959.294   117933305.732       -1199.518          39.000  
  22450928.376   117980411.132       -1199.397          37.000  
  22472724.627   118097979.730       -1199.360          36.000  
  22439314.553   117919439.592       -1199.325          37.000  
  22316242.596   117272658.580       -1199.440          37.000  
  22578221.716   118649374.683       -1199.487          39.000  
  22327956.874   117334231.734       -1199.223          41.000  
 25  8 16 11 44  3.2020000  0 21G 1G 3G 2G 4G 5G 6G 7G 8G26G13G12G21
                                G15G10G 9G24G17G20G16G27G25
  22443764.976   117942754.142       -1199.153          49.000  
  22443705.665   117942773.517       -1199.309          49.000  
  22443716.366   117942749.461       -1199.240          49.000  
  22443748.521   117942704.561       -1199.117          49.000  
  22443751.109   117942772.302       -1199.298          49.000  
  22443750.363   117942753.086       -1199.296          49.000  
  22443732.445   117942702.685       -1199.335          48.000  
  22443756.293   117942769.762       -1199.214          49.000  
  22497976.842   118227677.058       -1198.937          35.000  
  22523183.703                       -1199.179          36.000  
  22356138.931   117482330.443       -1199.182          36.000  
  22578855.876   118652684.127       -1199.628          39.000  
  22554531.277                       -1199.464          39.000  
  22455186.864   118002810.168       -1199.225          38.000  
  22442004.914   117933545.591       -1199.352          39.000  
  22450974.058   117980651.005       -1199.427          37.000  
  22472770.334   118098219.618       -1199.679          36.000  
  22439360.162   117919679.461       -1199.288          37.000  
  22316288.162   117272898.413       -1198.872          37.000  
  22578267.307   118649614.529       -1199.100          39.000  
  22328002.472   117334471.626       -1199.558          41.000  
 25  8 16 11 44  3.4020000  0 21G 1G 3G 2G 4G 5G 6G 7G 8G26G13G12G21
                                G15G10G 9G24G17G20G16G27G25
  22443810.741   117942994.024       -1199.571          49.000  
  22443751.308   117943013.392       -1199.424          49.000  
  22443761.832   117942989.342       -1199.546          49.000  
  22443794.145   117942944.440       -1199.436          49.000  
  22443796.736   117943012.178       -1199.455          49.000  
  22443796.022   117942992.963       -1199.435          49.000  
  22443777.645   117942942.562       -1199.507          49.000  
  22443801.937   117943009.641       -1199.483          49.000  
  22498022.507   118227916.947       -1199.643          35.000  
  22523230.749                       -1199.179          36.000  
  22356184.580   117482570.318       -1199.351          36.000  
  22578901.528   118652924.000       -1199.346          38.000  
  22554576.970                       -1199.464          39.000  
  22455232.521   118003050.047       -1199.566          39.000  
  22442050.517   117933785.463       -1199.391          39.000  
  22451019.717   117980890.882       -1199.593          36.000  
  22472816.017   118098459.487       -1199.427          37.000  
  22439405.765   117919919.341       -1199.592          37.000  
  22316333.737   117273138.300       -1199.583          37.000  
  22578312.973   118649854.411       -1199.518          39.000  
  22328048.104   117334711.500       -1199.573          41.000  
 25  8 16 11 44  3.6020000  0 21G 1G 3G 2G 4G 5G 6G 7G 8G26G13G12G21
                                G15G10G 9G24G17G20G16G27G25
  22443856.504   117943233.882       -1199.391          49.000  
  22443796.946   117943253.256       -1199.342          49.000  
  22443807.344   117943229.204       -1199.404          49.000  
  22443839.791   117943184.305       -1199.302          49.000  
  22443842.377   117943252.045       -1199.382          49.000  
  22443841.660   117943232.824       -1199.296          49.000  
  22443822.950   117943182.427       -1199.416          49.000  
  22443847.582   117943249.506       -1199.387          49.000  
  22498068.133   118228156.805       -1199.495          35.000  
  22523276.432                       -1199.179          36.000  
  22356230.251   117482810.201       -1199.558          36.000  
  22578947.245   118653163.878       -1199.535          38.000  
  22554622.623                       -1199.464          39.000  
  22455278.116   118003289.905       -1199.352          39.000  
  22442096.121   117934025.338       -1199.507          38.000  
  22451065.338   117981130.741       -1199.398          36.000  
  22472861.654   118098699.351       -1199.315          37.000  
  22439451.390   117920159.196       -1199.318          37.000  
  22316379.345   117273378.162       -1199.427          37.000  
  22578358.581   118650094.273       -1199.388          39.000  
  22328093.725   117334951.354       -1199.299          41.000  
 25  8 16 11 44  3.8020000  0 21G 1G 3G 2G 4G 5G 6G 7G 8G26G13G12G21
                                G15G10G 9G24G17G20G16G27G25
  22443902.280   117943473.728       -1199.365          49.000  
  22443842.590   117943493.101       -1199.330          49.000  
  22443852.639   117943469.051       -1199.389          49.000  
  22443885.385   117943424.154       -1199.351          49.000  
  22443887.998   117943491.890       -1199.357          49.000  
  22443887.287   117943472.671       -1199.337          49.000  
  22443868.198   117943422.273       -1199.363          49.000  
  22443893.210   117943489.352       -1199.336          49.000  
  22498113.776   118228396.649       -1199.330          35.000  
  22523322.638                       -1199.179          36.000  
  22356275.867   117483050.045       -1199.468          36.000  
  22578992.947   118653403.722       -1199.387          39.000  
  22554668.322                       -1199.464          39.000  
  22455323.761   118003529.754       -1199.370          39.000  
  22442141.682   117934265.182       -1199.348          38.000  
  22451110.981   117981370.585       -1199.363          36.000  
  22472907.309   118098939.198       -1199.418          37.000  
  22439496.972   117920399.040       -1199.399          37.000  
  22316424.943   117273618.010       -1199.469          37.000  
  22578404.214   118650334.118       -1199.382          39.000  
  22328139.319   117335191.201       -1199.358          41.000  
 25  8 16 11 44  4.0020000  0 21G 1G 3G 2G 4G 5G 6G 7G 8G26G13G12G21
                                G15G10G 9G24G17G20G16G27G25
  22443948.046   117943713.575       -1199.220          49.000  
  22443888.236   117943732.951       -1199.244          49.000  
  22443898.282   117943708.898       -1199.247          49.000  
  22443931.021   117943664.003       -1199.278          49.000  
  22443933.612   117943731.740       -1199.290          49.000  
  22443932.914   117943712.522       -1199.291          49.000  
  22443913.544   117943662.121       -1199.267          49.000  
  22443938.833   117943729.198       -1199.227          49.000  
  22498159.436   118228636.495       -1199.260          35.000  
  22523369.391                       -1199.179          36.000  
  22356321.529   117483289.892       -1199.221          36.000  
  22579038.606   118653643.570       -1199.219          38.000  
  22554714.076                       -1199.464          39.000  
  22455369.393   118003769.601       -1199.197          39.000  
  22442187.340   117934505.030       -1199.191          38.000  
  22451156.639   117981610.431       -1199.170          36.000  
  22472952.948   118099179.040       -1199.157          37.000  
  22439542.714   117920638.888       -1199.206          37.000  
  22316470.487   117273857.852       -1199.208          37.000  
  22578449.847   118650573.964       -1199.208          39.000  
  22328185.001   117335431.047       -1199.227          40.000  
 25  8 16 11 44  4.2020000  0 21G 1G 3G 2G 4G 5G 6G 7G 8G26G13G12G21
                                G15G10G 9G24G17G20G16G27G25
  22443993.592   117943953.403       -1199.163          49.000  
  22443933.871   117943972.770       -1199.227          49.000  
  22443944.199   117943948.715       -1199.109          49.000  
  22443976.637   117943903.830       -1199.284          49.000  
  22443979.246   117943971.557       -1199.201          49.000  
  22443978.532   117943952.342       -1199.254          49.000  
  22443959.206   117943901.933       -1199.144          49.000  
  22443984.473   117943969.022       -1199.199          49.000  
  22498205.031   118228876.315       -1199.358          35.000  
  22523412.841                       -1199.179          36.000  
  22356367.163   117483529.717       -1199.062          36.000  
  22579084.274   118653883.381       -1199.202          38.000  
  22554759.697                       -1199.464          39.000  
  22455415.012   118004009.416       -1199.219          39.000  
  22442232.889   117934744.838       -1199.240          38.000  
  22451202.299   117981850.257       -1199.166          36.000  
  22472998.577   118099418.861       -1199.160          37.000  
  22439588.308   117920878.691       -1199.310          37.000  
  22316516.080   117274097.714       -1198.911          37.000  
  22578495.456   118650813.800       -1199.139          39.000  
  22328230.600   117335670.857       -1199.249          40.000  
 25  8 16 11 44  4.4020000  0 21G 1G 3G 2G 4G 5G 6G 7G 8G26G13G12G21
                                G15G10G 9G24G17G20G16G27G25
  22444039.140   117944193.250       -1199.274          49.000  
  22443979.508   117944212.618       -1199.287          49.000  
  22443990.216   117944188.565       -1199.221          49.000  
  22444022.244   117944143.675       -1199.279          49.000  
  22444024.908   117944211.404       -1199.260          49.000  
  22444024.134   117944192.189       -1199.286          49.000  
  22444005.094   117944141.785       -1199.226          49.000  
  22444030.109   117944208.871       -1199.273          49.000  
  22498250.658   118229116.162       -1199.200          35.000  
  22523455.808                       -1199.179          36.000  
  22356412.823   117483769.571       -1199.264          36.000  
  22579129.925   118654123.234       -1199.265          38.000  
  22554805.356                       -1199.464          39.000  
  22455460.697   118004249.266       -1199.219          39.000  
  22442278.473   117934984.685       -1199.188          38.000  
  22451247.961   117982090.101       -1199.181          37.000  
  22473044.220   118099658.711       -1199.146          37.000  
  22439633.931   117921118.537       -1199.104          37.000  
  22316561.682   117274337.566       -1199.342          37.000  
  22578541.113   118651053.646       -1199.214          39.000  
  22328276.204   117335910.706       -1199.087          40.000  
 25  8 16 11 44  4.6020000  0 21G 1G 3G 2G 4G 5G 6G 7G 8G26G13G12G21
                                G15G10G 9G24G17G20G16G27G25
  22444084.714   117944433.100       -1199.363          49.000  
  22444025.153   117944452.466       -1199.344          49.000  
  22444035.855   117944428.416       -1199.342          49.000  
  22444067.876   117944383.522       -1199.331          49.000  
  22444070.591   117944451.254       -1199.351          49.000  
  22444069.758   117944432.037       -1199.331          49.000  
  22444050.704   117944381.635       -1199.337          49.000  
  22444075.764   117944448.719       -1199.359          49.000  
  22498296.258   118229356.010       -1199.341          35.000  
  22523498.561                       -1199.179          36.000  
  22356458.462   117484009.422       -1199.329          36.000  
  22579175.601   118654363.088       -1199.340          38.000  
  22554851.007                       -1199.464          39.000  
  22455506.344   118004489.116       -1199.364          39.000  
  22442324.048   117935224.536       -1199.291          39.000  
  22451293.634   117982329.951       -1199.383          37.000  
  22473089.871   118099898.564       -1199.526          37.000  
  22439679.566   117921358.394       -1199.412          37.000  
  22316607.269   117274577.411       -1199.299          37.000  
  22578586.711   118651293.496       -1199.348          39.000  
  22328321.819   117336150.556       -1199.427          41.000  
 25  8 16 11 44  4.8020000  0 21G 1G 3G 2G 4G 5G 6G 7G 8G26G13G12G21
                                G15G10G 9G24G17G20G16G27G25
  22444130.268   117944672.944       -1199.187          49.000  
  22444070.795   117944692.311       -1199.188          49.000  
  22444081.533   117944668.260       -1199.161          49.000  
  22444113.485   117944623.369       -1199.248          49.000  
  22444116.215   117944691.097       -1199.155          49.000  
  22444115.359   117944671.881       -1199.182          49.000  
  22444096.314   117944621.477       -1199.115          49.000  
  22444121.382   117944688.563       -1199.163          49.000  
  22498341.884   118229595.854       -1199.193          35.000  
  22523542.363                       -1199.179          36.000  
  22356504.154   117484249.259       -1199.031          36.000  
  22579221.263   118654602.923       -1199.012          38.000  
  22554896.711                       -1199.464          39.000  
  22455552.000   118004728.959       -1199.175          39.000  
  22442369.689   117935464.380       -1199.090          39.000  
  22451339.261   117982569.797       -1199.168          37.000  
  22473135.523   118100138.410       -1199.380          37.000  
  22439725.254   117921598.236       -1199.254          37.000  
  22316652.835   117274817.252       -1199.090          37.000  
  22578632.351   118651533.345       -1199.259          39.000  
  22328367.423   117336390.404       -1199.354          41.000  
 25  8 16 11 44  5.0020000  0 21G 1G 3G 2G 4G 5G 6G 7G 8G26G13G12G21
                                G15G10G 9G24G17G20G16G27G25
  22444175.769   117944912.787       -1199.214          49.000  
  22444116.438   117944932.151       -1199.203          49.000  
  22444127.609   117944908.101       -1199.235          49.000  
  22444159.107   117944863.207       -1199.188          49.000  
  22444161.860   117944930.937       -1199.217          49.000  
  22444160.964   117944911.722       -1199.189          49.000  
  22444142.139   117944861.320       -1199.249          49.000  
  22444167.024   117944928.406       -1199.222          49.000  
  22498387.499   118229835.701       -1199.236          35.000  
  22523586.825                       -1199.179          36.000  
  22356549.791   117484489.101       -1199.355          36.000  
  22579266.916   118654842.764       -1199.222          38.000  
  22554942.422                       -1199.464          39.000  
  22455597.592   118004968.802       -1199.255          39.000  
  22442415.212   117935704.223       -1199.286          39.000  
  22451384.919   117982809.644       -1199.248          37.000  
  22473181.128   118100378.249       -1199.156          36.000  
  22439770.864   117921838.077       -1199.178          37.000  
  22316698.441   117275057.095       -1199.294          37.000  
  22578677.944   118651773.182       -1199.188          39.000  
  22328413.032   117336630.246       -1199.140          41.000  
 25  8 16 11 44  5.2020000  0 21G 1G 3G 2G 4G 5G 6G 7G 8G26G13G12G21
                                G15G10G 9G24G17G20G16G27G25
  22444221.253   117945152.621       -1199.245          48.000  
  22444162.088   117945171.988       -1199.265          49.000  
  22444173.797   117945147.937       -1199.245          48.000  
  22444204.729   117945103.046       -1199.283          49.000  
  22444207.508   117945170.775       -1199.276          49.000  
  22444206.592   117945151.559       -1199.239          49.000  
  22444187.933   117945101.153       -1199.219          49.000  
  22444212.637   117945168.243       -1199.258          49.000  
  22498433.112   118230075.536       -1199.229          35.000  
  22523631.643                       -1199.179          36.000  
  22356595.424   117484728.931       -1199.213          36.000  
  22579312.536   118655082.600       -1199.230          38.000  
  22554988.106                       -1199.464          39.000  
  22455643.238   118005208.633       -1199.199          39.000  
  22442460.838   117935944.055       -1199.271          39.000  
  22451430.598   117983049.474       -1199.219          37.000  
  22473226.788   118100618.084       -1199.236          36.000  
  22439816.481   117922077.917       -1199.229          37.000  
  22316744.052   117275296.929       -1199.245          37.000  
  22578723.581   118652013.020       -1199.249          39.000  
  22328458.664   117336870.085       -1199.284          41.000  
 25  8 16 11 44  5.4020000  0 21G 1G 3G 2G 4G 5G 6G 7G 8G26G13G12G21
                                G15G10G 9G24G17G20G16G27G25
  22444266.688   117945392.489       -1199.291          48.000  
  22444207.743   117945411.854       -1199.291          49.000  
  22444220.021   117945387.808       -1199.308          48.000  
  22444250.306   117945342.910       -1199.279          49.000  
  22444253.137   117945410.644       -1199.309          49.000  
  22444252.209   117945391.424       -1199.272          49.000  
  22444233.563   117945341.020       -1199.297          49.000  
  22444258.269   117945408.109       -1199.257          49.000  
  22498478.756   118230315.399       -1199.240          35.000  
  22523674.946                       -1199.179          36.000  
  22356641.082   117484968.801       -1199.237          35.000  
  22579358.168   118655322.465       -1199.233          38.000  
  22555033.764                       -1199.464          39.000  
  22455688.853   118005448.504       -1199.294          39.000  
  22442506.482   117936183.925       -1199.324          39.000  
  22451476.235   117983289.345       -1199.279          37.000  
  22473272.418   118100857.951       -1199.191          36.000  
  22439862.060   117922317.785       -1199.303          37.000  
  22316789.636   117275536.799       -1199.297          37.000  
  22578769.205   118652252.885       -1199.224          39.000  
  22328504.298   117337109.951       -1199.283          41.000  
 25  8 16 11 44  5.6020000  0 21G 1G 3G 2G 4G 5G 6G 7G 8G26G13G12G21
                                G15G10G 9G24G17G20G16G27G25
  22444312.112   117945632.334       -1199.219          49.000  
  22444253.400   117945651.700       -1199.207          49.000  
  22444266.026   117945627.653       -1199.267          48.000  
  22444295.887   117945582.760       -1199.245          49.000  
  22444298.785   117945650.490       -1199.220          49.000  
  22444297.824   117945631.272       -1199.239          49.000  
  22444279.632   117945580.870       -1199.271          49.000  
  22444303.886   117945647.954       -1199.181          49.000  
  22498524.399   118230555.246       -1199.232          35.000  
  22523718.806                       -1199.179          36.000  
  22356686.758   117485208.651       -1199.271          35.000  
  22579403.833   118655562.320       -1199.289          39.000  
  22555079.437                       -1199.464          39.000  
  22455734.515   118005688.351       -1199.270          39.000  
  22442552.075   117936423.771       -1199.277          39.000  
  22451521.905   117983529.192       -1199.196          37.000  
  22473318.112   118101097.806       -1199.321          36.000  
  22439907.640   117922557.626       -1199.147          37.000  
  22316835.218   117275776.645       -1199.234          37.000  
  22578814.817   118652492.734       -1199.264          39.000  
  22328549.912   117337349.801       -1199.290          41.000  
 25  8 16 11 44  5.8020000  0 21G 1G 3G 2G 4G 5G 6G 7G 8G26G13G12G21
                                G15G10G 9G24G17G20G16G27G25
  22444357.458   117945872.168       -1199.180          48.000  
  22444299.039   117945891.530       -1199.174          49.000  
  22444311.744   117945867.479       -1199.129          48.000  
  22444341.513   117945822.593       -1199.225          49.000  
  22444344.406   117945890.318       -1199.129          49.000  
  22444343.429   117945871.102       -1199.181          49.000  
  22444325.365   117945820.695       -1199.077          49.000  
  22444349.517   117945887.785       -1199.115          49.000  
  22498570.007   118230795.076       -1199.173          35.000  
  22523762.910                       -1199.179          36.000  
  22356732.384   117485448.478       -1198.946          35.000  
  22579449.472   118655802.148       -1198.948          39.000  
  22555125.134                       -1199.464          38.000  
  22455780.211   118005928.179       -1199.147          39.000  
  22442597.670   117936663.600       -1199.069          39.000  
  22451567.537   117983769.020       -1199.242          37.000  
  22473363.747   118101337.633       -1199.380          36.000  
  22439953.191   117922797.459       -1199.333          37.000  
  22316880.839   117276016.476       -1199.041          37.000  
  22578860.417   118652732.562       -1199.168          39.000  
  22328595.522   117337589.630       -1199.419          41.000  
 25  8 16 11 44  6.0020000  0 21G 1G 3G 2G 4G 5G 6G 7G 8G26G13G12G21
                                G15G10G 9G24G17G20G16G27G25
  22444402.897   117946112.024       -1199.308          48.000  
  22444344.687   117946131.387       -1199.360          49.000  
  22444357.427   117946107.336       -1199.413          48.000  
  22444387.173   117946062.451       -1199.386          49.000  
  22444390.059   117946130.180       -1199.357          49.000  
  22444389.082   117946110.964       -1199.371          49.000  
  22444370.642   117946060.559       -1199.429          49.000  
  22444395.160   117946127.647       -1199.424          49.000  
  22498615.565   118231034.916       -1199.296          35.000  
  22523806.876                       -1199.179          36.000  
  22356778.017   117485688.330       -1199.694          36.000  
  22579495.104   118656042.034       -1199.479          38.000  
  22555170.821                       -1199.464          38.000  
  22455825.859   118006168.062       -1199.254          39.000  
  22442643.215   117936903.456       -1199.480          39.000  
  22451613.173   117984008.846       -1199.397          37.000  
  22473409.392   118101577.499       -1199.302          36.000  
  22439998.807   117923037.313       -1199.321          37.000  
  22316926.473   117276256.340       -1199.647          37.000  
  22578906.004   118652972.432       -1199.333          39.000  
  22328641.179   117337829.496       -1199.262          41.000  
 25  8 16 11 44  6.2020000  0 21G 1G 3G 2G 4G 5G 6G 7G 8G26G13G12G21
                                G15G10G 9G24G17G20G16G27G25
  22444448.198   117946351.881       -1199.322          48.000  
  22444390.325   117946371.233       -1199.241          49.000  
  22444402.874   117946347.175       -1199.138          49.000  
  22444432.777   117946302.301       -1199.300          49.000  
  22444435.687   117946370.022       -1199.242          49.000  
  22444434.703   117946350.811       -1199.292          49.000  
  22444415.753   117946300.399       -1199.257          49.000  
  22444440.773   117946367.486       -1199.198          49.000  
  22498661.137   118231274.766       -1199.125          35.000  
  22523851.695                       -1199.179          35.000  
  22356823.652   117485928.164       -1199.212          36.000  
  22579540.757   118656281.866       -1199.268          38.000  
  22555216.495                       -1199.464          38.000  
  22455871.538   118006407.905       -1199.215          39.000  
  22442688.824   117937143.297       -1199.202          39.000  
  22451658.821   117984248.694       -1199.069          37.000  
  22473455.001   118101817.349       -1199.319          36.000  
  22440044.395   117923277.162       -1199.215          37.000  
  22316972.033   117276496.169       -1199.241          37.000  
  22578951.650   118653212.279       -1199.327          39.000  
  22328686.824   117338069.343       -1199.228          40.000  
 25  8 16 11 44  6.4020000  0 21G 1G 3G 2G 4G 5G 6G 7G 8G26G13G12G21
                                G15G10G 9G24G17G20G16G27G25
  22444493.972   117946591.737       -1199.403          48.000  
  22444435.980   117946611.092       -1199.381          49.000  
  22444448.642   117946587.031       -1199.328          49.000  
  22444478.397   117946542.155       -1199.361          49.000  
  22444481.320   117946609.881       -1199.375          49.000  
  22444480.318   117946590.661       -1199.326          49.000  
  22444460.826   117946540.255       -1199.327          49.000  
  22444486.390   117946607.336       -1199.372          49.000  
  22498706.676   118231514.629       -1199.354          35.000  
  22523897.774                       -1199.179          35.000  
  22356869.278   117486168.018       -1199.225          36.000  
  22579586.424   118656521.720       -1199.311          38.000  
  22555262.194                       -1199.464          38.000  
  22455917.163   118006647.767       -1199.373          39.000  
  22442734.394   117937383.154       -1199.303          39.000  
  22451704.494   117984488.560       -1199.369          37.000  
  22473500.654   118102057.200       -1199.300          36.000  
  22440090.001   117923517.019       -1199.331          37.000  
  22317017.622   117276736.025       -1199.417          37.000  
  22578997.258   118653452.134       -1199.360          39.000  
  22328732.406   117338309.202       -1199.333          40.000  
 25  8 16 11 44  6.6020000  0 21G 1G 3G 2G 4G 5G 6G 7G 8G26G13G12G21
                                G15G10G 9G24G17G20G16G27G25
  22444539.516   117946831.589       -1199.128          48.000  
  22444481.636   117946850.952       -1199.349          49.000  
  22444493.865   117946826.887       -1199.415          49.000  
  22444524.019   117946782.011       -1199.403          49.000  
  22444526.938   117946849.745       -1199.322          49.000  
  22444525.960   117946830.521       -1199.323          49.000  
  22444505.959   117946780.111       -1199.317          49.000  
  22444532.042   117946847.200       -1199.340          49.000  
  22498752.268   118231754.471       -1199.066          35.000  
  22523945.230                       -1199.179          35.000  
  22356914.935   117486407.878       -1199.294          36.000  
  22579632.070   118656761.579       -1199.362          38.000  
  22555307.880                       -1199.464          38.000  
  22455962.824   118006887.623       -1199.242          39.000  
  22442779.956   117937623.013       -1199.251          38.000  
  22451750.182   117984728.410       -1199.239          37.000  
  22473546.256   118102297.057       -1199.303          36.000  
  22440135.621   117923756.867       -1199.214          37.000  
  22317063.172   117276975.884       -1199.416          37.000  
  22579042.889   118653691.987       -1199.266          39.000  
  22328778.014   117338549.057       -1199.257          40.000  
 25  8 16 11 44  6.8020000  0 21G 1G 3G 2G 4G 5G 6G 7G 8G26G13G12G21
                                G15G10G 9G24G17G20G16G27G25
  22444584.841   117947071.440       -1199.078          48.000  
  22444527.293   117947090.803       -1199.284          49.000  
  22444538.804   117947066.738       -1199.059          49.000  
  22444569.640   117947021.856       -1199.099          49.000  
  22444572.572   117947089.592       -1199.207          49.000  
  22444571.583   117947070.369       -1199.053          49.000  
  22444551.193   117947019.975       -1199.272          49.000  
  22444577.673   117947087.053       -1199.164          49.000  
  22498797.841   118231994.340       -1199.194          35.000  
  22523993.531                       -1199.179          35.000  
  22356960.595   117486647.764       -1199.728          36.000  
  22579677.751   118657001.414       -1198.815          38.000  
  22555353.500                       -1199.464          38.000  
  22456008.464   118007127.441       -1198.628          39.000  
  22442825.586   117937862.881       -1199.324          38.000  
  22451795.826   117984968.313       -1199.995          37.000  
  22473591.864   118102536.881       -1198.696          36.000  
  22440181.249   117923996.741       -1199.475          37.000  
  22317108.782   117277215.727       -1198.890          37.000  
  22579088.473   118653931.831       -1198.979          39.000  
  22328823.666   117338788.914       -1199.268          40.000  
 25  8 16 11 44  7.0020000  0 21G 1G 3G 2G 4G 5G 6G 7G 8G26G13G12G21
                                G15G10G 9G24G17G20G16G27G25
  22444630.139   117947311.301       -1199.356          48.000  
  22444572.944   117947330.664       -1199.347          49.000  
  22444583.789   117947306.610       -1199.446          49.000  
  22444615.283   117947261.723       -1199.292          49.000  
  22444618.252   117947329.462       -1199.345          49.000  
  22444617.233   117947310.236       -1199.386          49.000  
  22444597.183   117947259.828       -1199.342          49.000  
  22444623.342   117947326.919       -1199.412          49.000  
  22498843.453   118232234.206       -1199.208          35.000  
  22524045.538                       -1199.179          35.000  
  22357006.246   117486887.621       -1199.438          35.000  
  22579723.403   118657241.286       -1199.615          38.000  
  22555399.184                       -1199.464          38.000  
  22456054.108   118007367.315       -1199.377          39.000  
  22442871.134   117938102.739       -1199.442          38.000  
  22451841.492   117985208.159       -1199.081          37.000  
  22473637.524   118102776.760       -1199.488          37.000  
  22440226.924   117924236.602       -1199.251          37.000  
  22317154.346   117277455.599       -1199.435          37.000  
  22579134.077   118654171.696       -1199.344          39.000  
  22328869.272   117339028.775       -1199.278          40.000  
 25  8 16 11 44  7.2020000  0 21G 1G 3G 2G 4G 5G 6G 7G 8G26G13G12G21
                                G15G10G 9G24G17G20G16G27G25
  22444675.506   117947551.162       -1199.458          48.000  
  22444618.578   117947570.532       -1199.382          49.000  
  22444629.088   117947546.474       -1199.448          49.000  
  22444660.882   117947501.594       -1199.409          49.000  
  22444663.880   117947569.329       -1199.361          49.000  
  22444662.841   117947550.100       -1199.397          49.000  
  22444643.158   117947499.700       -1199.325          49.000  
  22444668.954   117947566.785       -1199.341          49.000  
  22498889.113   118232474.079       -1199.502          35.000  
  22524092.937                       -1199.179          35.000  
  22357051.899   117487127.498       -1199.387          35.000  
  22579769.045   118657481.146       -1199.378          38.000  
  22555444.872                       -1199.464          38.000  
  22456099.731   118007607.177       -1199.410          39.000  
  22442916.796   117938342.606       -1199.347          38.000  
  22451887.182   117985448.036       -1199.393          37.000  
  22473683.175   118103016.618       -1199.460          37.000  
  22440272.552   117924476.471       -1199.453          37.000  
  22317199.941   117277695.468       -1199.412          37.000  
  22579179.742   118654411.565       -1199.371          39.000  
  22328914.926   117339268.644       -1199.438          41.000  
 25  8 16 11 44  7.4020000  0 21G 1G 3G 2G 4G 5G 6G 7G 8G26G13G12G21
                                G15G10G 9G24G17G20G16G27G25
  22444720.990   117947791.039       -1199.397          48.000  
  22444664.243   117947810.405       -1199.437          49.000  
  22444674.490   117947786.344       -1199.427          49.000  
  22444706.504   117947741.465       -1199.387          49.000  
  22444709.533   117947809.199       -1199.385          49.000  
  22444708.457   117947789.975       -1199.397          49.000  
  22444689.276   117947739.572       -1199.443          49.000  
  22444714.579   117947806.657       -1199.353          49.000  
  22498934.769   118232713.942       -1199.325          34.000  
  22524140.108                       -1199.179          35.000  
  22357097.515   117487367.365       -1199.414          35.000  
  22579814.640   118657721.017       -1199.398          38.000  
  22555490.570                       -1199.464          38.000  
  22456145.370   118007847.052       -1199.445          39.000  
  22442962.387   117938582.481       -1199.477          38.000  
  22451932.871   117985687.910       -1199.392          37.000  
  22473728.777   118103256.490       -1199.408          37.000  
  22440318.240   117924716.341       -1199.354          37.000  
  22317245.558   117277935.342       -1199.536          37.000  
  22579225.379   118654651.436       -1199.454          39.000  
  22328960.542   117339508.516       -1199.422          41.000  
 25  8 16 11 44  7.6020000  0 21G 1G 3G 2G 4G 5G 6G 7G 8G26G13G12G21
                                G15G10G 9G24G17G20G16G27G25
  22444766.231   117948030.907       -1199.376          48.000  
  22444709.891   117948050.270       -1199.293          49.000  
  22444719.958   117948026.208       -1199.285          49.000  
  22444752.110   117947981.334       -1199.343          49.000  
  22444755.161   117948049.071       -1199.355          49.000  
  22444754.073   117948029.840       -1199.365          49.000  
  22444735.420   117947979.436       -1199.373          48.000  
  22444760.223   117948046.523       -1199.303          49.000  
  22498980.419   118232953.813       -1199.337          34.000  
  22524189.034                       -1199.179          36.000  
  22357143.140   117487607.218       -1199.145          35.000  
  22579860.252   118657960.878       -1199.313          38.000  
  22555536.250                       -1199.464          38.000  
  22456191.003   118008086.923       -1199.379          39.000  
  22443008.008   117938822.343       -1199.314          38.000  
  22451978.543   117985927.779       -1199.339          36.000  
  22473774.437   118103496.359       -1199.341          37.000  
  22440363.869   117924956.203       -1199.222          36.000  
  22317291.197   117278175.196       -1199.190          37.000  
  22579271.043   118654891.295       -1199.195          39.000  
  22329006.177   117339748.388       -1199.386          41.000  
 25  8 16 11 44  7.8020000  0 21G 1G 3G 2G 4G 5G 6G 7G 8G26G13G12G21
                                G15G10G 9G24G17G20G16G27G25
  22444811.677   117948270.761       -1199.242          48.000  
  22444755.548   117948290.120       -1199.266          49.000  
  22444765.684   117948266.064       -1199.229          49.000  
  22444797.710   117948221.191       -1199.270          49.000  
  22444800.802   117948288.917       -1199.260          49.000  
  22444799.677   117948269.696       -1199.229          49.000  
  22444781.280   117948219.291       -1199.191          48.000  
  22444805.860   117948286.378       -1199.251          49.000  
  22499026.068   118233193.668       -1199.236          34.000  
  22524234.782                       -1199.179          36.000  
  22357188.742   117487847.066       -1199.027          35.000  
  22579905.878   118658200.738       -1199.118          38.000  
  22555581.860                       -1199.464          38.000  
  22456236.590   118008326.779       -1199.329          39.000  
  22443053.620   117939062.198       -1199.272          38.000  
  22452024.198   117986167.615       -1199.385          37.000  
  22473820.030   118103736.231       -1199.248          37.000  
  22440409.418   117925196.040       -1199.329          36.000  
  22317336.848   117278415.062       -1199.000          37.000  
  22579316.616   118655131.151       -1199.125          39.000  
  22329051.766   117339988.220       -1199.371          41.000  
 25  8 16 11 44  8.0020000  0 21G 1G 3G 2G 4G 5G 6G 7G 8G26G13G12G21
                                G15G10G 9G24G17G20G16G27G25
  22444857.206   117948510.606       -1199.207          48.000  
  22444801.206   117948529.971       -1199.212          49.000  
  22444811.692   117948505.925       -1199.385          48.000  
  22444843.334   117948461.038       -1199.207          49.000  
  22444846.429   117948528.765       -1199.173          49.000  
  22444845.326   117948509.547       -1199.227          49.000  
  22444827.201   117948459.144       -1199.237          48.000  
  22444851.495   117948526.224       -1199.222          49.000  
  22499071.735   118233433.517       -1199.103          34.000  
  22524278.105                       -1199.179          36.000  
  22357234.397   117488086.925       -1199.224          35.000  
  22579951.521   118658440.588       -1199.222          38.000  
  22555627.521                       -1199.464          38.000  
  22456282.262   118008566.626       -1199.149          39.000  
  22443099.278   117939302.045       -1199.139          38.000  
  22452069.839   117986407.467       -1199.263          37.000  
  22473865.639   118103976.080       -1199.253          37.000  
  22440455.061   117925435.896       -1199.299          37.000  
  22317382.427   117278654.919       -1199.296          37.000  
  22579362.252   118655371.007       -1199.223          39.000  
  22329097.393   117340228.073       -1199.134          41.000  
 25  8 16 11 44  8.2020000  0 21G 1G 3G 2G 4G 5G 6G 7G 8G26G13G12G21
                                G15G10G 9G24G17G20G16G27G25
  22444902.972   117948750.417       -1199.092          48.000  
  22444846.834   117948769.789       -1199.154          49.000  
  22444857.876   117948745.733       -1199.234          48.000  
  22444888.965   117948700.855       -1199.146          49.000  
  22444892.084   117948768.582       -1199.242          49.000  
  22444890.939   117948749.361       -1199.149          49.000  
  22444873.119   117948698.953       -1199.249          48.000  
  22444897.104   117948766.041       -1199.103          49.000  
  22499117.403   118233673.346       -1199.225          34.000  
  22524321.302                       -1199.179          36.000  
  22357280.002   117488326.740       -1199.282          35.000  
  22579997.206   118658680.403       -1199.161          38.000  
  22555673.189                       -1199.464          38.000  
  22456327.839   118008806.438       -1199.137          39.000  
  22443144.876   117939541.859       -1199.137          39.000  
  22452115.496   117986647.278       -1199.138          37.000  
  22473911.288   118104215.893       -1199.277          36.000  
  22440500.609   117925675.715       -1199.260          37.000  
  22317428.025   117278894.735       -1199.258          37.000  
  22579407.854   118655610.821       -1199.167          39.000  
  22329143.033   117340467.886       -1199.150          41.000  
 25  8 16 11 44  8.4020000  0 21G 1G 3G 2G 4G 5G 6G 7G 8G26G13G12G21
                                G15G10G 9G24G17G20G16G27G25
  22444948.498   117948990.247       -1199.060          48.000  
  22444892.472   117949009.613       -1199.062          49.000  
  22444904.072   117948985.560       -1199.050          48.000  
  22444934.591   117948940.678       -1199.065          49.000  
  22444937.702   117949008.403       -1199.020          49.000  
  22444936.548   117948989.184       -1199.006          49.000  
  22444918.918   117948938.773       -1198.863          49.000  
  22444942.739   117949005.871       -1199.062          49.000  
  22499163.030   118233913.165       -1199.272          35.000  
  22524366.853                       -1199.179          36.000  
  22357325.669   117488566.566       -1199.056          35.000  
  22580042.867   118658920.233       -1199.034          38.000  
  22555718.853                       -1199.464          38.000  
  22456373.499   118009046.266       -1199.015          39.000  
  22443190.491   117939781.687       -1199.049          39.000  
  22452161.139   117986887.102       -1198.990          37.000  
  22473956.938   118104455.711       -1198.935          36.000  
  22440546.261   117925915.537       -1199.047          37.000  
  22317473.596   117279134.565       -1199.039          37.000  
  22579453.482   118655850.649       -1199.081          39.000  
  22329188.689   117340707.707       -1198.965          41.000  
 25  8 16 11 44  8.6020000  0 21G 1G 3G 2G 4G 5G 6G 7G 8G26G13G12G21
                                G15G10G 9G24G17G20G16G27G25
  22444994.048   117949230.089       -1199.371          48.000  
  22444938.103   117949249.450       -1199.263          49.000  
  22444950.083   117949225.397       -1199.282          48.000  
  22444980.250   117949180.516       -1199.217          49.000  
  22444983.367   117949248.250       -1199.379          49.000  
  22444982.188   117949229.028       -1199.300          49.000  
  22444964.973   117949178.630       -1199.387          48.000  
  22444988.371   117949245.705       -1199.230          49.000  
  22499208.637   118234152.983       -1198.945          35.000  
  22524412.746                       -1199.179          36.000  
  22357371.292   117488806.398       -1199.253          35.000  
  22580088.485   118659160.080       -1199.518          38.000  
  22555764.501                       -1200.049          38.000  
  22456419.120   118009286.125       -1199.624          39.000  
  22443236.129   117940021.523       -1199.267          39.000  
  22452206.822   117987126.947       -1199.401          37.000  
  22474002.600   118104695.571       -1199.503          36.000  
  22440591.839   117926155.393       -1199.583          37.000  
  22317519.166   117279374.377       -1198.995          37.000  
  22579499.122   118656090.481       -1199.316          39.000  
  22329234.337   117340947.579       -1199.643          41.000  
 25  8 16 11 44  8.8020000  0 21G 1G 3G 2G 4G 5G 6G 7G 8G26G13G12G21
                                G15G10G 9G24G17G20G16G27G25
  22445039.618   117949469.925       -1199.362          48.000  
  22444983.762   117949489.292       -1199.414          49.000  
  22444996.225   117949465.234       -1199.422          48.000  
  22445025.901   117949420.360       -1199.411          49.000  
  22445029.012   117949488.088       -1199.394          49.000  
  22445027.837   117949468.867       -1199.393          49.000  
  22445010.396   117949418.464       -1199.397          49.000  
  22445034.022   117949485.546       -1199.407          49.000  
  22499254.241   118234392.837       -1199.557          35.000  
  22524461.224                       -1199.179          36.000  
  22357416.890   117489046.234       -1199.354          35.000  
  22580134.138   118659399.912       -1199.344          38.000  
  22555810.136   118531581.4192      -1198.635          38.000  
  22456464.732   118009525.956       -1199.365          39.000  
  22443281.712   117940261.359       -1199.363          38.000  
  22452252.486   117987366.779       -1199.366          37.000  
  22474048.238   118104935.403       -1199.382          36.000  
  22440637.450   117926395.225       -1199.370          37.000  
  22317564.765   117279614.220       -1199.408          37.000  
  22579544.744   118656330.320       -1199.407          39.000  
  22329279.928   117341187.412       -1199.429          41.000  
 25  8 16 11 44  9.0020000  0 21G 1G 3G 2G 4G 5G 6G 7G 8G26G13G12G21
                                G15G10G 9G24G17G20G16G27G25
  22445085.251   117949709.773       -1199.218          49.000  
  22445029.394   117949729.149       -1199.314          49.000  
  22445042.484   117949705.086       -1199.258          48.000  
  22445071.488   117949660.212       -1199.275          49.000  
  22445074.620   117949727.944       -1199.321          49.000  
  22445073.429   117949708.718       -1199.309          49.000  
  22445056.010   117949658.317       -1199.277          49.000  
  22445079.650   117949725.400       -1199.302          49.000  
  22499299.830   118234632.674       -1199.232          35.000  
  22524510.463                       -1199.179          36.000  
  22357462.554   117489286.100       -1199.412          35.000  
  22580179.789   118659639.772       -1199.312          39.000  
  22555855.795   118531821.3042      -1199.320          38.000  
  22456510.389   118009765.812       -1199.216          39.000  
  22443327.414   117940501.221       -1199.339          38.000  
  22452298.126   117987606.635       -1199.196          37.000  
  22474093.857   118105175.254       -1199.160          36.000  
  22440683.154   117926635.073       -1199.151          37.000  
  22317610.342   117279854.076       -1199.201          37.000  
  22579590.383   118656570.180       -1199.333          39.000  
  22329325.574   117341427.253       -1199.061          41.000  
 25  8 16 11 44  9.2020000  0 21G 1G 3G 2G 4G 5G 6G 7G 8G26G13G12G21
                                G15G10G 9G24G17G20G16G27G25
  22445130.660   117949949.646       -1199.366          48.000  
  22445075.043   117949969.011       -1199.293          49.000  
  22445088.628   117949944.965       -1199.370          48.000  
  22445117.129   117949900.080       -1199.357          49.000  
  22445120.280   117949967.812       -1199.324          49.000  
  22445119.079   117949948.587       -1199.331          49.000  
  22445101.686   117949898.185       -1199.309          49.000  
  22445125.281   117949965.268       -1199.349          49.000  
  22499345.431   118234872.544       -1199.281          35.000  
  22524557.281                       -1199.179          36.000  
  22357508.215   117489525.954       -1199.241          35.000  
  22580225.445   118659879.637       -1199.388          39.000  
  22555901.427   118532061.1662      -1199.356          38.000  
  22456556.019   118010005.680       -1199.341          39.000  
  22443373.042   117940741.082       -1199.324          38.000  
  22452343.773   117987846.509       -1199.355          37.000  
  22474139.515   118105415.131       -1199.339          37.000  
  22440728.750   117926874.950       -1199.325          37.000  
  22317655.949   117280093.953       -1199.367          37.000  
  22579635.983   118656810.044       -1199.310          39.000  
  22329371.182   117341667.135       -1199.357          41.000  
 25  8 16 11 44  9.4020000  0 21G 1G 3G 2G 4G 5G 6G 7G 8G26G13G12G21
                                G15G10G 9G24G17G20G16G27G25
  22445176.050   117950189.528       -1199.450          48.000  
  22445120.694   117950208.891       -1199.458          49.000  
  22445134.190   117950184.839       -1199.353          48.000  
  22445162.749   117950139.961       -1199.464          49.000  
  22445165.911   117950207.691       -1199.421          49.000  
  22445164.716   117950188.469       -1199.412          49.000  
  22445147.185   117950138.063       -1199.386          49.000  
  22445170.926   117950205.148       -1199.412          49.000  
  22499391.084   118235112.429       -1199.503          35.000  
  22524604.716                       -1199.179          36.000  
  22357553.839   117489765.831       -1199.154          35.000  
  22580271.115   118660119.514       -1199.353          39.000  
  22555947.125   118532301.0462      -1199.352          38.000  
  22456601.709   118010245.561       -1199.369          39.000  
  22443418.688   117940980.963       -1199.384          38.000  
  22452389.443   117988086.387       -1199.410          37.000  
  22474185.185   118105655.006       -1199.424          37.000  
  22440774.391   117927114.828       -1199.471          37.000  
  22317701.513   117280333.824       -1199.312          37.000  
  22579681.665   118657049.919       -1199.341          39.000  
  22329416.863   117341907.017       -1199.519          41.000  
 25  8 16 11 44  9.6020000  0 21G 1G 3G 2G 4G 5G 6G 7G 8G26G13G12G21
                                G15G10G 9G24G17G20G16G27G25
  22445221.434   117950429.356       -1198.970          48.000  
  22445166.337   117950448.734       -1199.098          49.000  
  22445179.214   117950424.672       -1198.982          48.000  
  22445208.375   117950379.805       -1199.123          49.000  
  22445211.541   117950447.535       -1199.158          49.000  
  22445210.323   117950428.316       -1199.121          49.000  
  22445192.879   117950377.904       -1199.077          49.000  
  22445216.563   117950444.995       -1199.116          49.000  
  22499436.695   118235352.275       -1199.054          35.000  
  22524651.020                       -1199.179          36.000  
  22357599.473   117490005.690       -1199.177          35.000  
  22580316.763   118660359.352       -1199.179          38.000  
  22555992.785   118532540.8922      -1198.931          38.000  
  22456647.333   118010485.388       -1199.110          39.000  
  22443464.270   117941220.813       -1199.075          38.000  
  22452435.123   117988326.229       -1199.156          37.000  
  22474230.833   118105894.826       -1198.982          37.000  
  22440820.006   117927354.646       -1199.021          37.000  
  22317747.093   117280573.685       -1199.000          37.000  
  22579727.265   118657289.769       -1199.054          39.000  
  22329462.459   117342146.829       -1199.067          41.000  
 25  8 16 11 44  9.8020000  0 21G 1G 3G 2G 4G 5G 6G 7G 8G26G13G12G21
                                G15G10G 9G24G17G20G16G27G25
  22445266.803   117950669.130       -1198.760          48.000  
  22445211.973   117950688.543       -1198.959          49.000  
  22445224.529   117950664.467       -1198.903          49.000  
  22445253.993   117950619.615       -1199.004          49.000  
  22445257.153   117950687.357       -1199.064          49.000  
  22445255.944   117950668.133       -1199.026          49.000  
  22445238.392   117950617.704       -1198.907          49.000  
  22445262.202   117950684.800       -1198.932          49.000  
  22499482.340   118235592.075       -1198.945          35.000  
  22524696.513                       -1199.179          36.000  
  22357645.167   117490245.493       -1198.996          35.000  
  22580362.399   118660599.160       -1199.001          38.000  
  22556038.439   118532780.6972      -1198.982          38.000  
  22456693.017   118010725.191       -1198.895          39.000  
  22443509.853   117941460.622       -1199.023          38.000  
  22452480.791   117988566.026       -1198.936          37.000  
  22474276.464   118106134.614       -1198.782          36.000  
  22440865.640   117927594.447       -1198.949          37.000  
  22317792.754   117280813.483       -1198.970          37.000  
  22579772.893   118657529.571       -1198.972          39.000  
  22329508.079   117342386.640       -1198.940          41.000  
 25  8 16 11 44 10.0020000  0 21G 1G 3G 2G 4G 5G 6G 7G 8G26G13G12G21
                                G15G10G 9G24G17G20G16G27G25
  22445312.577   117950908.878       -1198.815          48.000  
  22445257.619   117950928.326       -1198.848          49.000  
  22445270.170   117950904.233       -1198.801          49.000  
  22445299.605   117950859.413       -1198.974          49.000  
  22445302.768   117950927.174       -1199.057          49.000  
  22445301.550   117950907.930       -1198.960          49.000  
  22445283.632   117950857.465       -1198.764          49.000  
  22445307.806   117950924.571       -1198.746          49.000  
  22499527.905   118235831.864       -1199.014          35.000  
  22524741.151                       -1199.179          36.000  
  22357690.839   117490485.270       -1198.987          35.000  
  22580407.981   118660838.927       -1198.883          38.000  
  22556084.067   118533020.4652      -1198.807          38.000  
  22456738.617   118010964.962       -1198.826          38.000  
  22443555.413   117941700.408       -1198.972          38.000  
  22452526.404   117988805.810       -1198.948          37.000  
  22474322.014   118106374.382       -1198.906          36.000  
  22440911.280   117927834.230       -1198.926          37.000  
  22317838.362   117281053.259       -1198.783          37.000  
  22579818.531   118657769.344       -1198.910          39.000  
  22329553.682   117342626.432       -1198.943          41.000  
 25  8 16 11 44 10.2020000  0 21G 1G 3G 2G 4G 5G 6G 7G 8G26G13G12G21
                                G15G10G 9G24G17G20G16G27G25
  22445358.208   117951148.637       -1198.823          48.000  
  22445303.261   117951168.102       -1198.876          49.000  
  22445315.805   117951144.003       -1198.905          49.000  
  22445345.536   117951099.220       -1199.119          47.000  
  22445348.378   117951167.000       -1199.159          49.000  
  22445347.196   117951147.744       -1199.158          49.000  
  22445329.027   117951097.226       -1198.908          49.000  
  22445353.370   117951164.334       -1198.803          49.000  
  22499573.391   118236071.654       -1199.124          34.000  
  22524785.421                       -1199.179          35.000  
  22357736.460   117490725.050       -1198.941          35.000  
  22580453.528   118661078.679       -1198.885          38.000  
  22556129.726   118533260.2422      -1198.882          38.000  
  22456784.305   118011204.719       -1198.714          38.000  
  22443600.916   117941940.181       -1198.990          38.000  
  22452572.061   117989045.591       -1198.992          37.000  
  22474367.616   118106614.152       -1198.900          36.000  
  22440956.894   117928074.020       -1198.981          37.000  
  22317884.003   117281293.049       -1198.995          36.000  
  22579864.125   118658009.100       -1198.844          38.000  
  22329599.232   117342866.225       -1199.062          39.000  
 25  8 16 11 44 10.4020000  0 21G 1G 3G 2G 4G 5G 6G 7G 8G26G13G12G21
                                G15G10G 9G24G17G20G16G27G25
  22445403.747   117951388.354       -1198.679          49.000  
  22445348.900   117951407.850       -1198.869          49.000  
  22445361.426   117951383.753       -1198.856          49.000  
  22445391.669   117951339.018       -1199.284          46.000  
  22445394.056   117951406.831       -1199.398          49.000  
  22445392.824   117951387.552       -1199.260          49.000  
  22445374.660   117951336.985       -1198.918          49.000  
  22445398.965   117951404.056       -1198.656          49.000  
  22499618.808   118236311.469       -1199.957          34.000  
  22524827.970                       -1199.179          33.000  
  22357782.013   117490964.820       -1199.140          32.000  
  22580499.055   118661318.401       -1198.497          38.000  
  22556175.279   118533500.0002      -1198.957          38.000  
  22456829.914   118011444.471       -1199.277          37.000  
  22443646.355   117942179.955       -1199.297          37.000  
  22452617.677   117989285.299       -1198.250          36.000  
  22474413.207   118106853.894       -1198.744          36.000  
  22441002.472   117928313.781       -1198.964          37.000  
  22317929.615   117281532.848       -1199.122          36.000  
  22579909.736   118658248.840       -1198.893          38.000  
  22329644.841   117343105.989       -1199.120          39.000  
 25  8 16 11 44 10.6020000  0 21G 1G 3G 2G 4G 5G 6G 7G 8G26G13G12G21
                                G15G10G 9G24G17G20G16G27G25
  22445449.286   117951628.091       -1198.915          49.000  
  22445394.545   117951647.642       -1199.055          49.000  
  22445407.049   117951623.527       -1198.966          49.000  
  22445437.549   117951578.884       -1199.416          49.000  
  22445439.509   117951646.690       -1199.385          49.000  
  22445438.607   117951627.392       -1199.294          49.000  
  22445420.306   117951576.808       -1199.314          49.000  
  22445444.553   117951643.807       -1198.935          49.000  
  22499664.125   118236551.243       -1199.030          34.000  
  22524869.144                       -1199.179          33.000  
  22357827.593   117491204.654       -1199.267          31.000  
  22580544.608   118661558.202       -1199.143          38.000  
  22556220.864   118533739.7802      -1199.111          38.000  
  22456875.515   118011684.214       -1198.835          37.000  
  22443691.747   117942419.746       -1199.076          37.000  
  22452663.309   117989525.090       -1199.135          34.000  
  22474458.813   118107093.703       -1199.269          36.000  
  22441048.126   117928553.560       -1199.091          36.000  
  22317975.184   117281772.731       -1199.665          35.000  
  22579955.308   118658488.621       -1198.909          38.000  
  22329690.441   117343345.806       -1199.323          39.000  
 25  8 16 11 44 10.8020000  0 20G 1G 3G 2G 4G 5G 6G 7G 8G26G13G21G15
                                G10G 9G24G17G20G16G27G25
  22445494.912   117951867.861       -1198.684          49.000  
  22445440.169   117951887.411       -1198.715          49.000  
  22445452.678   117951863.297       -1198.699          49.000  
  22445483.127   117951818.740       -1199.140          49.000  
  22445485.080   117951886.529       -1199.027          49.000  
  22445484.558   117951867.227       -1199.056          49.000  
  22445465.979   117951816.642       -1198.930          49.000  
  22445490.235   117951883.572       -1198.627          46.000  
  22499709.475   118236791.067       -1199.007          33.000  
  22524913.290                       -1199.179          33.000  
  22580590.240   118661797.992       -1198.739          35.000  
  22556266.485   118533979.6112      -1199.212          36.000  
  22456921.152   118011923.971       -1198.359          35.000  
  22443737.077   117942659.586       -1199.146          36.000  
  22452709.005   117989764.876       -1198.930          34.000  
  22474504.370   118107333.529       -1199.078          36.000  
  22441093.805   117928793.393       -1199.293          33.000  
  22318020.658   117282012.596       -1199.148          34.000  
  22580000.881   118658728.380       -1198.464          35.000  
  22329736.014   117343585.650       -1199.185          39.000  
 25  8 16 11 44 11.0020000  0 19G 1G 3G 2G 4G 5G 6G 7G 8G13G21G15G10
                                G 9G24G17G20G16G27G25
  22445540.514   117952107.558       -1198.316          49.000  
  22445485.805   117952127.168       -1198.943          49.000  
  22445498.291   117952102.998       -1198.466          49.000  
  22445528.676   117952058.529       -1198.792          49.000  
  22445530.669   117952126.294       -1198.705          49.000  
  22445530.196   117952107.025       -1198.971          49.000  
  22445511.618   117952056.344       -1198.136          49.000  
  22445535.741   117952123.042       -1197.566          42.000  
  22524961.138                       -1199.179          36.000  
  22580635.840   118662037.614       -1197.878          32.000  
  22556312.087   118534219.3242      -1198.512          32.000  
  22456966.764   118012163.602       -1198.665          32.000  
  22443782.432   117942899.392       -1199.206          34.000  
  22452754.685   117990004.647       -1199.018          29.000  
  22474549.934   118107573.198       -1198.057          29.000  
  22441139.467   117929033.169       -1198.744          29.000  
  22318066.035   117282252.315       -1198.361          34.000  
  22580046.496   118658968.073       -1198.518          35.000  
  22329781.682   117343825.397       -1198.511          37.000  
 25  8 16 11 44 11.2020000  0 15G 1G 3G 2G 4G 5G 6G 7G 8G13G21G15G10
                                G16G27G25
  22445586.119   117952347.251       -1198.895          49.000  
  22445531.438   117952366.967       -1199.192          49.000  
  22445543.922   117952342.724       -1198.972          49.000  
  22445574.445   117952298.174       -1197.939          46.000  
  22445576.330   117952366.047       -1199.120          49.000  
  22445575.858   117952346.818       -1199.149          49.000  
  22445557.231   117952296.051       -1199.099          49.000  
  22445581.252   117952362.864       -1199.145          48.000  
  22525010.891                       -1199.179          35.000  
  22580681.556   118662277.365       -1199.440          35.000  
  22556357.668   118534459.0072      -1198.974          32.000  
  22457012.539   118012403.376       -1198.943          32.000  
  22318111.553   117282492.019       -1199.334          33.000  
  22580092.334   118659207.787       -1198.821          34.000  
  22329827.205   117344065.089       -1198.822          36.000  
 25  8 16 11 44 11.4020000  0 15G 1G 3G 2G 4G 5G 6G 7G 8G13G21G15G10
                                G16G27G25
  22445631.673   117952587.030       -1198.948          49.000  
  22445577.083   117952606.671       -1198.378          47.000  
  22445589.441   117952582.441       -1198.365          49.000  
  22445620.222   117952537.996       -1199.865          48.000  
  22445621.961   117952605.905       -1199.617          49.000  
  22445621.476   117952586.588       -1198.791          49.000  
  22445602.887   117952535.849       -1199.099          49.000  
  22445626.868   117952602.633       -1198.704          49.000  
  22525057.785                       -1199.179          35.000  
  22580727.436   118662517.207       -1199.207          35.000  
  22556403.281   118534698.7102      -1199.062          32.000  
  22457058.343   118012643.110       -1198.546          33.000  
  22318157.139   117282731.938       -1199.554          33.000  
  22580138.164   118659447.529       -1198.719          30.000  
  22329872.841   117344304.859       -1199.084          36.000  
 25  8 16 11 44 11.6020000  0 12G 1G 3G 2G 4G 5G 6G 7G 8G13G10G16G25
  22445676.999   117952826.565       -1196.234          42.000  
  22445622.504   117952846.389       -1198.307          48.000  
  22445635.386   117952822.070       -1198.365          48.000  
  22445665.846   117952777.831       -1199.011          48.000  
  22445667.541   117952845.717       -1198.802          49.000  
  22445667.092   117952826.348       -1198.902          49.000  
  22445648.535   117952775.588       -1198.591          49.000  
  22445672.476   117952842.328       -1198.229          49.000  
  22525104.746                       -1199.179          35.000  
  22457104.096   118012882.847       -1198.272          33.000  
  22318202.687   117282971.827       -1199.165          33.000  
  22329918.434   117344544.648       -1198.907          33.000  
 25  8 16 11 44 11.8020000  0 10G 1G 3G 2G 4G 5G 6G 7G 8G13G10
  22445722.281   117953066.266       -1199.022          45.000  
  22445668.134   117953086.107       -1199.135          47.000  
  22445681.033   117953061.820       -1198.542          48.000  
  22445711.676   117953017.603       -1198.677          48.000  
  22445713.301   117953085.525       -1199.382          49.000  
  22445712.751   117953066.213       -1199.290          49.000  
  22445694.057   117953015.335       -1198.535          49.000  
  22445718.359   117953082.014       -1198.713          48.000  
  22525152.059                       -1199.179          36.000  
  22457149.857   118013122.568       -1199.427          33.000  
 25  8 16 11 44 12.0020000  0 10G 1G 3G 2G 4G 5G 6G 7G 8G13G10
  22445767.581   117953305.892       -1198.479          44.000  
  22445713.796   117953325.975       -1199.623          44.000  
  22445726.609   117953301.523       -1198.591          46.000  
  22445757.481   117953257.406       -1199.554          46.000  
  22445758.946   117953325.456       -1199.869          49.000  
  22445758.404   117953306.080       -1199.407          49.000  
  22445739.920   117953255.143       -1199.578          47.000  
  22445764.256   117953321.864       -1199.548          48.000  
  22525200.285                       -1199.179          36.000  
  22457195.626   118013362.458       -1199.513          33.000  
 25  8 16 11 44 12.2020000  0 10G 1G 3G 2G 4G 5G 6G 7G 8G13G10
  22445813.010   117953545.628       -1198.914          49.000  
  22445759.384   117953565.606       -1197.135          42.000  
  22445772.167   117953541.169       -1198.365          48.000  
  22445803.240   117953497.275       -1199.431          48.000  
  22445804.382   117953565.289       -1198.833          49.000  
  22445804.011   117953545.868       -1198.866          49.000  
  22445785.918   117953494.960       -1199.010          49.000  
  22445809.930   117953561.433       -1196.614          45.000  
  22525245.130                       -1199.179          36.000  
  22457241.387   118013602.328       -1198.192          28.000  
 25  8 16 11 44 12.4020000  0  9G 1G 3G 2G 4G 5G 6G 7G 8G13
  22445858.523   117953785.457       -1199.159          48.000  
  22445805.029   117953805.464       -1199.721          48.000  
  22445817.961   117953780.896       -1198.580          49.000  
  22445849.068   117953737.050       -1198.635          48.000  
  22445850.125   117953805.129       -1199.408          49.000  
  22445849.647   117953785.697       -1199.229          49.000  
  22445831.752   117953734.633       -1197.931          46.000  
  22445855.713   117953801.243       -1199.451          48.000  
  22525295.817                       -1199.179          35.000  
 25  8 16 11 44 12.6020000  0  9G 1G 3G 2G 4G 5G 6G 7G 8G13
  22445903.733   117954024.911       -1196.711          46.000  
  22445850.776   117954045.317       -1199.202          47.000  
  22445863.496   117954020.599       -1198.610          49.000  
  22445894.689   117953976.842       -1198.978          49.000  
  22445895.667   117954044.941       -1199.007          49.000  
  22445895.290   117954025.526       -1199.305          49.000  
  22445877.453   117953974.425       -1199.059          49.000  
  22445901.455   117954040.818       -1197.991          48.000  
  22525349.669                       -1199.179          36.000  
 25  8 16 11 44 12.8020000  0  9G 1G 3G 2G 4G 5G 6G 7G 8G13
  22445949.343   117954264.732       -1198.890          50.000  
  22445896.365   117954284.880       -1197.214          45.000  
  22445909.125   117954260.337       -1198.874          49.000  
  22445940.384   117954216.717       -1200.015          49.000  
  22445941.369   117954284.807       -1199.588          49.000  
  22445940.907   117954265.373       -1199.066          49.000  
  22445923.102   117954214.144       -1198.494          49.000  
  22445946.906   117954280.566       -1198.545          49.000  
  22525404.894                       -1199.179          36.000  
 25  8 16 11 44 13.0020000  0  9G 1G 3G 2G 4G 5G 6G 7G 8G13
  22445994.959   117954504.382       -1198.062          49.000  
  22445942.032   117954524.763       -1199.781          49.000  
  22445954.720   117954500.050       -1198.372          49.000  
  22445985.953   117954456.613       -1199.268          49.000  
  22445987.108   117954524.681       -1199.485          49.000  
  22445986.595   117954505.163       -1199.502          49.000  
  22445968.732   117954453.953       -1199.338          49.000  
  22445992.538   117954520.346       -1199.331          49.000  
  22525454.037                       -1199.179          36.000  
 25  8 16 11 44 13.2020000  0  9G 1G 3G 2G 4G 5G 6G 7G 8G13
  22446040.479   117954744.050       -1198.609          49.000  
  22445987.654   117954764.536       -1198.232          49.000  
  22446000.267   117954739.686       -1198.525          49.000  
  22446031.577   117954696.379       -1198.597          49.000  
  22446032.736   117954764.544       -1199.335          49.000  
  22446032.136   117954745.064       -1199.346          49.000  
  22446014.473   117954693.693       -1198.106          49.000  
  22446038.134   117954759.957       -1197.231          49.000  
  22525494.087                       -1199.179          36.000  
 25  8 16 11 44 13.4020000  0  9G 1G 3G 2G 4G 5G 6G 7G 8G13
  22446085.895   117954983.765       -1198.164          46.000  
  22446033.285   117955004.248       -1199.039          49.000  
  22446045.835   117954979.421       -1198.787          49.000  
  22446077.269   117954936.205       -1199.230          47.000  
  22446078.602   117955004.469       -1199.538          47.000  
  22446078.224   117954984.878       -1199.256          48.000  
  22446060.128   117954933.455       -1199.247          49.000  
  22446083.729   117954999.813       -1199.473          49.000  
  22525530.784                       -1199.179          33.000  
 25  8 16 11 44 13.6020000  0  8G 1G 3G 2G 4G 5G 6G 7G 8
  22446131.190   117955223.397       -1198.457          46.000  
  22446078.931   117955244.084       -1199.209          49.000  
  22446091.409   117955219.193       -1198.254          46.000  
  22446122.967   117955176.048       -1199.439          49.000  
  22446124.379   117955244.253       -1199.527          45.000  
  22446124.084   117955224.776       -1199.316          49.000  
  22446105.786   117955173.262       -1198.941          49.000  
  22446129.357   117955239.495       -1198.556          49.000  
 25  8 16 11 44 13.8020000  0  8G 1G 3G 2G 4G 5G 6G 7G 8
  22446176.620   117955463.041       -1198.674          49.000  
  22446124.560   117955483.865       -1199.123          49.000  
  22446136.977   117955458.829       -1199.051          49.000  
  22446168.540   117955415.942       -1199.608          49.000  
  22446170.367   117955484.185       -1198.970          49.000  
  22446169.742   117955464.628       -1199.452          49.000  
  22446151.418   117955413.074       -1199.700          49.000  
  22446174.767   117955479.185       -1198.523          49.000  
 25  8 16 11 44 14.0020000  0  8G 1G 3G 2G 4G 5G 6G 7G 8
  22446222.195   117955702.825       -1198.820          49.000  
  22446170.205   117955723.685       -1198.852          49.000  
  22446182.578   117955698.461       -1198.553          49.000  
  22446214.164   117955655.774       -1199.284          49.000  
  22446216.231   117955724.010       -1199.941          47.000  
  22446215.345   117955704.496       -1199.355          49.000  
  22446197.103   117955652.861       -1198.467          49.000  
  22446220.353   117955718.904       -1198.077          49.000  
 25  8 16 11 44 14.2020000  0  8G 1G 3G 2G 4G 5G 6G 7G 8
  22446267.622   117955942.471       -1198.843          49.000  
  22446215.832   117955963.398       -1198.824          49.000  
  22446228.218   117955938.258       -1198.821          49.000  
  22446259.804   117955895.673       -1199.333          49.000  
  22446262.012   117955963.988       -1198.745          50.000  
  22446261.323   117955944.298       -1198.710          45.000  
  22446242.727   117955892.665       -1199.122          49.000  
  22446265.975   117955958.612       -1199.417          49.000  
 25  8 16 11 44 14.4020000  0  8G 1G 3G 2G 4G 5G 6G 7G 8
  22446313.212   117956182.227       -1198.176          49.000  
  22446261.281   117956203.195       -1198.398          49.000  
  22446273.747   117956177.945       -1198.226          49.000  
  22446305.471   117956135.494       -1199.145          49.000  
  22446307.736   117956203.917       -1199.936          49.000  
  22446307.093   117956184.217       -1199.917          45.000  
  22446288.377   117956132.390       -1198.890          49.000  
  22446311.492   117956198.348       -1198.522          49.000  
 25  8 16 11 44 14.6020000  0  8G 1G 3G 2G 4G 5G 6G 7G 8
  22446358.546   117956421.872       -1199.266          47.000  
  22446307.040   117956443.085       -1200.657          49.000  
  22446319.282   117956417.669       -1199.122          49.000  
  22446351.091   117956375.376       -1199.561          49.000  
  22446353.339   117956443.798       -1199.350          49.000  
  22446352.810   117956424.120       -1199.842          49.000  
  22446334.045   117956372.250       -1199.094          49.000  
  22446357.126   117956438.014       -1197.864          49.000  
 25  8 16 11 44 14.8020000  0  8G 1G 3G 2G 4G 5G 6G 7G 8
  22446404.274   117956661.709       -1198.183          46.000  
  22446352.656   117956682.773       -1196.459          46.000  
  22446364.778   117956657.372       -1198.357          49.000  
  22446396.705   117956615.307       -1200.085          49.000  
  22446399.140   117956683.728       -1200.059          49.000  
  22446398.664   117956664.018       -1198.635          49.000  
  22446379.688   117956612.117       -1199.446          49.000  
  22446402.819   117956677.816       -1199.302          49.000  
 25  8 16 11 44 15.0020000  0  8G 1G 3G 2G 4G 5G 6G 7G 8
  22446449.824   117956901.335       -1199.166          49.000  
  22446398.207   117956922.772       -1200.972          50.000  
  22446410.188   117956897.167       -1198.838          49.000  
  22446442.404   117956855.272       -1199.141          49.000  
  22446444.708   117956923.695       -1199.628          49.000  
  22446444.406   117956903.976       -1200.621          49.000  
  22446425.338   117956851.881       -1199.084          49.000  
  22446448.472   117956917.528       -1199.258          49.000  
 25  8 16 11 44 15.2020000  0  8G 1G 3G 2G 4G 5G 6G 7G 8
  22446495.432   117957141.089       -1199.122          49.000  
  22446443.591   117957162.520       -1198.485          49.000  
  22446455.750   117957136.888       -1199.030          49.000  
  22446488.142   117957095.131       -1199.542          49.000  
  22446490.410   117957163.657       -1200.442          49.000  
  22446490.050   117957143.899       -1199.474          49.000  
  22446471.021   117957091.815       -1199.859          49.000  
  22446494.050   117957157.323       -1198.909          49.000  
 25  8 16 11 44 15.4020000  0  8G 1G 3G 2G 4G 5G 6G 7G 8
  22446540.975   117957380.824       -1198.567          49.000  
  22446489.364   117957402.495       -1200.330          49.000  
  22446501.097   117957376.735       -1199.572          49.000  
  22446533.765   117957335.083       -1199.751          49.000  
  22446536.021   117957403.629       -1199.270          49.000  
  22446535.704   117957383.876       -1199.798          49.000  
  22446516.797   117957331.628       -1198.543          49.000  
  22446539.685   117957397.122       -1198.815          49.000  
 25  8 16 11 44 15.6020000  0  8G 1G 3G 2G 4G 5G 6G 7G 8
  22446586.595   117957620.570       -1198.372          49.000  
  22446535.017   117957642.335       -1199.190          49.000  
  22446546.521   117957616.466       -1197.949          49.000  
  22446579.467   117957575.055       -1200.070          49.000  
  22446581.746   117957643.606       -1200.351          49.000  
  22446581.280   117957623.792       -1199.864          49.000  
  22446562.443   117957571.513       -1199.875          49.000  
  22446585.331   117957636.947       -1199.669          49.000  
 25  8 16 11 44 15.8020000  0  8G 1G 3G 2G 4G 5G 6G 7G 8
  22446632.227   117957860.310       -1199.286          49.000  
  22446580.622   117957882.178       -1199.210          49.000  
  22446592.174   117957856.308       -1199.598          49.000  
  22446625.088   117957814.897       -1199.168          49.000  
  22446627.364   117957883.496       -1199.469          49.000  
  22446626.468   117957863.764       -1199.974          49.000  
  22446608.161   117957811.381       -1198.990          49.000  
  22446631.031   117957876.712       -1198.647          49.000  
 25  8 16 11 44 16.0020000  0  8G 1G 3G 2G 4G 5G 6G 7G 8
  22446677.805   117958100.058       -1198.739          49.000  
  22446626.240   117958121.991       -1199.068          48.000  
  22446637.369   117958096.021       -1198.220          49.000  
  22446670.749   117958054.853       -1199.657          49.000  
  22446673.094   117958123.491       -1199.446          49.000  
  22446672.124   117958103.716       -1199.156          49.000  
  22446653.814   117958051.197       -1199.596          49.000  
  22446676.677   117958116.559       -1198.939          49.000  
 25  8 16 11 44 16.2020000  0  8G 1G 3G 2G 4G 5G 6G 7G 8
  22446723.409   117958339.819       -1198.644          49.000  
  22446671.844   117958361.803       -1199.250          49.000  
  22446682.621   117958335.843       -1199.595          49.000  
  22446716.495   117958294.858       -1200.615          49.000  
  22446718.840   117958363.466       -1200.224          49.000  
  22446717.815   117958343.549       -1199.388          49.000  
  22446699.525   117958291.130       -1199.770          49.000  
  22446722.238   117958356.229       -1198.773          49.000  
 25  8 16 11 44 16.4020000  0  8G 1G 3G 2G 4G 5G 6G 7G 8
  22446769.019   117958579.603       -1199.186          49.000  
  22446717.496   117958601.723       -1199.762          49.000  
  22446728.251   117958575.641       -1198.253          49.000  
  22446762.066   117958534.666       -1198.032          49.000  
  22446764.435   117958603.408       -1199.589          49.000  
  22446763.434   117958583.469       -1199.570          49.000  
  22446745.267   117958530.941       -1198.436          49.000  
  22446767.861   117958596.093       -1199.151          49.000  
 25  8 16 11 44 16.6020000  0  8G 1G 3G 2G 4G 5G 6G 7G 8
  22446814.547   117958819.343       -1197.374          44.000  
  22446762.500   117958841.541       -1198.645          49.000  
  22446773.866   117958815.354       -1199.177          49.000  
  22446807.804   117958774.524       -1200.249          49.000  
  22446810.092   117958843.281       -1199.017          49.000  
  22446809.077   117958823.393       -1199.637          49.000  
  22446790.855   117958770.765       -1199.547          49.000  
  22446813.392   117958835.890       -1198.737          49.000  
 25  8 16 11 44 16.8020000  0  8G 1G 3G 2G 4G 5G 6G 7G 8
  22446860.116   117959059.106       -1199.589          49.000  
  22446807.942   117959081.373       -1199.639          49.000  
  22446819.480   117959055.112       -1198.469          49.000  
  22446853.415   117959014.519       -1199.886          49.000  
  22446855.861   117959083.285       -1200.967          49.000  
  22446854.746   117959063.346       -1199.866          49.000  
  22446836.544   117959010.641       -1199.515          49.000  
  22446859.072   117959075.622       -1199.192          49.000  
 25  8 16 11 44 17.0020000  0  8G 1G 3G 2G 4G 5G 6G 7G 8
  22446905.626   117959298.841       -1198.575          49.000  
  22446853.572   117959321.248       -1199.468          49.000  
  22446865.116   117959294.892       -1199.140          49.000  
  22446899.058   117959254.475       -1199.440          49.000  
  22446901.524   117959323.278       -1199.908          49.000  
  22446900.399   117959303.270       -1199.502          49.000  
  22446882.338   117959250.502       -1199.262          48.000  
  22446904.701   117959315.469       -1198.855          49.000  
 25  8 16 11 44 17.2020000  0  8G 1G 3G 2G 4G 5G 6G 7G 8
  22446951.218   117959538.614       -1198.595          49.000  
  22446899.212   117959561.140       -1199.398          49.000  
  22446910.754   117959534.678       -1198.935          49.000  
  22446944.756   117959494.404       -1200.020          49.000  
  22446947.180   117959563.210       -1199.605          49.000  
  22446946.054   117959543.191       -1199.611          49.000  
  22446928.095   117959490.368       -1199.270          48.000  
  22446950.356   117959555.136       -1199.082          49.000  
 25  8 16 11 44 17.4020000  0  8G 1G 3G 2G 4G 5G 6G 7G 8
  22446996.863   117959778.417       -1199.080          49.000  
  22446944.893   117959801.017       -1200.000          46.000  
  22446956.315   117959774.431       -1198.827          49.000  
  22446990.362   117959734.387       -1199.776          49.000  
  22446992.870   117959803.233       -1199.828          49.000  
  22446991.751   117959783.165       -1200.634          49.000  
  22446973.755   117959730.236       -1199.367          48.000  
  22446996.163   117959795.075       -1198.823          49.000  
 25  8 16 11 44 17.6020000  0  8G 1G 3G 2G 4G 5G 6G 7G 8
  22447042.491   117960018.152       -1199.121          49.000  
  22446990.514   117960040.990       -1199.779          46.000  
  22447001.992   117960014.424       -1200.020          48.000  
  22447036.227   117959974.327       -1199.516          45.000  
  22447038.611   117960043.328       -1201.249          49.000  
  22447037.411   117960023.198       -1199.756          49.000  
  22447019.401   117959970.052       -1199.332          48.000  
  22447041.894   117960034.831       -1199.178          49.000  
 25  8 16 11 44 17.8020000  0  8G 1G 3G 2G 4G 5G 6G 7G 8
  22447088.087   117960257.956       -1198.531          49.000  
  22447036.170   117960280.739       -1197.220          41.000  
  22447047.620   117960254.166       -1198.840          48.000  
  22447081.951   117960214.319       -1200.574          48.000  
  22447084.187   117960283.260       -1199.175          49.000  
  22447083.126   117960263.178       -1199.446          48.000  
  22447065.059   117960209.991       -1199.893          49.000  
  22447087.448   117960274.648       -1199.177          49.000  
 25  8 16 11 44 18.0020000  0  8G 1G 3G 2G 4G 5G 6G 7G 8
  22447133.679   117960497.761       -1199.221          49.000  
  22447081.853   117960520.798       -1200.918          44.000  
  22447093.251   117960494.028       -1199.052          49.000  
  22447127.856   117960454.354       -1200.036          48.000  
  22447130.098   117960523.331       -1200.684          46.000  
  22447129.016   117960503.116       -1200.609          46.000  
  22447110.899   117960449.932       -1199.795          47.000  
  22447132.945   117960514.498       -1199.003          49.000  
 25  8 16 11 44 18.2020000  0  8G 1G 3G 2G 4G 5G 6G 7G 8
  22447179.314   117960737.568       -1199.533          49.000  
  22447127.530   117960760.771       -1198.907          48.000  
  22447138.882   117960733.958       -1200.162          49.000  
  22447173.491   117960694.331       -1199.706          49.000  
  22447175.783   117960763.323       -1200.196          49.000  
  22447174.523   117960743.169       -1199.866          49.000  
  22447156.630   117960689.867       -1199.266          49.000  
  22447178.598   117960754.294       -1199.385          49.000  
 25  8 16 11 44 18.4020000  0  8G 1G 3G 2G 4G 5G 6G 7G 8
  22447224.887   117960977.423       -1198.801          49.000  
  22447173.396   117961000.672       -1199.224          49.000  
  22447184.492   117960973.706       -1198.151          49.000  
  22447219.073   117960934.340       -1199.862          49.000  
  22447221.572   117961003.375       -1200.051          47.000  
  22447220.593   117960983.250       -1200.217          48.000  
  22447202.367   117960929.769       -1199.707          49.000  
  22447224.123   117960994.256       -1199.389          49.000  
 25  8 16 11 44 18.6020000  0  8G 1G 3G 2G 4G 5G 6G 7G 8
  22447270.563   117961217.306       -1199.651          49.000  
  22447218.880   117961240.629       -1200.428          49.000  
  22447230.149   117961213.556       -1199.716          49.000  
  22447264.784   117961174.357       -1200.474          49.000  
  22447267.488   117961243.508       -1200.969          47.000  
  22447266.574   117961223.260       -1199.699          48.000  
  22447248.084   117961169.708       -1199.451          49.000  
  22447269.878   117961234.145       -1199.427          48.000  
 25  8 16 11 44 18.8020000  0  8G 1G 3G 2G 4G 5G 6G 7G 8
  22447316.097   117961457.094       -1198.483          49.000  
  22447264.583   117961480.658       -1199.654          48.000  
  22447275.732   117961453.474       -1199.496          49.000  
  22447310.403   117961414.327       -1199.369          49.000  
  22447313.353   117961483.459       -1199.106          49.000  
  22447312.417   117961463.192       -1200.039          48.000  
  22447293.751   117961409.699       -1200.224          49.000  
  22447315.665   117961473.938       -1198.683          49.000  
 25  8 16 11 44 19.0020000  0  8G 1G 3G 2G 4G 5G 6G 7G 8
  22447361.768   117961697.001       -1200.120          49.000  
  22447310.248   117961720.530       -1199.622          49.000  
  22447321.394   117961693.374       -1199.663          49.000  
  22447356.109   117961654.356       -1200.388          49.000  
  22447359.093   117961723.479       -1201.084          46.000  
  22447358.169   117961703.305       -1200.324          49.000  
  22447339.453   117961649.631       -1199.424          49.000  
  22447361.310   117961713.847       -1200.469          49.000  
 25  8 16 11 44 19.2020000  0  8G 1G 3G 2G 4G 5G 6G 7G 8
  22447407.320   117961936.841       -1198.953          49.000  
  22447355.926   117961960.507       -1200.090          49.000  
  22447367.044   117961933.224       -1199.371          49.000  
  22447402.000   117961894.468       -1201.276          48.000  
  22447404.894   117961963.586       -1200.696          48.000  
  22447403.845   117961943.264       -1199.570          49.000  
  22447385.109   117961889.532       -1199.533          49.000  
  22447406.999   117961953.785       -1198.853          49.000  
 25  8 16 11 44 19.4020000  0  8G 1G 3G 2G 4G 5G 6G 7G 8
  22447452.938   117962176.593       -1198.275          49.000  
  22447401.306   117962200.470       -1199.380          49.000  
  22447412.701   117962173.165       -1199.799          49.000  
  22447447.674   117962134.388       -1199.096          49.000  
  22447450.486   117962203.596       -1199.546          49.000  
  22447449.563   117962183.234       -1200.135          49.000  
  22447430.789   117962129.470       -1199.648          49.000  
  22447452.513   117962193.587       -1198.845          49.000  
 25  8 16 11 44 19.6020000  0  8G 1G 3G 2G 4G 5G 6G 7G 8
  22447498.308   117962416.526       -1200.850          49.000  
  22447446.731   117962440.410       -1200.064          49.000  
  22447458.263   117962413.004       -1198.734          48.000  
  22447493.407   117962374.382       -1200.551          49.000  
  22447496.341   117962443.738       -1201.379          46.000  
  22447495.328   117962423.307       -1199.472          49.000  
  22447476.417   117962369.384       -1199.647          49.000  
  22447498.190   117962433.510       -1199.878          49.000  
 25  8 16 11 44 19.8020000  0  8G 1G 3G 2G 4G 5G 6G 7G 8
  22447543.922   117962656.386       -1199.128          49.000  
  22447492.353   117962680.374       -1199.663          49.000  
  22447504.102   117962652.881       -1200.019          49.000  
  22447539.067   117962614.427       -1200.578          49.000  
  22447542.213   117962683.709       -1200.065          48.000  
  22447541.305   117962663.432       -1201.418          46.000  
  22447522.344   117962609.397       -1200.276          48.000  
  22447543.777   117962673.384       -1199.017          49.000  
 25  8 16 11 44 20.0020000  0  8G 1G 3G 2G 4G 5G 6G 7G 8
  22447589.555   117962896.221       -1199.330          49.000  
  22447538.012   117962920.239       -1199.394          48.000  
  22447549.966   117962892.798       -1199.430          50.000  
  22447584.665   117962854.461       -1199.616          50.000  
  22447587.748   117962923.677       -1199.803          50.000  
  22447587.360   117962903.310       -1199.526          49.000  
  22447568.323   117962849.371       -1199.814          47.000  
  22447589.409   117962913.263       -1199.690          50.000  
 25  8 16 11 44 20.2020000  0  8G 1G 3G 2G 4G 5G 6G 7G 8
  22447635.253   117963136.166       -1199.724          46.000  
  22447583.726   117963160.261       -1200.279          47.000  
  22447595.606   117963132.654       -1198.852          50.000  
  22447630.369   117963094.508       -1200.163          50.000  
  22447633.517   117963163.775       -1199.739          49.000  
  22447633.281   117963143.424       -1200.333          48.000  
  22447614.401   117963089.321       -1199.104          47.000  
  22447634.881   117963153.199       -1199.168          50.000  
 25  8 16 11 44 20.4020000  0  8G 1G 3G 2G 4G 5G 6G 7G 8
  22447680.883   117963376.049       -1199.296          50.000  
  22447629.351   117963400.265       -1199.835          50.000  
  22447641.292   117963372.562       -1200.444          49.000  
  22447675.886   117963334.521       -1200.033          50.000  
  22447679.325   117963403.874       -1201.122          49.000  
  22447679.012   117963383.442       -1200.338          50.000  
  22447660.296   117963329.255       -1200.354          50.000  
  22447680.580   117963393.111       -1199.705          50.000  
 25  8 16 11 44 20.6020000  0  8G 1G 3G 2G 4G 5G 6G 7G 8
  22447726.521   117963615.920       -1199.252          50.000  
  22447674.924   117963640.302       -1200.501          50.000  
  22447686.893   117963612.494       -1199.319          50.000  
  22447721.446   117963574.530       -1200.846          49.000  
  22447725.019   117963643.925       -1201.317          46.000  
  22447724.875   117963623.614       -1200.774          50.000  
  22447706.001   117963569.311       -1200.279          50.000  
  22447726.186   117963633.019       -1199.459          50.000  
 25  8 16 11 44 20.8020000  0  8G 1G 3G 2G 4G 5G 6G 7G 8
  22447772.211   117963855.804       -1199.733          50.000  
  22447720.588   117963880.311       -1199.679          49.000  
  22447732.278   117963852.473       -1200.179          50.000  
  22447767.113   117963814.618       -1199.769          50.000  
  22447770.819   117963884.023       -1198.934          50.000  
  22447770.564   117963863.568       -1200.006          50.000  
  22447751.696   117963809.311       -1199.784          50.000  
  22447771.836   117963872.945       -1199.669          50.000  
 25  8 16 11 44 21.0020000  0  8G 1G 3G 2G 4G 5G 6G 7G 8
  22447817.864   117964095.824       -1200.309          50.000  
  22447766.286   117964120.270       -1199.788          50.000  
  22447777.892   117964092.422       -1199.863          50.000  
  22447813.210   117964054.801       -1200.394          49.000  
  22447816.522   117964124.080       -1200.507          50.000  
  22447816.236   117964103.610       -1200.026          50.000  
  22447797.367   117964049.276       -1199.993          50.000  
  22447817.448   117964112.844       -1199.476          50.000  
 25  8 16 11 44 21.2020000  0  8G 1G 3G 2G 4G 5G 6G 7G 8
  22447863.496   117964335.576       -1198.845          50.000  
  22447811.980   117964360.295       -1200.320          50.000  
  22447823.469   117964332.322       -1198.716          50.000  
  22447858.958   117964294.803       -1201.146          50.000  
  22447862.099   117964364.151       -1199.458          50.000  
  22447861.938   117964343.626       -1200.713          49.000  
  22447843.041   117964289.240       -1199.473          50.000  
  22447863.094   117964352.785       -1199.661          50.000  
 25  8 16 11 44 21.4020000  0  8G 1G 3G 2G 4G 5G 6G 7G 8
  22447909.125   117964575.444       -1199.342          49.000  
  22447857.632   117964600.215       -1199.137          49.000  
  22447869.146   117964572.206       -1199.758          49.000  
  22447904.589   117964534.768       -1199.480          50.000  
  22447907.460   117964604.057       -1199.920          44.000  
  22447908.051   117964583.809       -1199.914          49.000  
  22447888.715   117964529.202       -1200.026          49.000  
  22447908.831   117964592.765       -1199.978          48.000  
 25  8 16 11 44 21.6020000  0  8G 1G 3G 2G 4G 5G 6G 7G 8
  22447954.769   117964815.326       -1199.589          49.000  
  22447903.093   117964840.170       -1200.331          49.000  
  22447914.776   117964812.062       -1199.025          49.000  
  22447950.312   117964774.802       -1200.492          50.000  
  22447953.016   117964844.241       -1198.264          44.000  
  22447953.528   117964823.866       -1200.249          49.000  
  22447934.341   117964769.159       -1199.948          49.000  
  22447954.513   117964832.623       -1199.288          49.000  
 25  8 16 11 44 21.8020000  0  9G 1G 3G 2G 4G 5G 6G 7G 8G21
  22448000.345   117965055.225       -1199.283          49.000  
  22447948.621   117965080.126       -1199.705          49.000  
  22447960.460   117965052.016       -1200.285          49.000  
  22447995.990   117965014.756       -1199.942          49.000  
  22447998.724   117965084.371       -1201.707          47.000  
  22447999.149   117965063.768       -1199.677          49.000  
  22447980.216   117965009.198       -1199.623          49.000  
  22448000.189   117965072.498       -1199.499          49.000  
  22565816.435   118584165.0403      -1200.033          39.000  
 25  8 16 11 44 22.0020000  0  9G 1G 3G 2G 4G 5G 6G 7G 8G21
  22448046.019   117965295.064       -1199.587          49.000  
  22447994.332   117965320.165       -1200.112          49.000  
  22448006.098   117965291.911       -1199.224          49.000  
  22448041.593   117965254.737       -1200.087          49.000  
  22448044.456   117965324.393       -1200.381          50.000  
  22448044.827   117965303.799       -1199.758          49.000  
  22448026.031   117965249.172       -1200.525          49.000  
  22448045.842   117965312.491       -1200.401          49.000  
  22565861.885   118584405.0872      -1200.369          33.000  
 25  8 16 11 44 22.2020000  0  8G 1G 3G 2G 4G 5G 6G 7G 8
  22448091.632   117965535.033       -1199.793          49.000  
  22448039.940   117965560.155       -1200.801          46.000  
  22448051.781   117965531.870       -1200.450          49.000  
  22448087.553   117965495.037       -1201.435          47.000  
  22448090.145   117965564.533       -1200.405          49.000  
  22448090.587   117965543.901       -1201.337          49.000  
  22448071.642   117965489.164       -1200.230          49.000  
  22448091.630   117965552.379       -1199.219          49.000  
 25  8 16 11 44 22.4020000  0  8G 1G 3G 2G 4G 5G 6G 7G 8
  22448137.316   117965774.913       -1199.476          49.000  
  22448085.574   117965800.216       -1199.016          49.000  
  22448097.426   117965771.819       -1199.286          49.000  
  22448133.412   117965735.097       -1200.790          49.000  
  22448135.828   117965804.562       -1200.001          49.000  
  22448136.212   117965784.025       -1200.262          49.000  
  22448117.373   117965729.237       -1199.940          49.000  
  22448137.314   117965792.356       -1199.864          49.000  
 25  8 16 11 44 22.6020000  0  8G 1G 3G 2G 4G 5G 6G 7G 8
  22448182.815   117966014.943       -1199.627          49.000  
  22448130.860   117966040.292       -1200.882          49.000  
  22448143.072   117966011.791       -1200.495          48.000  
  22448178.788   117965975.127       -1200.218          49.000  
  22448181.640   117966044.785       -1202.063          48.000  
  22448181.936   117966024.135       -1200.081          49.000  
  22448162.885   117965969.172       -1199.810          49.000  
  22448183.008   117966032.355       -1200.316          49.000  
 25  8 16 11 44 22.8020000  0  8G 1G 3G 2G 4G 5G 6G 7G 8
  22448228.658   117966254.875       -1199.778          49.000  
  22448176.530   117966280.309       -1199.980          49.000  
  22448188.735   117966251.789       -1199.485          49.000  
  22448224.428   117966215.146       -1199.835          49.000  
  22448227.353   117966284.783       -1199.656          49.000  
  22448227.696   117966264.197       -1201.087          48.000  
  22448208.713   117966209.273       -1200.227          49.000  
  22448228.575   117966272.323       -1199.254          49.000  
 25  8 16 11 44 23.0020000  0  8G 1G 3G 2G 4G 5G 6G 7G 8
  22448274.320   117966494.831       -1199.765          49.000  
  22448221.681   117966520.351       -1200.198          49.000  
  22448234.408   117966491.766       -1199.731          49.000  
  22448270.218   117966455.250       -1200.858          49.000  
  22448272.906   117966524.895       -1200.569          47.000  
  22448273.396   117966504.259       -1199.255          49.000  
  22448254.353   117966449.269       -1200.159          49.000  
  22448274.320   117966512.253       -1200.091          48.000  
 25  8 16 11 44 23.2020000  0  8G 1G 3G 2G 4G 5G 6G 7G 8
  22448319.987   117966734.722       -1199.438          49.000  
  22448267.343   117966760.289       -1199.850          49.000  
  22448280.030   117966731.664       -1199.741          48.000  
  22448316.210   117966695.307       -1200.783          48.000  
  22448318.561   117966765.012       -1202.192          45.000  
  22448319.119   117966744.240       -1200.343          49.000  
  22448299.940   117966689.266       -1199.742          49.000  
  22448320.047   117966752.279       -1199.149          49.000  
 25  8 16 11 44 23.4020000  0  8G 1G 3G 2G 4G 5G 6G 7G 8
  22448365.648   117966974.627       -1199.742          49.000  
  22448312.829   117967000.333       -1200.517          49.000  
  22448325.672   117966971.650       -1200.010          48.000  
  22448362.160   117966935.355       -1199.937          47.000  
  22448364.354   117967005.084       -1199.397          49.000  
  22448364.901   117966984.383       -1199.535          49.000  
  22448345.610   117966929.228       -1200.038          49.000  
  22448365.763   117966992.178       -1199.840          49.000  
 25  8 16 11 44 23.6020000  0  8G 1G 3G 2G 4G 5G 6G 7G 8
  22448411.320   117967214.599       -1199.969          49.000  
  22448358.356   117967240.363       -1199.847          49.000  
  22448371.795   117967211.619       -1200.252          48.000  
  22448408.150   117967175.517       -1201.390          43.000  
  22448410.084   117967245.134       -1200.491          49.000  
  22448410.603   117967224.321       -1199.882          49.000  
  22448391.674   117967169.312       -1200.901          45.000  
  22448411.397   117967232.189       -1200.143          49.000  
 25  8 16 11 44 23.8020000  0  8G 1G 3G 2G 4G 5G 6G 7G 8
  22448456.964   117967454.559       -1199.743          49.000  
  22448404.027   117967480.294       -1199.677          49.000  
  22448417.443   117967451.568       -1199.391          49.000  
  22448454.160   117967415.465       -1199.612          48.000  
  22448455.747   117967485.148       -1199.926          49.000  
  22448456.223   117967464.419       -1200.984          49.000  
  22448437.758   117967409.267       -1199.172          46.000  
  22448457.005   117967472.063       -1199.153          49.000  
 25  8 16 11 44 24.0020000  0  8G 1G 3G 2G 4G 5G 6G 7G 8
  22448502.589   117967694.471       -1199.478          49.000  
  22448449.748   117967720.424       -1201.202          46.000  
  22448462.987   117967691.522       -1199.850          49.000  
  22448499.756   117967655.492       -1200.018          49.000  
  22448501.375   117967725.151       -1199.934          49.000  
  22448501.864   117967704.395       -1199.581          49.000  
  22448483.921   117967649.203       -1199.805          48.000  
  22448502.692   117967711.989       -1199.809          49.000  
 25  8 16 11 44 24.2020000  0  8G 1G 3G 2G 4G 5G 6G 7G 8
  22448548.207   117967934.343       -1199.569          49.000  
  22448495.412   117967960.362       -1199.524          47.000  
  22448508.687   117967931.512       -1200.178          47.000  
  22448545.382   117967895.420       -1199.665          49.000  
  22448546.989   117967965.063       -1199.526          49.000  
  22448547.517   117967944.310       -1199.584          49.000  
  22448529.497   117967889.115       -1199.630          48.000  
  22448548.294   117967951.896       -1199.547          49.000  
 25  8 16 11 44 24.4030000  0  8G 1G 3G 2G 4G 5G 6G 7G 8
  22448593.961   117968175.450       -1199.620          49.000  
  22448541.363   117968201.530       -1199.597          49.000  
  22448554.375   117968172.654       -1199.581          49.000  
  22448591.141   117968136.594       -1200.181          49.000  
  22448592.592   117968206.166       -1199.600          48.000  
  22448593.545   117968185.441       -1199.701          48.000  
  22448575.367   117968130.221       -1199.425          49.000  
  22448594.119   117968192.974       -1199.324          49.000  
 25  8 16 11 44 24.6030000  0  8G 1G 3G 2G 4G 5G 6G 7G 8
  22448639.545   117968415.327       -1199.360          49.000  
  22448587.030   117968441.444       -1199.778          49.000  
  22448600.148   117968412.665       -1200.444          47.000  
  22448636.866   117968376.634       -1199.913          49.000  
  22448638.070   117968446.054       -1199.401          47.000  
  22448639.432   117968425.369       -1199.656          47.000  
  22448620.996   117968370.061       -1199.086          49.000  
  22448639.765   117968432.833       -1199.348          49.000  
 25  8 16 11 44 24.8030000  0  8G 1G 3G 2G 4G 5G 6G 7G 8
  22448685.170   117968655.247       -1199.777          49.000  
  22448632.760   117968681.567       -1201.101          47.000  
  22448645.842   117968652.632       -1199.611          49.000  
  22448682.565   117968616.570       -1199.606          49.000  
  22448683.339   117968685.945       -1199.727          46.000  
  22448685.120   117968665.265       -1199.381          48.000  
  22448666.672   117968609.912       -1199.537          49.000  
  22448685.385   117968672.690       -1199.353          49.000  
 25  8 16 11 44 25.0030000  0  8G 1G 3G 2G 4G 5G 6G 7G 8
  22448730.788   117968895.162       -1199.515          49.000  
  22448678.398   117968921.465       -1199.309          49.000  
  22448691.496   117968892.507       -1199.235          49.000  
  22448728.172   117968856.452       -1199.271          49.000  
  22448728.564   117968926.044       -1201.661          39.000  
  22448730.925   117968905.099       -1199.185          48.000  
  22448712.775   117968849.861       -1200.186          42.000  
  22448730.954   117968912.525       -1199.017          49.000  
 25  8 16 11 44 25.2030000  0  8G 1G 3G 2G 4G 5G 6G 7G 8
  22448776.408   117969135.100       -1199.730          49.000  
  22448724.052   117969161.341       -1199.402          49.000  
  22448737.155   117969132.378       -1199.460          49.000  
  22448773.802   117969096.311       -1199.326          49.000  
  22448774.561   117969165.967       -1198.328          44.000  
  22448776.601   117969144.874       -1198.490          46.000  
  22448758.853   117969089.597       -1197.725          42.000  
  22448776.601   117969152.354       -1199.320          49.000  
 25  8 16 11 44 25.4030000  0  8G 1G 3G 2G 4G 5G 6G 7G 8
  22448821.931   117969374.903       -1198.448          49.000  
  22448769.707   117969401.223       -1199.313          49.000  
  22448782.816   117969372.307       -1199.869          49.000  
  22448819.411   117969336.172       -1199.381          49.000  
  22448820.456   117969405.578       -1196.176          41.000  
  22448822.324   117969384.609       -1199.254          48.000  
  22448804.923   117969329.279       -1198.766          45.000  
  22448822.208   117969392.207       -1199.164          49.000  
 25  8 16 11 44 25.6030000  0  8G 1G 3G 2G 4G 5G 6G 7G 8
  22448867.622   117969614.776       -1199.816          49.000  
  22448815.352   117969641.054       -1199.196          49.000  
  22448827.970   117969612.248       -1199.293          49.000  
  22448865.042   117969576.033       -1199.288          49.000  
  22448865.966   117969645.428       -1200.109          49.000  
  22448867.936   117969624.254       -1197.261          46.000  
  22448850.951   117969568.927       -1198.324          48.000  
  22448867.808   117969631.985       -1198.801          49.000  
 25  8 16 11 44 25.8030000  0  8G 1G 3G 2G 4G 5G 6G 7G 8
  22448913.176   117969854.612       -1198.975          49.000  
  22448861.022   117969880.951       -1199.701          49.000  
  22448873.819   117969852.083       -1199.333          49.000  
  22448910.705   117969815.837       -1199.299          49.000  
  22448911.468   117969885.147       -1198.270          48.000  
  22448913.566   117969864.096       -1199.780          48.000  
  22448896.632   117969808.786       -1199.293          49.000  
  22448913.439   117969871.808       -1199.250          49.000  
 25  8 16 11 44 26.0030000  0  8G 1G 3G 2G 4G 5G 6G 7G 8
  22448958.880   117970094.544       -1200.283          49.000  
  22448906.673   117970120.830       -1199.506          49.000  
  22448919.440   117970091.959       -1199.590          49.000  
  22448956.332   117970055.724       -1199.515          49.000  
  22448956.951   117970124.953       -1199.780          49.000  
  22448959.179   117970103.726       -1199.370          47.000  
  22448942.271   117970048.503       -1198.552          49.000  
  22448959.075   117970111.636       -1199.324          49.000  
 25  8 16 11 44 26.2030000  0  8G 1G 3G 2G 4G 5G 6G 7G 8
  22449004.340   117970334.454       -1199.138          49.000  
  22448952.278   117970360.695       -1199.320          49.000  
  22448965.085   117970331.839       -1199.502          49.000  
  22449001.834   117970295.508       -1198.667          49.000  
  22449002.479   117970364.743       -1198.711          49.000  
  22449004.734   117970343.597       -1198.873          49.000  
  22448987.942   117970288.314       -1199.198          49.000  
  22449004.619   117970351.429       -1199.031          49.000  
 25  8 16 11 44 26.4030000  0  8G 1G 3G 2G 4G 5G 6G 7G 8
  22449050.136   117970574.267       -1199.559          49.000  
  22448997.989   117970600.542       -1199.523          48.000  
  22449010.756   117970571.791       -1200.127          49.000  
  22449047.426   117970535.348       -1199.625          49.000  
  22449048.112   117970604.521       -1199.110          49.000  
  22449050.398   117970583.346       -1199.019          49.000  
  22449033.568   117970528.113       -1199.226          49.000  
  22449050.290   117970591.269       -1199.429          49.000  
 25  8 16 11 44 26.6030000  0  8G 1G 3G 2G 4G 5G 6G 7G 8
  22449095.719   117970814.131       -1199.374          49.000  
  22449043.624   117970840.341       -1198.727          47.000  
  22449056.313   117970811.675       -1199.004          48.000  
  22449093.301   117970775.058       -1197.966          45.000  
  22449093.688   117970844.277       -1198.704          49.000  
  22449095.993   117970823.153       -1199.087          49.000  
  22449079.216   117970767.930       -1199.036          49.000  
  22449095.829   117970831.075       -1199.050          49.000  
 25  8 16 11 44 26.8030000  0  8G 1G 3G 2G 4G 5G 6G 7G 8
  22449141.328   117971054.015       -1199.354          49.000  
  22449089.257   117971080.143       -1199.199          48.000  
  22449101.907   117971051.421       -1198.657          46.000  
  22449139.007   117971014.721       -1198.849          48.000  
  22449139.273   117971084.046       -1198.734          49.000  
  22449141.689   117971062.849       -1198.253          47.000  
  22449125.163   117971007.696       -1198.357          47.000  
  22449141.493   117971070.965       -1199.462          49.000  
 25  8 16 11 44 27.0030000  0  8G 1G 3G 2G 4G 5G 6G 7G 8
  22449186.870   117971293.829       -1198.785          48.000  
  22449134.922   117971319.932       -1198.809          46.000  
  22449147.498   117971291.289       -1199.614          49.000  
  22449184.468   117971254.512       -1199.340          49.000  
  22449184.910   117971323.787       -1198.815          49.000  
  22449187.527   117971302.631       -1199.073          48.000  
  22449171.366   117971247.466       -1199.912          48.000  
  22449187.240   117971310.773       -1199.106          49.000  
 25  8 16 11 44 27.2030000  0  8G 1G 3G 2G 4G 5G 6G 7G 8
  22449232.415   117971533.716       -1200.198          48.000  
  22449180.561   117971559.672       -1199.386          44.000  
  22449193.136   117971531.144       -1199.441          49.000  
  22449230.022   117971494.323       -1198.999          49.000  
  22449230.642   117971563.518       -1198.906          49.000  
  22449233.248   117971542.332       -1198.970          46.000  
  22449216.726   117971487.337       -1199.346          49.000  
  22449232.695   117971550.671       -1199.595          49.000  
 25  8 16 11 44 27.4030000  0  8G 1G 3G 2G 4G 5G 6G 7G 8
  22449277.943   117971773.626       -1199.342          50.000  
  22449226.216   117971799.523       -1199.071          46.000  
  22449238.795   117971771.022       -1199.325          48.000  
  22449275.855   117971734.088       -1198.827          49.000  
  22449276.466   117971803.237       -1198.361          48.000  
  22449278.938   117971782.153       -1198.813          45.000  
  22449262.627   117971727.182       -1199.014          48.000  
  22449278.413   117971790.508       -1198.958          47.000  
 25  8 16 11 44 27.6030000  0  8G 1G 3G 2G 4G 5G 6G 7G 8
  22449323.547   117972013.499       -1199.033          50.000  
  22449271.869   117972039.365       -1199.224          48.000  
  22449284.430   117972010.898       -1199.260          47.000  
  22449321.603   117971973.896       -1199.122          50.000  
  22449322.051   117972043.033       -1199.211          50.000  
  22449324.527   117972021.922       -1198.842          45.000  
  22449308.626   117971966.950       -1198.503          45.000  
  22449323.954   117972030.324       -1199.396          48.000  
 25  8 16 11 44 27.8030000  0  8G 1G 3G 2G 4G 5G 6G 7G 8
  22449369.098   117972253.335       -1199.121          49.000  
  22449317.554   117972279.249       -1199.316          49.000  
  22449330.053   117972250.759       -1199.166          46.000  
  22449366.969   117972213.746       -1199.131          50.000  
  22449367.650   117972282.877       -1199.126          50.000  
  22449370.221   117972261.778       -1199.227          46.000  
  22449354.633   117972206.778       -1199.210          45.000  
  22449369.608   117972270.239       -1199.489          49.000  
 25  8 16 11 44 28.0030000  0  8G 1G 3G 2G 4G 5G 6G 7G 8
  22449414.557   117972493.208       -1199.508          50.000  
  22449363.226   117972519.153       -1199.589          49.000  
  22449375.671   117972490.642       -1199.631          44.000  
  22449412.262   117972453.605       -1199.423          50.000  
  22449413.232   117972522.674       -1198.927          51.000  
  22449415.985   117972501.578       -1198.821          46.000  
  22449400.592   117972446.642       -1199.385          45.000  
  22449415.460   117972510.135       -1199.458          50.000  
 25  8 16 11 44 28.2030000  0  8G 1G 3G 2G 4G 5G 6G 7G 8
  22449460.188   117972733.127       -1199.761          50.000  
  22449408.920   117972759.059       -1199.546          49.000  
  22449421.319   117972730.604       -1200.032          41.000  
  22449458.130   117972693.485       -1199.464          50.000  
  22449459.142   117972762.501       -1199.418          49.000  
  22449461.690   117972741.360       -1199.104          47.000  
  22449446.542   117972686.472       -1199.103          47.000  
  22449461.336   117972749.995       -1199.209          49.000  
 25  8 16 11 44 28.4030000  0  8G 1G 3G 2G 4G 5G 6G 7G 8
  22449505.793   117972973.057       -1199.418          50.000  
  22449454.715   117972998.964       -1199.469          50.000  
  22449466.972   117972970.503       -1198.928          41.000  
  22449504.006   117972933.350       -1199.031          48.000  
  22449504.723   117973002.409       -1199.438          51.000  
  22449507.336   117972981.214       -1199.186          49.000  
  22449492.422   117972926.305       -1199.014          50.000  
  22449507.192   117972989.867       -1199.366          50.000  
 25  8 16 11 44 28.6030000  0  8G 1G 3G 2G 4G 5G 6G 7G 8
  22449551.422   117973212.931       -1199.301          51.000  
  22449500.051   117973238.850       -1199.518          51.000  
  22449512.580   117973210.358       -1199.783          43.000  
  22449549.785   117973173.174       -1199.335          48.000  
  22449550.358   117973242.215       -1198.755          51.000  
  22449553.043   117973220.981       -1198.849          49.000  
  22449538.062   117973166.087       -1198.834          51.000  
  22449553.016   117973229.741       -1199.476          50.000  
 25  8 16 11 44 28.8030000  0  8G 1G 3G 2G 4G 5G 6G 7G 8
  22449597.093   117973452.886       -1199.889          51.000  
  22449546.110   117973478.771       -1199.656          50.000  
  22449558.195   117973450.390       -1200.360          45.000  
  22449595.481   117973413.112       -1199.957          50.000  
  22449596.031   117973482.041       -1199.240          51.000  
  22449598.845   117973460.832       -1199.432          50.000  
  22449583.733   117973405.939       -1199.514          51.000  
  22449598.642   117973469.628       -1199.375          50.000  
 25  8 16 11 44 29.0030000  0  8G 1G 3G 2G 4G 5G 6G 7G 8
  22449642.723   117973692.819       -1199.678          51.000  
  22449591.808   117973718.654       -1199.634          51.000  
  22449603.831   117973690.393       -1200.168          45.000  
  22449641.041   117973653.022       -1199.558          51.000  
  22449641.666   117973721.900       -1199.390          51.000  
  22449644.280   117973700.611       -1198.923          51.000  
  22449629.389   117973645.800       -1199.209          51.000  
  22449644.295   117973709.473       -1199.418          50.000  
 25  8 16 11 44 29.2030000  0  8G 1G 3G 2G 4G 5G 6G 7G 8
  22449688.333   117973932.765       -1199.692          51.000  
  22449637.733   117973958.709       -1200.625          50.000  
  22449649.459   117973930.326       -1199.315          47.000  
  22449686.693   117973892.903       -1199.292          50.000  
  22449687.292   117973961.760       -1199.138          51.000  
  22449689.925   117973940.445       -1199.238          51.000  
  22449675.014   117973885.575       -1198.628          51.000  
  22449689.903   117973949.386       -1199.573          50.000  
 25  8 16 11 44 29.4030000  0  8G 1G 3G 2G 4G 5G 6G 7G 8
  22449733.884   117974172.656       -1199.271          51.000  
  22449683.097   117974198.610       -1198.926          50.000  
  22449695.058   117974170.218       -1199.640          44.000  
  22449732.336   117974132.805       -1199.451          50.000  
  22449732.939   117974201.570       -1198.978          51.000  
  22449735.499   117974180.310       -1199.177          51.000  
  22449720.686   117974125.447       -1199.454          51.000  
  22449735.572   117974189.234       -1199.213          50.000  
 25  8 16 11 44 29.6030000  0  8G 1G 3G 2G 4G 5G 6G 7G 8
  22449779.630   117974412.667       -1200.774          50.000  
  22449728.694   117974438.562       -1200.208          50.000  
  22449740.758   117974410.401       -1199.900          47.000  
  22449778.008   117974372.685       -1199.572          50.000  
  22449778.807   117974441.533       -1200.587          48.000  
  22449781.124   117974419.990       -1198.627          49.000  
  22449766.325   117974365.215       -1198.677          50.000  
  22449781.229   117974429.129       -1199.611          50.000  
 25  8 16 11 44 29.8030000  0  8G 1G 3G 2G 4G 5G 6G 7G 8
  22449825.203   117974652.529       -1199.100          50.000  
  22449774.320   117974678.477       -1199.222          50.000  
  22449786.424   117974650.330       -1200.017          49.000  
  22449823.653   117974612.629       -1199.689          50.000  
  22449824.810   117974681.386       -1198.840          49.000  
  22449826.752   117974659.852       -1198.916          50.000  
  22449812.010   117974605.099       -1199.358          50.000  
  22449826.833   117974669.012       -1199.312          50.000  
 25  8 16 11 44 30.0030000  0  8G 1G 3G 2G 4G 5G 6G 7G 8
  22449870.931   117974892.632       -1201.350          50.000  
  22449820.043   117974918.550       -1201.672          47.000  
  22449831.984   117974890.188       -1199.484          50.000  
  22449869.289   117974852.560       -1199.287          50.000  
  22449870.786   117974921.259       -1199.614          46.000  
  22449872.324   117974899.661       -1200.153          50.000  
  22449857.652   117974844.918       -1199.065          50.000  
  22449872.484   117974908.884       -1199.395          50.000  
 25  8 16 11 44 30.2030000  0  8G 1G 3G 2G 4G 5G 6G 7G 8
  22449916.559   117975132.484       -1199.279          50.000  
  22449865.738   117975158.462       -1199.053          48.000  
  22449877.422   117975130.293       -1201.428          50.000  
  22449914.920   117975092.397       -1199.456          50.000  
  22449916.470   117975160.875       -1198.743          48.000  
  22449917.975   117975139.499       -1197.802          50.000  
  22449903.311   117975084.664       -1199.115          50.000  
  22449918.135   117975148.777       -1199.615          50.000  
 25  8 16 11 44 30.4030000  0  8G 1G 3G 2G 4G 5G 6G 7G 8
  22449962.223   117975372.504       -1200.100          50.000  
  22449911.470   117975398.363       -1199.944          48.000  
  22449923.069   117975370.249       -1199.078          49.000  
  22449960.493   117975332.241       -1198.989          49.000  
  22449962.288   117975400.879       -1199.833          49.000  
  22449963.674   117975379.307       -1200.280          50.000  
  22449948.975   117975324.567       -1199.445          50.000  
  22449963.753   117975388.692       -1199.645          49.000  
 25  8 16 11 44 30.6030000  0  8G 1G 3G 2G 4G 5G 6G 7G 8
  22450007.950   117975612.541       -1200.398          50.000  
  22449957.096   117975638.461       -1201.034          46.000  
  22449968.519   117975610.308       -1200.891          49.000  
  22450005.822   117975572.245       -1200.658          49.000  
  22450008.106   117975640.692       -1198.231          49.000  
  22450009.320   117975619.127       -1197.682          44.000  
  22449994.623   117975564.428       -1199.315          49.000  
  22450009.395   117975628.645       -1199.741          49.000  
 25  8 16 11 44 30.8030000  0  8G 1G 3G 2G 4G 5G 6G 7G 8
  22450053.482   117975852.391       -1198.643          50.000  
  22450002.774   117975878.376       -1197.764          47.000  
  22450014.195   117975850.311       -1200.139          50.000  
  22450051.445   117975812.187       -1199.388          49.000  
  22450053.686   117975880.465       -1200.673          49.000  
  22450054.963   117975858.937       -1199.084          50.000  
  22450040.262   117975804.246       -1198.712          49.000  
  22450054.967   117975868.507       -1199.094          49.000  
 25  8 16 11 44 31.0030000  0  8G 1G 3G 2G 4G 5G 6G 7G 8
  22450099.195   117976092.423       -1200.536          50.000  
  22450048.477   117976118.419       -1201.335          47.000  
  22450059.817   117976090.314       -1198.976          49.000  
  22450097.095   117976052.063       -1199.156          49.000  
  22450099.355   117976120.326       -1197.637          49.000  
  22450100.610   117976098.711       -1199.614          50.000  
  22450085.921   117976044.041       -1199.235          49.000  
  22450100.622   117976108.417       -1199.663          49.000  
 25  8 16 11 44 31.2030000  0  8G 1G 3G 2G 4G 5G 6G 7G 8
  22450144.874   117976332.377       -1200.267          50.000  
  22450094.162   117976358.398       -1199.427          48.000  
  22450105.482   117976330.326       -1201.125          46.000  
  22450142.698   117976291.988       -1200.155          49.000  
  22450145.047   117976360.169       -1199.811          49.000  
  22450146.223   117976338.558       -1198.695          50.000  
  22450131.577   117976283.914       -1199.359          49.000  
  22450146.220   117976348.275       -1199.224          49.000  
 25  8 16 11 44 31.4030000  0  8G 1G 3G 2G 4G 5G 6G 7G 8
  22450190.512   117976572.378       -1199.875          50.000  
  22450139.902   117976598.478       -1200.317          46.000  
  22450151.101   117976570.393       -1199.633          47.000  
  22450188.330   117976531.952       -1198.975          50.000  
  22450190.555   117976599.970       -1199.723          44.000  
  22450191.872   117976578.258       -1198.315          48.000  
  22450177.212   117976523.697       -1199.092          50.000  
  22450191.954   117976588.267       -1200.095          49.000  
 25  8 16 11 44 31.6030000  0  8G 1G 3G 2G 4G 5G 6G 7G 8
  22450236.197   117976812.398       -1200.402          50.000  
  22450185.603   117976838.395       -1199.557          46.000  
  22450196.718   117976810.317       -1200.109          46.000  
  22450234.048   117976771.821       -1199.650          50.000  
  22450236.215   117976839.924       -1199.003          48.000  
  22450237.512   117976818.154       -1199.733          49.000  
  22450222.871   117976763.603       -1199.442          50.000  
  22450237.589   117976828.087       -1199.110          50.000  
 25  8 16 11 44 31.8030000  0  8G 1G 3G 2G 4G 5G 6G 7G 8
  22450281.765   117977052.356       -1199.489          50.000  
  22450231.308   117977078.367       -1200.063          48.000  
  22450242.333   117977050.419       -1200.238          49.000  
  22450279.688   117977011.775       -1199.565          50.000  
  22450281.931   117977079.784       -1199.861          48.000  
  22450283.051   117977058.029       -1198.987          49.000  
  22450268.529   117977003.378       -1198.811          50.000  
  22450283.342   117977068.111       -1200.464          50.000  
 25  8 16 11 44 32.0030000  0  8G 1G 3G 2G 4G 5G 6G 7G 8
  22450327.445   117977292.319       -1200.045          50.000  
  22450277.014   117977318.364       -1200.040          48.000  
  22450288.039   117977290.458       -1200.194          49.000  
  22450325.358   117977251.726       -1200.239          50.000  
  22450327.572   117977319.668       -1198.928          48.000  
  22450328.731   117977297.706       -1199.122          48.000  
  22450314.148   117977243.352       -1199.838          50.000  
  22450328.969   117977307.988       -1199.539          50.000  
