     3.02           OBSERVATION DATA    G: GPS              RINEX VERSION / TYPE
RTKCONV 2.4.3                           20200430 005919 UTC PGM / RUN BY / DATE 
log: D:\FastData\IF_Test\0429-C7สตั้\2020-04-29-zhanghan-u  COMMENT             
format: u-blox                                              COMMENT             
                                                            MARKER NAME         
                                                            MARKER NUMBER       
                                                            MARKER TYPE         
                                                            OBSERVER / AGENCY   
                                                            REC # / TYPE / VERS 
                                                            ANT # / TYPE        
        0.0000        0.0000        0.0000                  APPROX POSITION XYZ 
        0.0000        0.0000        0.0000                  ANTENNA: DELTA H/E/N
G    4 C1C L1C D1C S1C                                      SYS / # / OBS TYPES 
  2019     6    16     0    59   15.0000000     GPS         TIME OF FIRST OBS   
  2019     6    16     1     4   34.0000000     GPS         TIME OF LAST OBS    
G                                                           SYS / PHASE SHIFT   
  0                                                         GLONASS SLOT / FRQ #
 C1C    0.000 C1P    0.000 C2C    0.000 C2P    0.000        GLONASS COD/PHS/BIS 
                                                            END OF HEADER       
> 2019  6 16  0 59 15.0000000  0  8                     
G 2  21569885.551   113350464.464        -481.571          43.000  
G 5  21569659.082   113349266.822        -481.561          46.000  
G 3  21569886.988   113350464.626        -481.528          46.000  
G 6  21569662.608   113349335.839        -481.758          37.000  
G 9  21524174.519   113110238.390        -481.298          32.000  
G 4  21569890.749   113350485.006        -481.594          45.000  
G 1  21569893.232   113350500.353        -481.763          41.000  
G24  21613268.397   113578491.1362       -481.870          30.000  
> 2019  6 16  0 59 16.0000000  0  8                     
G 2  21569977.305   113350946.036        -481.354          43.000  
G 5  21569750.818   113349748.401        -481.498          46.000  
G 3  21569978.663   113350946.211        -481.517          47.000  
G 6  21569754.480   113349817.426        -481.642          37.000  
G 9  21524266.214   113110719.980        -481.583          33.000  
G 4  21569982.552   113350966.584        -481.432          45.000  
G 1  21569985.011   113350981.919        -481.465          41.000  
G24  21613359.615   113578972.7412       -482.250          31.000  
> 2019  6 16  0 59 17.0000000  0  8                     
G 2  21570068.948   113351427.472        -481.331          43.000  
G 5  21569842.481   113350229.824        -481.337          46.000  
G 3  21570070.320   113351427.632        -481.267          47.000  
G 6  21569846.270   113350298.855        -481.418          36.000  
G 9  21524357.820   113111201.386        -480.936          33.000  
G 4  21570074.247   113351448.011        -481.301          45.000  
G 1  21570076.813   113351463.354        -481.364          41.000  
G24  21613449.451   113579443.1743       -482.477          30.000  
> 2019  6 16  0 59 18.0000000  0  8                     
G 2  21570160.750   113351908.955        -481.249          43.000  
G 5  21569934.190   113350711.309        -481.294          46.000  
G 3  21570162.006   113351909.122        -481.339          47.000  
G 6  21569938.037   113350780.330        -481.245          36.000  
G 9  21524449.486   113111682.884        -481.147          33.000  
G 4  21570166.009   113351929.503        -481.355          45.000  
G 1  21570168.604   113351944.838        -481.403          41.000  
G24  21613541.644   113579924.6482       -481.495          31.000  
> 2019  6 16  0 59 19.0000000  0  8                     
G 2  21570252.359   113352390.308        -481.309          43.000  
G 5  21570025.916   113351192.664        -481.322          46.000  
G 3  21570253.690   113352390.484        -481.457          47.000  
G 6  21570029.880   113351261.682        -481.193          36.000  
G 9  21524541.186   113112164.232        -481.068          33.000  
G 4  21570257.766   113352410.848        -481.285          45.000  
G 1  21570260.246   113352426.187        -481.299          41.000  
G24  21613634.963   113580418.0093       -482.287          31.000  
> 2019  6 16  0 59 20.0000000  0  8                     
G 2  21570344.146   113352871.725        -481.418          43.000  
G 5  21570117.588   113351674.097        -481.561          46.000  
G 3  21570345.408   113352871.907        -481.598          47.000  
G 6  21570121.598   113351743.110        -481.432          36.000  
G 9  21524632.995   113112645.666        -481.428          33.000  
G 4  21570349.461   113352892.278        -481.536          45.000  
G 1  21570351.953   113352907.620        -481.647          41.000  
G24  21613729.151                        -482.227          31.000  
> 2019  6 16  0 59 21.0000000  0  8                     
G 2  21570435.854   113353353.138        -481.387          43.000  
G 5  21570209.319   113352155.498        -481.598          46.000  
G 3  21570437.078   113353353.310        -481.577          47.000  
G 6  21570213.298   113352224.518        -481.716          36.000  
G 9  21524724.662   113113127.071        -481.260          32.000  
G 4  21570441.103   113353373.687        -481.560          45.000  
G 1  21570443.585   113353389.026        -481.564          41.000  
G24  21613821.601   113581393.8432       -481.982          31.000  
> 2019  6 16  0 59 22.0000000  0  8                     
G 2  21570527.672   113353834.507        -481.505          43.000  
G 5  21570301.009   113352636.860        -481.531          46.000  
G 3  21570528.825   113353834.675        -481.509          46.000  
G 6  21570304.892   113352705.876        -481.493          36.000  
G 9  21524816.234   113113608.472        -481.648          32.000  
G 4  21570532.751   113353855.046        -481.460          45.000  
G 1  21570535.116   113353870.383        -481.434          41.000  
G24  21613908.909   113581875.2142       -482.443          31.000  
> 2019  6 16  0 59 23.0000000  0  8                     
G 2  21570619.355   113354315.901        -481.414          43.000  
G 5  21570392.751   113353118.258        -481.447          47.000  
G 3  21570620.494   113354316.072        -481.484          47.000  
G 6  21570396.746   113353187.285        -481.305          36.000  
G 9  21524907.936   113114089.850        -481.344          33.000  
G 4  21570624.386   113354336.445        -481.453          45.000  
G 1  21570626.905   113354351.786        -481.390          41.000  
G24  21614001.038                        -490.283          30.000  
> 2019  6 16  0 59 24.0000000  0  8                     
G 2  21570711.026   113354797.419        -481.760          43.000  
G 5  21570484.529   113353599.769        -481.720          46.000  
G 3  21570712.227   113354797.591        -481.760          47.000  
G 6  21570488.543   113353668.796        -481.580          36.000  
G 9  21524999.543   113114571.357        -481.620          33.000  
G 4  21570716.109   113354817.959        -481.707          45.000  
G 1  21570718.686   113354833.303        -481.752          41.000  
G24  21614094.062                        -482.812          31.000  
> 2019  6 16  0 59 25.0000000  0  8                     
G 2  21570802.714   113355279.109        -481.677          43.000  
G 5  21570576.214   113354081.466        -481.818          46.000  
G 3  21570803.895   113355279.281        -481.866          47.000  
G 6  21570580.440   113354150.498        -481.781          37.000  
G 9  21525091.269   113115053.043        -482.003          32.000  
G 4  21570807.622   113355299.656        -481.816          45.000  
G 1  21570810.416   113355314.991        -481.752          41.000  
G24  21614185.669                        -493.018          31.000  
> 2019  6 16  0 59 26.0000000  0  8                     
G 2  21570894.374   113355760.692        -481.583          43.000  
G 5  21570668.018   113354563.060        -481.748          46.000  
G 3  21570895.640   113355760.872        -481.761          47.000  
G 6  21570672.138   113354632.077        -481.653          36.000  
G 9  21525183.147   113115534.626        -481.587          33.000  
G 4  21570899.278   113355781.242        -481.702          45.000  
G 1  21570902.159   113355796.582        -481.658          41.000  
G24  21614276.487   113583788.9133       -482.313          30.000  
> 2019  6 16  0 59 27.0000000  0  8                     
G 2  21570986.140   113356242.335        -481.614          43.000  
G 5  21570759.707   113355044.704        -481.722          46.000  
G 3  21570987.346   113356242.519        -481.876          46.000  
G 6  21570763.797   113355113.724        -481.731          36.000  
G 9  21525274.878   113116016.249        -480.974          33.000  
G 4  21570990.938   113356262.885        -481.764          45.000  
G 1  21570993.940   113356278.227        -481.742          41.000  
G24  21614366.518   113584270.5272       -482.264          30.000  
> 2019  6 16  0 59 28.0000000  0  8                     
G 2  21571078.020   113356723.996        -481.625          43.000  
G 5  21570851.495   113355526.360        -481.748          46.000  
G 3  21571079.099   113356724.173        -481.877          47.000  
G 6  21570855.555   113355595.383        -481.743          36.000  
G 9  21525366.660   113116497.911        -481.228          33.000  
G 4  21571082.749   113356744.548        -481.790          45.000  
G 1  21571085.676   113356759.887        -481.761          41.000  
G24  21614457.682   113584752.1902       -481.852          30.000  
> 2019  6 16  0 59 29.0000000  0  8                     
G 2  21571169.790   113357205.541        -481.313          43.000  
G 5  21570943.301   113356007.912        -481.367          46.000  
G 3  21571170.879   113357205.724        -481.396          46.000  
G 6  21570947.222   113356076.924        -481.298          37.000  
G 9  21525458.262   113116979.443        -480.635          33.000  
G 4  21571174.469   113357226.093        -481.329          45.000  
G 1  21571177.306   113357241.436        -481.428          41.000  
G24  21614551.262                        -482.526          30.000  
> 2019  6 16  0 59 30.0000000  0  8                     
G 2  21571261.463   113357687.143        -481.718          43.000  
G 5  21571035.027   113356489.502        -481.697          47.000  
G 3  21571262.625   113357687.316        -481.731          47.000  
G 6  21571039.011   113356558.546        -482.020          36.000  
G 9  21525550.055   113117461.056        -480.988          33.000  
G 4  21571266.278   113357707.685        -481.665          45.000  
G 1  21571269.058   113357723.035        -481.810          41.000  
G24  21614645.010   113585714.3513       -482.338          29.000  
> 2019  6 16  0 59 31.0000000  0  8                     
G 2  21571353.170   113358168.711        -481.780          43.000  
G 5  21571126.827   113356971.067        -481.674          47.000  
G 3  21571354.322   113358168.876        -481.576          47.000  
G 6  21571130.750   113357040.104        -481.766          36.000  
G 9  21525641.738   113117942.631        -481.512          33.000  
G 4  21571358.047   113358189.246        -481.522          45.000  
G 1  21571360.815   113358204.591        -481.593          41.000  
G24  21614737.142   113586195.3961       -482.061          30.000  
> 2019  6 16  0 59 32.0000000  0  8                     
G 2  21571444.892   113358650.396        -481.974          43.000  
G 5  21571218.664   113357518.2633       -481.960          46.000  
G 3  21571446.077   113358650.570        -481.957          47.000  
G 6  21571222.440   113357521.779        -481.804          36.000  
G 9  21525733.507   113118424.337        -482.211          33.000  
G 4  21571449.738   113358670.946        -481.908          45.000  
G 1  21571452.582   113358686.278        -481.785          41.000  
G24  21614828.458   113586677.070        -481.034          30.000  
> 2019  6 16  0 59 33.0000000  0  8                     
G 2  21571536.514   113359132.112        -481.837          43.000  
G 5  21571310.373   113357999.9712       -481.741          46.000  
G 3  21571537.793   113359132.284        -481.753          46.000  
G 6  21571314.072   113358003.503        -482.000          36.000  
G 9  21525825.324   113118906.057        -482.130          33.000  
G 4  21571541.359   113359152.661        -481.781          45.000  
G 1  21571544.303   113359167.987        -481.627          41.000  
G24  21614918.013   113587158.745        -480.595          30.000  
> 2019  6 16  0 59 34.0000000  0  8                     
G 2  21571628.278   113359613.615        -481.567          43.000  
G 5  21571402.116   113358481.4712       -481.504          46.000  
G 3  21571629.460   113359613.779        -481.406          46.000  
G 6  21571405.719   113358484.990        -481.438          36.000  
G 9  21525916.884   113119387.558        -481.978          33.000  
G 4  21571633.084   113359634.159        -481.438          45.000  
G 1  21571636.054   113359649.485        -481.207          42.000  
G24  21615010.483   113587640.305        -481.835          30.000  
> 2019  6 16  0 59 35.0000000  0  8                     
G 2  21571720.078   113360095.177        -481.815          43.000  
G 5  21571493.818   113358963.0242       -481.737          46.000  
G 3  21571721.210   113360095.338        -481.860          47.000  
G 6  21571497.236   113358966.548        -481.637          36.000  
G 9  21526008.690   113119869.115        -481.873          32.000  
G 4  21571724.769   113360115.715        -481.700          45.000  
G 1  21571727.786   113360131.039        -481.390          42.000  
G24  21615100.721   113588121.840        -481.689          29.000  
> 2019  6 16  0 59 36.0000000  0  8                     
G 2  21571811.919   113360576.861        -481.854          43.000  
G 5  21571585.511   113359444.7192       -481.725          46.000  
G 3  21571813.013   113360577.039        -481.771          46.000  
G 6  21571588.980   113359448.235        -481.816          36.000  
G 9  21526100.351   113120350.809        -482.046          33.000  
G 4  21571816.739   113360597.403        -481.825          45.000  
G 1  21571819.624   113360612.731        -481.606          42.000  
G24  21615194.476   113588603.491        -480.457          31.000  
> 2019  6 16  0 59 37.0000000  0  8                     
G 2  21571903.678   113361058.665        -481.720          43.000  
G 5  21571677.174   113359928.5383       -481.710          47.000  
G 3  21571904.805   113361058.836        -481.733          47.000  
G 6  21571680.660   113359930.035        -481.610          36.000  
G 9  21526192.039   113120832.6042       -481.736          33.000  
G 4  21571908.585   113361144.2143       -481.755          46.000  
G 1  21571911.372   113361094.546        -481.652          42.000  
G24  21615285.805   113589085.274        -480.321          32.000  
> 2019  6 16  0 59 38.0000000  0  8                     
G 2  21571995.404   113361540.460        -481.860          43.000  
G 5  21571768.921   113360410.3342       -481.788          46.000  
G 3  21571996.523   113361540.638        -481.884          47.000  
G 6  21571772.299   113360411.823        -481.581          36.000  
G 9  21526283.875   113121314.4232       -481.868          33.000  
G 4  21572000.495   113361626.0152       -481.842          46.000  
G 1  21572003.142   113361576.343        -481.705          42.000  
G24  21615377.184   113589567.047        -480.252          31.000  
> 2019  6 16  0 59 39.0000000  0  8                     
G 2  21572087.188   113362022.275        -481.903          43.000  
G 5  21571860.683   113360892.1382       -481.638          45.000  
G 3  21572088.373   113362022.442        -481.687          46.000  
G 6  21571863.929   113360893.622        -481.395          35.000  
G 9  21526375.659   113121796.2252       -482.018          32.000  
G 4  21572092.277   113362107.8182       -481.749          45.000  
G 1  21572094.881   113362058.153        -481.844          42.000  
G24  21615468.549   113590048.873        -480.755          31.000  
> 2019  6 16  0 59 40.0000000  0  8                     
G 2  21572178.876   113362504.038        -482.000          43.000  
G 5  21571952.497   113361373.9002       -481.840          46.000  
G 3  21572180.140   113362504.193        -481.744          47.000  
G 6  21571955.576   113361375.385        -481.527          35.000  
G 9  21526467.491   113122277.9752       -481.963          32.000  
G 4  21572183.999   113362589.5762       -481.813          46.000  
G 1  21572186.693   113362539.911        -481.829          42.000  
G24  21615561.302                        -476.757          30.000  
> 2019  6 16  0 59 41.0000000  0  8                     
G 2  21572270.633   113362985.695        -481.846          43.000  
G 5  21572044.172   113361855.5602       -481.746          46.000  
G 3  21572271.857   113362985.858        -481.610          46.000  
G 6  21572047.087   113361857.051        -481.481          35.000  
G 9  21526559.305   113122759.6542       -481.995          32.000  
G 4  21572275.626   113363071.2382       -481.749          45.000  
G 1  21572278.519   113363021.578        -481.798          42.000  
G24  21615648.215   113590997.8103       -481.014          30.000  
> 2019  6 16  0 59 42.0000000  0  8                     
G 2  21572362.458   113363467.361        -481.865          43.000  
G 5  21572135.869   113362337.2212       -481.652          46.000  
G 3  21572363.668   113363467.520        -481.609          46.000  
G 6  21572138.689   113362338.703        -481.475          35.000  
G 9  21526651.032   113123241.3132       -482.006          33.000  
G 4  21572367.303   113363552.9022       -481.764          45.000  
G 1  21572370.223   113363503.235        -481.667          41.000  
G24  21615740.747   113591479.4672       -480.998          30.000  
> 2019  6 16  0 59 43.0000000  0  8                     
G 2  21572454.186   113364010.9713       -481.832          43.000  
G 5  21572227.459   113362819.8253       -481.676          46.000  
G 3  21572455.401   113364017.6253       -481.666          47.000  
G 6  21572230.428   113362835.3143       -481.389          36.000  
G 9  21526742.739   113123795.9133       -482.139          33.000  
G 4  21572458.998   113364036.5063       -481.619          46.000  
G 1  21572461.924   113364051.8433       -481.729          42.000  
G24  21615835.540   113591981.6053       -481.013          32.000  
> 2019  6 16  0 59 44.0000000  0  8                     
G 2  21572546.148   113364494.6482       -481.870          43.000  
G 5  21572319.293   113363302.5052       -481.719          46.000  
G 3  21572547.069   113364499.3052       -481.683          47.000  
G 6  21572322.350   113363318.9912       -481.421          35.000  
G 9  21526834.515   113124278.6022       -482.040          33.000  
G 4  21572550.917   113364520.1862       -481.718          46.000  
G 1  21572553.504   113364533.5212       -481.772          41.000  
G24  21615929.108   113592473.2462       -481.071          32.000  
> 2019  6 16  0 59 45.0000000  0  8                     
G 2  21572637.858   113364976.4322       -481.747          43.000  
G 5  21572411.072   113363784.2942       -481.715          46.000  
G 3  21572638.888   113364981.0972       -481.667          46.000  
G 6  21572414.073   113363800.7652       -481.401          35.000  
G 9  21526926.274   113124760.3792       -481.663          33.000  
G 4  21572642.726   113365001.9792       -481.774          46.000  
G 1  21572645.204   113365015.3192       -481.848          41.000  
G24  21616017.963   113592955.0252       -481.247          31.000  
> 2019  6 16  0 59 46.0000000  0  8                     
G 2  21572729.732   113365458.1562       -481.681          43.000  
G 5  21572502.778   113364266.0132       -481.542          46.000  
G 3  21572730.690   113365462.8252       -481.661          46.000  
G 6  21572505.722   113364282.5032       -481.442          35.000  
G 9  21527018.102   113125242.1012       -481.598          33.000  
G 4  21572734.616   113365483.7152       -481.766          46.000  
G 1  21572737.031   113365497.0502       -481.743          41.000  
G24  21616110.099   113593436.8182       -481.614          31.000  
> 2019  6 16  0 59 47.0000000  0  8                     
G 2  21572821.411   113365940.8413       -481.948          43.000  
G 5  21572594.593   113364749.7013       -481.874          46.000  
G 3  21572822.416   113365946.4913       -481.772          46.000  
G 6  21572597.534   113364765.1903       -481.639          35.000  
G 9  21527109.788   113125724.7813       -481.902          33.000  
G 4  21572826.480   113365967.3803       -481.824          46.000  
G 1  21572828.820   113365979.7273       -481.967          41.000  
G24  21616199.167   113593892.3873       -480.823          31.000  
> 2019  6 16  0 59 48.0000000  0  8                     
G 2  21572913.026   113366422.4652       -481.547          43.000  
G 5  21572686.309   113365231.3372       -481.562          46.000  
G 3  21572914.089   113366428.1202       -481.396          46.000  
G 6  21572689.311   113365246.8262       -481.523          35.000  
G 9  21527201.588   113126207.4062       -481.262          33.000  
G 4  21572918.086   113366449.0082       -481.447          46.000  
G 1  21572920.594   113366462.3592       -481.736          41.000  
G24  21616291.611   113594379.0722       -481.334          30.000  
> 2019  6 16  0 59 49.0000000  0  8                     
G 2  21573004.758   113366905.0563       -481.609          43.000  
G 5  21572778.142   113365713.9243       -481.689          46.000  
G 3  21573005.810   113366909.7103       -481.450          46.000  
G 6  21572781.028   113365729.4183       -481.652          35.000  
G 9  21527293.388   113126689.9903       -481.433          32.000  
G 4  21573009.852   113366931.5983       -481.616          46.000  
G 1  21573012.540   113366945.9503       -481.823          41.000  
G24  21616382.525   113594856.6443       -481.038          30.000  
> 2019  6 16  0 59 50.0000000  0  8                     
G 2  21573096.522   113367386.5942       -481.713          43.000  
G 5  21572869.803   113366195.4542       -481.617          46.000  
G 3  21573097.429   113367391.2522       -481.530          46.000  
G 6  21572872.725   113366210.9642       -481.724          35.000  
G 9  21527385.104   113127171.5382       -481.699          32.000  
G 4  21573101.598   113367413.1422       -481.632          46.000  
G 1  21573104.264   113367427.4802       -481.694          41.000  
G24  21616476.499   113595338.2392       -481.266          30.000  
> 2019  6 16  0 59 51.0000000  0  8                     
G 2  21573188.331   113367868.1502       -481.749          43.000  
G 5  21572961.542   113366676.9992       -481.627          46.000  
G 3  21573189.088   113367872.7962       -481.542          47.000  
G 6  21572964.328   113366692.4952       -481.722          35.000  
G 9  21527476.911   113127653.0892       -481.892          32.000  
G 4  21573193.310   113367894.6742       -481.528          46.000  
G 1  21573195.960   113367909.0222       -481.733          41.000  
G24  21616570.230   113595842.8223       -482.213          31.000  
> 2019  6 16  0 59 52.0000000  0  8                     
G 2  21573280.136   113368349.7922       -481.702          43.000  
G 5  21573053.268   113367158.6502       -481.721          46.000  
G 3  21573280.937   113368354.4392       -481.454          46.000  
G 6  21573055.945   113367174.1422       -481.960          35.000  
G 9  21527568.669   113128134.7172       -481.653          33.000  
G 4  21573285.142   113368376.3202       -481.600          45.000  
G 1  21573287.799   113368390.6802       -481.870          42.000  
G24  21616662.200   113596326.4553       -481.506          30.000  
> 2019  6 16  0 59 53.0000000  0  8                     
G 2  21573371.857   113368831.4272       -481.680          43.000  
G 5  21573145.028   113367640.2922       -481.597          46.000  
G 3  21573372.710   113368836.0862       -481.432          46.000  
G 6  21573147.731   113367655.7932       -481.666          36.000  
G 9  21527660.398   113128616.3532       -481.497          32.000  
G 4  21573376.956   113368857.9642       -481.559          45.000  
G 1  21573379.498   113368872.3272       -481.865          42.000  
G24  21616752.928   113596808.0402       -481.601          30.000  
> 2019  6 16  0 59 54.0000000  0  8                     
G 2  21573463.593   113369313.1462       -481.971          43.000  
G 5  21573236.920   113368122.0092       -482.087          46.000  
G 3  21573464.456   113369317.8022       -481.859          46.000  
G 6  21573239.578   113368137.5142       -482.228          36.000  
G 9  21527752.174   113129098.0772       -482.068          32.000  
G 4  21573468.652   113369339.6822       -481.835          45.000  
G 1  21573471.423   113369354.0442       -482.085          41.000  
G24  21616843.880   113597289.7642       -481.608          30.000  
> 2019  6 16  0 59 55.0000000  0  8                     
G 2  21573555.347   113369794.864        -481.736          43.000  
G 5  21573328.661   113368603.2191       -481.641          46.000  
G 3  21573556.201   113369799.0201       -481.530          46.000  
G 6  21573331.464   113368619.224        -482.009          36.000  
G 9  21527843.821   113129579.806        -481.976          33.000  
G 4  21573560.339   113369821.403        -481.645          45.000  
G 1  21573563.168   113369835.751        -481.602          41.000  
G24  21616935.523   113597771.5292       -481.712          30.000  
> 2019  6 16  0 59 56.0000000  0  8                     
G 2  21573647.018   113370276.558        -481.733          43.000  
G 5  21573420.489   113369084.920        -481.732          46.000  
G 3  21573647.980   113370280.725        -481.730          46.000  
G 6  21573423.225   113369100.919        -481.898          36.000  
G 9  21527935.544   113130061.515        -481.893          32.000  
G 4  21573652.095   113370303.107        -481.707          45.000  
G 1  21573654.965   113370317.449        -481.722          41.000  
G24  21617027.372   113598253.2322       -481.567          29.000  
> 2019  6 16  0 59 57.0000000  0  8                     
G 2  21573738.769   113370758.142        -481.698          43.000  
G 5  21573512.234   113369566.506        -481.689          46.000  
G 3  21573739.685   113370762.301        -481.606          46.000  
G 6  21573515.008   113369582.499        -481.818          36.000  
G 9  21528027.271   113130543.076        -481.768          32.000  
G 4  21573743.690   113370784.681        -481.620          45.000  
G 1  21573746.787   113370799.041        -481.798          41.000  
G24  21617119.100   113598734.7742       -481.736          30.000  
> 2019  6 16  0 59 58.0000000  0  8                     
G 2  21573830.429   113371239.626        -481.544          43.000  
G 5  21573603.913   113370047.994        -481.499          46.000  
G 3  21573831.399   113371243.792        -481.481          46.000  
G 6  21573606.558   113370063.975        -481.373          36.000  
G 9  21528118.929   113131024.555        -481.270          32.000  
G 4  21573835.358   113371266.165        -481.528          45.000  
G 1  21573838.504   113371280.527        -481.589          41.000  
G24  21617210.642   113599216.2182       -481.482          31.000  
> 2019  6 16  0 59 59.0000000  0  8                     
G 2  21573922.169   113371721.084        -481.499          43.000  
G 5  21573695.607   113370529.455        -481.587          46.000  
G 3  21573923.119   113371725.248        -481.527          46.000  
G 6  21573698.186   113370545.437        -481.616          35.000  
G 9  21528210.676   113131506.012        -481.234          32.000  
G 4  21573927.043   113371747.633        -481.602          45.000  
G 1  21573930.184   113371761.987        -481.710          41.000  
G24  21617302.285   113599697.6912       -481.201          30.000  
> 2019  6 16  1  0  0.0000000  0  8                     
G 2  21574013.814   113372202.419        -481.239          43.000  
G 5  21573787.319   113371010.783        -481.212          46.000  
G 3  21574014.962   113372206.586        -481.211          46.000  
G 6  21573789.934   113371026.771        -481.064          36.000  
G 9  21528302.302   113131987.351        -481.116          33.000  
G 4  21574018.866   113372228.964        -481.188          45.000  
G 1  21574021.862   113372243.318        -481.283          41.000  
G24  21617394.041   113600179.0772       -481.212          31.000  
> 2019  6 16  1  0  1.0000000  0  8                     
G 2  21574105.513   113372683.672        -481.265          43.000  
G 5  21573879.001   113371492.035        -481.261          46.000  
G 3  21574106.711   113372687.838        -481.328          46.000  
G 6  21573881.611   113371508.013        -481.189          35.000  
G 9  21528394.093   113132468.609        -481.711          32.000  
G 4  21574110.435   113372710.210        -481.332          45.000  
G 1  21574113.446   113372724.578        -481.475          42.000  
G24  21617485.323   113600660.270        -480.959          29.000  
> 2019  6 16  1  0  2.0000000  0  8                     
G 2  21574197.191   113373165.035        -481.230          43.000  
G 5  21573970.797   113371973.402        -481.238          46.000  
G 3  21574198.392   113373169.199        -481.241          46.000  
G 6  21573973.251   113371989.366        -480.985          36.000  
G 9  21528485.742   113132949.987        -481.709          33.000  
G 4  21574202.078   113373191.576        -481.254          45.000  
G 1  21574205.172   113373205.938        -481.310          41.000  
G24  21617577.088   113601141.660        -480.804          30.000  
> 2019  6 16  1  0  3.0000000  0  8                     
G 2  21574288.858   113373646.523        -481.443          43.000  
G 5  21574062.510   113372454.885        -481.488          46.000  
G 3  21574290.073   113373650.685        -481.464          46.000  
G 6  21574064.939   113372470.858        -481.053          36.000  
G 9  21528577.390   113133431.457        -481.561          33.000  
G 4  21574293.718   113373673.064        -481.479          45.000  
G 1  21574296.932   113373687.419        -481.401          41.000  
G24  21617668.851   113601623.175        -481.940          30.000  
> 2019  6 16  1  0  4.0000000  0  8                     
G 2  21574380.545   113374127.978        -481.248          43.000  
G 5  21574154.229   113372936.346        -481.406          46.000  
G 3  21574381.672   113374132.148        -481.410          46.000  
G 6  21574156.626   113372952.330        -481.274          36.000  
G 9  21528669.104   113133912.905        -481.384          33.000  
G 4  21574385.251   113374154.528        -481.508          45.000  
G 1  21574388.687   113374168.877        -481.377          41.000  
G24  21617760.570   113602104.649        -481.896          31.000  
> 2019  6 16  1  0  5.0000000  0  8                     
G 2  21574472.196   113374609.300        -481.301          43.000  
G 5  21574245.991   113373417.668        -481.509          46.000  
G 3  21574473.303   113374613.471        -481.527          46.000  
G 6  21574248.352   113373433.650        -481.423          36.000  
G 9  21528760.809   113134394.225        -481.537          33.000  
G 4  21574477.002   113374635.854        -481.581          45.000  
G 1  21574480.339   113374650.196        -481.331          41.000  
G24  21617852.494   113602585.972        -481.922          31.000  
> 2019  6 16  1  0  6.0000000  0  8                     
G 2  21574564.015   113375090.706        -481.260          43.000  
G 5  21574337.650   113373899.074        -481.510          46.000  
G 3  21574565.033   113375094.875        -481.512          46.000  
G 6  21574339.942   113373915.056        -481.455          36.000  
G 9  21528852.557   113134875.642        -481.235          33.000  
G 4  21574568.761   113375117.259        -481.567          45.000  
G 1  21574572.006   113375131.610        -481.479          41.000  
G24  21617944.480   113603067.372        -481.656          31.000  
> 2019  6 16  1  0  7.0000000  0  8                     
G 2  21574655.804   113375572.148        -481.388          43.000  
G 5  21574429.342   113374380.517        -481.573          46.000  
G 3  21574656.782   113375576.318        -481.617          46.000  
G 6  21574431.719   113374396.513        -481.821          36.000  
G 9  21528944.212   113135357.090        -481.599          33.000  
G 4  21574660.593   113375598.701        -481.721          45.000  
G 1  21574663.802   113375613.048        -481.457          41.000  
G24  21618036.305   113603548.820        -482.333          31.000  
> 2019  6 16  1  0  8.0000000  0  8                     
G 2  21574747.503   113376053.564        -481.329          43.000  
G 5  21574521.012   113374861.940        -481.536          45.000  
G 3  21574748.637   113376057.749        -481.645          46.000  
G 6  21574523.384   113374877.917        -481.401          35.000  
G 9  21529035.896   113135838.510        -481.489          32.000  
G 4  21574752.376   113376080.130        -481.655          45.000  
G 1  21574755.324   113376094.468        -481.431          41.000  
G24  21618127.954   113604030.231        -481.687          31.000  
> 2019  6 16  1  0  9.0000000  0  8                     
G 2  21574839.164   113376534.910        -481.108          43.000  
G 5  21574612.703   113375343.283        -481.279          46.000  
G 3  21574840.390   113376539.090        -481.343          46.000  
G 6  21574615.034   113375359.260        -481.267          35.000  
G 9  21529127.690   113136319.851        -480.959          32.000  
G 4  21574844.054   113376561.473        -481.371          45.000  
G 1  21574846.986   113376575.814        -481.213          41.000  
G24  21618219.563   113604511.554        -481.306          32.000  
> 2019  6 16  1  0 10.0000000  0  8                     
G 2  21574930.793   113377016.182        -481.036          43.000  
G 5  21574704.416   113375824.553        -481.255          46.000  
G 3  21574932.009   113377020.358        -481.334          46.000  
G 6  21574706.676   113375840.548        -481.503          36.000  
G 9  21529219.340   113136801.129        -481.185          33.000  
G 4  21574935.653   113377042.734        -481.310          45.000  
G 1  21574938.645   113377057.085        -481.223          41.000  
G24  21618311.263   113604992.820        -481.120          31.000  
> 2019  6 16  1  0 11.0000000  0  8                     
G 2  21575022.392   113377497.375        -481.100          43.000  
G 5  21574796.133   113376305.751        -481.210          46.000  
G 3  21575023.610   113377501.560        -481.371          47.000  
G 6  21574798.442   113376321.736        -481.318          35.000  
G 9  21529310.964   113137282.325        -481.366          33.000  
G 4  21575027.218   113377523.938        -481.239          45.000  
G 1  21575030.394   113377538.273        -480.985          41.000  
G24  21618402.817   113605474.062        -481.973          31.000  
> 2019  6 16  1  0 12.0000000  0  8                     
G 2  21575114.075   113377978.689        -481.420          43.000  
G 5  21574887.744   113376787.054        -481.356          46.000  
G 3  21575115.225   113377982.862        -481.514          46.000  
G 6  21574890.143   113376803.043        -481.501          36.000  
G 9  21529402.631   113137763.638        -481.583          32.000  
G 4  21575118.881   113378005.234        -481.362          45.000  
G 1  21575122.230   113378019.577        -481.121          41.000  
G24  21618494.519   113605955.359        -482.821          31.000  
> 2019  6 16  1  0 13.0000000  0  8                     
G 2  21575205.723   113378460.028        -481.255          43.000  
G 5  21574979.444   113377268.385        -481.060          46.000  
G 3  21575206.944   113378464.194        -481.251          46.000  
G 6  21574981.876   113377284.387        -481.351          35.000  
G 9  21529494.275   113138244.980        -481.471          32.000  
G 4  21575210.502   113378486.566        -481.096          45.000  
G 1  21575213.997   113378500.906        -480.812          41.000  
G24  21618585.939   113606436.714        -482.607          30.000  
> 2019  6 16  1  0 14.0000000  0  8                     
G 2  21575297.466   113378941.426        -481.536          43.000  
G 5  21575071.083   113377749.772        -481.327          46.000  
G 3  21575298.555   113378945.572        -481.440          46.000  
G 6  21575073.497   113377765.770        -481.774          36.000  
G 9  21529585.862   113138726.394        -482.229          32.000  
G 4  21575302.235   113378967.958        -481.323          45.000  
G 1  21575305.700   113378982.294        -481.139          41.000  
G24  21618677.652   113606918.184        -483.737          31.000  
> 2019  6 16  1  0 15.0000000  0  8                     
G 2  21575389.315   113379422.882        -481.714          44.000  
G 5  21575162.772   113378231.230        -481.663          46.000  
G 3  21575390.307   113379427.032        -481.808          46.000  
G 6  21575165.228   113378247.232        -482.059          36.000  
G 9  21529677.547   113139207.838        -482.104          32.000  
G 4  21575394.076   113379449.401        -481.514          45.000  
G 1  21575397.440   113379463.751        -481.414          41.000  
G24  21618769.599   113607399.607        -483.257          31.000  
> 2019  6 16  1  0 16.0000000  0  8                     
G 2  21575481.171   113379904.347        -481.335          43.000  
G 5  21575254.389   113378712.707        -481.306          46.000  
G 3  21575482.097   113379908.508        -481.445          46.000  
G 6  21575256.925   113378739.7153       -481.938          37.000  
G 9  21529769.202   113139689.342        -482.505          32.000  
G 4  21575485.740   113379930.878        -481.265          45.000  
G 1  21575489.075   113379945.232        -481.222          41.000  
G24  21618861.435   113607881.085        -482.899          30.000  
> 2019  6 16  1  0 17.0000000  0  8                     
G 2  21575572.904   113380385.745        -481.528          43.000  
G 5  21575346.111   113379194.112        -481.525          46.000  
G 3  21575573.839   113380389.910        -481.616          46.000  
G 6  21575348.613   113379222.0983       -481.765          36.000  
G 9  21529860.828   113140170.705        -482.107          32.000  
G 4  21575577.424   113380412.276        -481.420          45.000  
G 1  21575580.684   113380426.625        -481.238          41.000  
G24  21618952.986   113608362.428        -482.126          29.000  
> 2019  6 16  1  0 18.0000000  0  8                     
G 2  21575664.609   113380867.129        -481.636          43.000  
G 5  21575437.862   113379675.475        -481.499          45.000  
G 3  21575665.500   113380871.283        -481.541          46.000  
G 6  21575440.192   113379703.4682       -481.288          36.000  
G 9  21529952.493   113140652.119        -482.230          32.000  
G 4  21575669.031   113380893.653        -481.382          45.000  
G 1  21575672.429   113380908.006        -481.351          41.000  
G24  21619044.615   113608843.879        -484.051          30.000  
> 2019  6 16  1  0 19.0000000  0  8                     
G 2  21575756.205   113381348.471        -481.416          43.000  
G 5  21575529.587   113380156.833        -481.334          45.000  
G 3  21575757.227   113381352.636        -481.442          46.000  
G 6  21575532.065   113380185.8393       -481.281          35.000  
G 9  21530044.175   113141133.416        -481.647          32.000  
G 4  21575760.591   113381375.001        -481.299          45.000  
G 1  21575764.092   113381389.357        -481.372          41.000  
G24  21619135.960   113609325.122        -481.499          29.000  
> 2019  6 16  1  0 20.0000000  0  8                     
G 2  21575847.825   113381829.822        -481.271          43.000  
G 5  21575621.196   113380638.169        -481.184          46.000  
G 3  21575848.790   113381833.978        -481.246          46.000  
G 6  21575623.772   113380667.1822       -481.382          36.000  
G 9  21530135.924   113141614.767        -481.555          33.000  
G 4  21575852.229   113381856.346        -481.097          45.000  
G 1  21575855.869   113381870.693        -481.079          41.000  
G24  21619227.856   113609806.500        -481.252          31.000  
> 2019  6 16  1  0 21.0000000  0  8                     
G 2  21575939.505   113382311.180        -481.368          43.000  
G 5  21575712.877   113381119.529        -481.420          45.000  
G 3  21575940.467   113382315.331        -481.349          46.000  
G 6  21575715.588   113381148.5442       -481.578          36.000  
G 9  21530227.632   113142096.126        -481.569          33.000  
G 4  21575943.942   113382337.701        -481.274          45.000  
G 1  21575947.544   113382352.059        -481.306          41.000  
G24  21619319.606   113610287.861        -482.035          31.000  
> 2019  6 16  1  0 22.0000000  0  8                     
G 2  21576031.192   113382792.501        -481.245          43.000  
G 5  21575804.451   113381600.857        -481.196          45.000  
G 3  21576032.135   113382796.667        -481.189          46.000  
G 6  21575807.364   113381629.8562       -481.008          36.000  
G 9  21530319.344   113142577.452        -481.239          32.000  
G 4  21576035.664   113382819.030        -481.101          45.000  
G 1  21576039.135   113382833.389        -481.239          41.000  
G24  21619411.383   113610769.216        -482.717          31.000  
> 2019  6 16  1  0 23.0000000  0  8                     
G 2  21576122.880   113383273.859        -481.334          43.000  
G 5  21575896.163   113382082.217        -481.415          45.000  
G 3  21576123.833   113383278.026        -481.422          46.000  
G 6  21575899.129   113382111.2032       -481.105          36.000  
G 9  21530411.068   113143058.824        -481.642          33.000  
G 4  21576127.473   113383300.393        -481.316          45.000  
G 1  21576130.858   113383314.746        -481.387          41.000  
G24  21619502.916   113611250.501        -481.271          30.000  
> 2019  6 16  1  0 24.0000000  0  8                     
G 2  21576214.610   113383755.208        -481.313          44.000  
G 5  21575987.820   113382563.562        -481.355          45.000  
G 3  21576215.451   113383759.366        -481.349          46.000  
G 6  21575990.730   113382592.5612       -481.338          36.000  
G 9  21530502.796   113143540.169        -481.302          33.000  
G 4  21576219.193   113383781.736        -481.295          45.000  
G 1  21576222.486   113383796.088        -481.295          41.000  
G24  21619594.762   113611736.8643       -480.742          30.000  
> 2019  6 16  1  0 25.0000000  0  8                     
G 2  21576306.319   113384254.5303       -481.591          43.000  
G 5  21576079.479   113383044.872        -481.526          45.000  
G 3  21576307.110   113384240.683        -481.567          46.000  
G 6  21576082.375   113383073.867        -481.301          36.000  
G 9  21530594.492   113144021.465        -481.523          33.000  
G 4  21576310.980   113384263.054        -481.519          44.000  
G 1  21576314.212   113384277.408        -481.603          41.000  
G24  21619686.584   113612218.1762       -481.254          31.000  
> 2019  6 16  1  0 26.0000000  0  8                     
G 2  21576398.003   113384735.9483       -481.478          43.000  
G 5  21576171.220   113383526.300        -481.552          45.000  
G 3  21576398.781   113384722.107        -481.510          45.000  
G 6  21576174.041   113383555.297        -481.324          36.000  
G 9  21530686.229   113144502.886        -481.677          33.000  
G 4  21576402.572   113384744.479        -481.414          44.000  
G 1  21576405.826   113384758.834        -481.482          41.000  
G24  21619778.601   113612699.6092       -480.741          31.000  
> 2019  6 16  1  0 27.0000000  0  8                     
G 2  21576489.706   113385217.4252       -481.320          43.000  
G 5  21576262.917   113384007.783        -481.455          45.000  
G 3  21576490.479   113385203.584        -481.326          46.000  
G 6  21576265.930   113384036.793        -481.300          36.000  
G 9  21530778.000   113144984.373        -481.584          33.000  
G 4  21576494.152   113385225.963        -481.396          44.000  
G 1  21576497.664   113385240.312        -481.447          41.000  
G24  21619870.656   113613181.0952       -480.375          31.000  
> 2019  6 16  1  0 28.0000000  0  8                     
G 2  21576581.435   113385699.8143       -481.495          43.000  
G 5  21576354.585   113384489.172        -481.608          45.000  
G 3  21576582.234   113385684.975        -481.593          46.000  
G 6  21576357.653   113384518.174        -481.438          36.000  
G 9  21530869.700   113145465.768        -481.570          33.000  
G 4  21576585.840   113385707.346        -481.584          44.000  
G 1  21576589.384   113385721.695        -481.547          41.000  
G24  21619962.691   113613662.4752       -481.149          30.000  
> 2019  6 16  1  0 29.0000000  0  8                     
G 2  21576673.096   113386182.1823       -481.527          43.000  
G 5  21576446.276   113384970.549        -481.604          45.000  
G 3  21576673.898   113386166.349        -481.597          45.000  
G 6  21576449.249   113384999.524        -481.465          36.000  
G 9  21530961.482   113145947.131        -481.377          32.000  
G 4  21576677.525   113386188.719        -481.597          44.000  
G 1  21576681.015   113386203.070        -481.482          41.000  
G24  21620054.070                        -481.055          31.000  
> 2019  6 16  1  0 30.0000000  0  8                     
G 2  21576764.927   113386663.5452       -481.243          43.000  
G 5  21576537.899   113385451.900        -481.360          45.000  
G 3  21576765.619   113386647.698        -481.351          45.000  
G 6  21576540.763   113385480.891        -481.272          36.000  
G 9  21531053.256   113146428.480        -481.067          32.000  
G 4  21576769.288   113386670.083        -481.409          45.000  
G 1  21576772.773   113386684.426        -481.327          41.000  
G24  21620145.784   113614632.6773       -480.415          30.000  
> 2019  6 16  1  0 31.0000000  0  8                     
G 2  21576856.652   113387144.874        -481.633          43.000  
G 5  21576629.600   113385933.240        -481.593          45.000  
G 3  21576857.209   113387129.046        -481.526          45.000  
G 6  21576632.511   113385962.238        -481.581          36.000  
G 9  21531144.941   113146909.814        -481.345          32.000  
G 4  21576861.071   113387151.408        -481.575          44.000  
G 1  21576864.382   113387165.767        -481.647          41.000  
G24  21620237.565   113615115.0423       -480.906          30.000  
> 2019  6 16  1  0 32.0000000  0  8                     
G 2  21576948.285   113387626.183        -481.477          43.000  
G 5  21576721.222   113386414.545        -481.392          45.000  
G 3  21576948.843   113387610.348        -481.348          45.000  
G 6  21576724.282   113386443.534        -481.278          36.000  
G 9  21531236.631   113147391.131        -481.450          33.000  
G 4  21576952.769   113387632.715        -481.410          44.000  
G 1  21576955.967   113387647.067        -481.489          41.000  
G24  21620329.544   113615596.3322       -480.417          29.000  
> 2019  6 16  1  0 33.0000000  0  8                     
G 2  21577039.773   113388107.508        -481.523          43.000  
G 5  21576812.940   113386895.870        -481.382          45.000  
G 3  21577040.483   113388091.678        -481.307          46.000  
G 6  21576816.040   113386924.881        -481.627          36.000  
G 9  21531328.396   113147872.465        -481.494          32.000  
G 4  21577044.449   113388114.041        -481.345          44.000  
G 1  21577047.684   113388128.398        -481.417          41.000  
G24  21620421.438   113616077.6792       -480.641          30.000  
> 2019  6 16  1  0 34.0000000  0  8                     
G 2  21577131.389   113388588.879        -481.294          43.000  
G 5  21576904.657   113387377.240        -481.265          45.000  
G 3  21577132.061   113388573.044        -481.141          46.000  
G 6  21576907.803   113387406.246        -481.428          36.000  
G 9  21531420.156   113148353.840        -481.243          32.000  
G 4  21577136.019   113388595.418        -481.279          44.000  
G 1  21577139.429   113388609.772        -481.377          41.000  
G24  21620513.262   113616558.9992       -480.348          30.000  
> 2019  6 16  1  0 35.0000000  0  8                     
G 2  21577223.093   113389070.181        -481.426          43.000  
G 5  21576996.516   113387858.540        -481.379          45.000  
G 3  21577223.679   113389054.333        -481.294          45.000  
G 6  21576999.428   113387887.546        -481.665          36.000  
G 9  21531511.856   113148835.131        -481.233          32.000  
G 4  21577227.803   113389076.728        -481.429          45.000  
G 1  21577231.196   113389091.069        -481.438          41.000  
G24  21620605.022   113617040.3042       -480.554          31.000  
> 2019  6 16  1  0 36.0000000  0  8                     
G 2  21577314.710   113389551.597        -481.575          43.000  
G 5  21577088.224   113388339.948        -481.438          45.000  
G 3  21577315.531   113389535.747        -481.316          45.000  
G 6  21577091.042   113388368.959        -481.729          36.000  
G 9  21531603.528   113149316.538        -481.460          33.000  
G 4  21577319.637   113389558.134        -481.558          44.000  
G 1  21577322.871   113389572.488        -481.593          41.000  
G24  21620696.557   113617521.6812       -480.631          30.000  
> 2019  6 16  1  0 37.0000000  0  8                     
G 2  21577406.466   113390033.013        -481.453          43.000  
G 5  21577179.938   113388821.367        -481.445          45.000  
G 3  21577407.179   113390017.164        -481.315          45.000  
G 6  21577182.710   113388850.375        -481.661          36.000  
G 9  21531695.286   113149797.960        -481.572          33.000  
G 4  21577411.297   113390039.550        -481.530          44.000  
G 1  21577414.619   113390053.902        -481.501          41.000  
G24  21620788.362   113618002.6241       -480.427          31.000  
> 2019  6 16  1  0 38.0000000  0  8                     
G 2  21577498.288   113390514.497        -481.509          43.000  
G 5  21577271.561   113389302.854        -481.465          45.000  
G 3  21577498.868   113390498.660        -481.410          45.000  
G 6  21577274.542   113389331.864        -481.743          36.000  
G 9  21531786.969   113150279.429        -480.820          33.000  
G 4  21577502.919   113390521.043        -481.552          45.000  
G 1  21577506.282   113390535.396        -481.638          41.000  
G24  21620880.055   113618484.155        -481.990          30.000  
> 2019  6 16  1  0 39.0000000  0  8                     
G 2  21577589.914   113390996.009        -481.731          43.000  
G 5  21577363.348   113389784.380        -481.962          45.000  
G 3  21577590.612   113390980.169        -481.698          45.000  
G 6  21577366.234   113389813.367        -482.018          36.000  
G 9  21531878.744   113150760.851        -479.427          32.000  
G 4  21577594.704   113391024.5363       -481.520          44.000  
G 1  21577598.035   113391016.900        -481.859          41.000  
G24  21620971.574                        -480.810          30.000  
> 2019  6 16  1  0 40.0000000  0  8                     
G 2  21577681.575   113391477.527        -481.440          43.000  
G 5  21577454.975   113390265.893        -481.521          45.000  
G 3  21577682.472   113391461.703        -481.461          46.000  
G 6  21577457.920   113390294.893        -481.333          36.000  
G 9  21531970.469   113151242.459        -480.934          32.000  
G 4  21577686.422   113391507.0732       -481.648          44.000  
G 1  21577689.641   113391498.431        -481.700          42.000  
G24  21621062.353   113619448.5993       -480.201          30.000  
> 2019  6 16  1  0 41.0000000  0  8                     
G 2  21577773.251   113391959.110        -481.802          43.000  
G 5  21577546.709   113390747.473        -481.810          45.000  
G 3  21577774.278   113391943.278        -481.815          46.000  
G 6  21577549.702   113390776.462        -481.719          36.000  
G 9  21532062.249   113151724.035        -481.136          32.000  
G 4  21577778.100   113391988.6503       -481.927          45.000  
G 1  21577781.477   113391980.009        -481.920          42.000  
G24  21621152.153   113619930.1532       -480.603          30.000  
> 2019  6 16  1  0 42.0000000  0  8                     
G 2  21577864.938   113392440.785        -481.534          43.000  
G 5  21577638.528   113391229.144        -481.470          45.000  
G 3  21577866.014   113392424.961        -481.522          46.000  
G 6  21577641.466   113391258.143        -481.333          36.000  
G 9  21532153.973   113152205.717        -480.682          32.000  
G 4  21577869.684   113392470.3272       -481.541          44.000  
G 1  21577873.346   113392461.689        -481.628          42.000  
G24  21621241.195                        -481.158          30.000  
> 2019  6 16  1  0 43.0000000  0  8                     
G 2  21577956.712   113392922.480        -481.844          43.000  
G 5  21577730.327   113391710.835        -481.755          45.000  
G 3  21577957.789   113392906.653        -481.843          46.000  
G 6  21577733.233   113391739.827        -481.769          35.000  
G 9  21532245.708   113152687.396        -481.125          32.000  
G 4  21577961.375   113392952.0253       -481.862          44.000  
G 1  21577965.207   113392943.379        -481.943          42.000  
G24  21621335.228   113620870.5943       -481.148          30.000  
> 2019  6 16  1  0 44.0000000  0  8                     
G 2  21578048.475   113393404.208        -481.842          43.000  
G 5  21577822.043   113392192.566        -481.829          45.000  
G 3  21578049.587   113393388.378        -481.897          46.000  
G 6  21577824.981   113392221.569        -481.864          36.000  
G 9  21532337.485   113153169.154        -481.484          33.000  
G 4  21578053.207   113393433.7422       -481.813          44.000  
G 1  21578056.935   113393425.101        -481.849          42.000  
G24  21621427.969   113621352.3602       -482.409          30.000  
> 2019  6 16  1  0 45.0000000  0  8                     
G 2  21578140.282   113393885.881        -481.527          43.000  
G 5  21577913.732   113392674.255        -481.676          45.000  
G 3  21578141.449   113393870.067        -481.722          45.000  
G 6  21577916.766   113392703.244        -481.472          35.000  
G 9  21532429.250   113153650.821        -481.031          33.000  
G 4  21578145.050   113393915.4282       -481.686          44.000  
G 1  21578148.701   113393906.789        -481.749          42.000  
G24  21621518.676   113621834.0152       -481.592          29.000  
> 2019  6 16  1  0 46.0000000  0  8                     
G 2  21578232.223   113394367.533        -481.718          43.000  
G 5  21578005.458   113393155.899        -481.965          45.000  
G 3  21578233.266   113394351.713        -481.968          46.000  
G 6  21578008.466   113393184.889        -481.702          35.000  
G 9  21532520.991   113154132.454        -481.145          33.000  
G 4  21578236.955   113394397.0762       -481.864          45.000  
G 1  21578240.421   113394388.441        -481.919          42.000  
G24  21621611.616   113622315.7022       -482.420          30.000  
> 2019  6 16  1  0 47.0000000  0  8                     
G 2  21578324.099   113394849.233        -481.694          43.000  
G 5  21578097.225   113393637.607        -481.940          45.000  
G 3  21578325.055   113394833.427        -482.112          46.000  
G 6  21578100.112   113393666.613        -481.940          36.000  
G 9  21532612.751   113154614.187        -481.350          33.000  
G 4  21578328.745   113394878.7812       -481.826          45.000  
G 1  21578332.153   113394870.149        -481.924          42.000  
G24  21621700.873   113622797.4112       -483.140          30.000  
> 2019  6 16  1  0 48.0000000  0  8                     
G 2  21578415.846   113395330.934        -481.401          43.000  
G 5  21578189.018   113394119.306        -481.766          45.000  
G 3  21578416.844   113395315.120        -481.768          46.000  
G 6  21578191.799   113394148.296        -481.692          35.000  
G 9  21532704.418   113155095.872        -481.040          32.000  
G 4  21578420.483   113395360.4722       -481.533          45.000  
G 1  21578423.882   113395351.837        -481.616          41.000  
G24  21621794.086   113623279.0892       -482.558          31.000  
> 2019  6 16  1  0 49.0000000  0  8                     
G 2  21578507.509   113395812.596        -481.411          44.000  
G 5  21578280.771   113394600.953        -481.588          45.000  
G 3  21578508.497   113395796.769        -481.650          46.000  
G 6  21578283.394   113394629.948        -481.521          35.000  
G 9  21532796.267   113155577.518        -480.869          32.000  
G 4  21578512.193   113395842.123        -481.429          45.000  
G 1  21578515.655   113395833.498        -481.753          41.000  
G24  21621886.428   113623760.2091       -481.525          31.000  
> 2019  6 16  1  0 50.0000000  0  8                     
G 2  21578599.275   113396294.132        -481.418          44.000  
G 5  21578372.446   113395082.496        -481.719          45.000  
G 3  21578600.098   113396278.306        -481.686          46.000  
G 6  21578375.176   113395111.487        -481.582          35.000  
G 9  21532887.911   113156059.036        -480.747          32.000  
G 4  21578603.779   113396323.669        -481.467          44.000  
G 1  21578607.392   113396315.026        -481.683          41.000  
G24  21621977.863   113624241.774        -482.350          31.000  
> 2019  6 16  1  0 51.0000000  0  8                     
G 2  21578690.997   113396775.671        -481.492          44.000  
G 5  21578464.159   113395564.029        -481.685          45.000  
G 3  21578691.779   113396759.842        -481.665          46.000  
G 6  21578466.956   113395593.032        -481.808          35.000  
G 9  21532979.557   113156540.575        -481.061          32.000  
G 4  21578695.489   113396805.205        -481.594          44.000  
G 1  21578699.103   113396796.552        -481.464          42.000  
G24  21622069.586   113624723.297        -481.482          31.000  
> 2019  6 16  1  0 52.0000000  0  8                     
G 2  21578782.757   113397257.327        -481.905          43.000  
G 5  21578555.919   113396045.670        -481.869          45.000  
G 3  21578783.448   113397241.483        -481.782          46.000  
G 6  21578558.838   113396074.683        -481.852          36.000  
G 9  21533071.397   113157022.231        -481.434          33.000  
G 4  21578787.310   113397286.857        -481.824          45.000  
G 1  21578790.772   113397310.2123       -481.854          42.000  
G24  21622161.697   113625205.005        -482.266          31.000  
> 2019  6 16  1  0 53.0000000  0  8                     
G 2  21578874.492   113397738.998        -481.560          43.000  
G 5  21578647.658   113396527.360        -481.610          45.000  
G 3  21578875.313   113397723.176        -481.628          45.000  
G 6  21578650.815   113396556.364        -481.632          36.000  
G 9  21533163.087   113157503.936        -481.394          33.000  
G 4  21578879.046   113397768.545        -481.647          44.000  
G 1  21578882.542   113397792.9013       -481.487          42.000  
G24  21622253.435   113625686.626        -481.557          30.000  
> 2019  6 16  1  0 54.0000000  0  8                     
G 2  21578966.290   113398220.716        -481.895          43.000  
G 5  21578739.375   113397009.065        -481.865          45.000  
G 3  21578967.256   113398204.888        -481.952          46.000  
G 6  21578742.649   113397038.069        -481.769          36.000  
G 9  21533254.802   113157985.644        -481.875          33.000  
G 4  21578970.985   113398250.258        -481.923          44.000  
G 1  21578974.467   113398274.6042       -481.665          42.000  
G24  21622345.442   113626168.412        -482.176          31.000  
> 2019  6 16  1  0 55.0000000  0  8                     
G 2  21579057.943   113398702.350        -481.647          43.000  
G 5  21578831.070   113397490.701        -481.682          45.000  
G 3  21579058.976   113398686.518        -481.643          46.000  
G 6  21578834.341   113397519.702        -481.671          36.000  
G 9  21533346.541   113158467.295        -482.020          32.000  
G 4  21579062.689   113398731.890        -481.665          44.000  
G 1  21579066.172   113398756.238        -481.442          42.000  
G24  21622437.504   113626649.948        -480.199          31.000  
> 2019  6 16  1  0 56.0000000  0  8                     
G 2  21579149.570   113399183.876        -481.635          43.000  
G 5  21578922.820   113397972.237        -481.565          45.000  
G 3  21579150.614   113399168.051        -481.611          45.000  
G 6  21578926.077   113398001.232        -481.468          36.000  
G 9  21533438.176   113158948.799        -481.434          33.000  
G 4  21579154.436   113399213.420        -481.573          45.000  
G 1  21579157.831   113399237.766        -481.487          42.000  
G24  21622529.272   113627131.465        -481.161          31.000  
> 2019  6 16  1  0 57.0000000  0  8                     
G 2  21579241.231   113399665.492        -481.562          43.000  
G 5  21579014.638   113398453.843        -481.639          45.000  
G 3  21579242.322   113399649.661        -481.707          45.000  
G 6  21579017.749   113398482.851        -481.626          36.000  
G 9  21533529.939   113159430.411        -481.676          32.000  
G 4  21579246.092   113399695.036        -481.682          45.000  
G 1  21579249.596   113399719.385        -481.620          42.000  
G24  21622620.938   113627613.125        -480.966          31.000  
> 2019  6 16  1  0 58.0000000  0  8                     
G 2  21579332.971   113400147.111        -481.520          43.000  
G 5  21579106.348   113398935.469        -481.597          45.000  
G 3  21579333.957   113400131.287        -481.608          45.000  
G 6  21579109.433   113398964.479        -481.608          36.000  
G 9  21533621.651   113159912.040        -481.525          33.000  
G 4  21579337.727   113400176.659        -481.571          45.000  
G 1  21579341.377   113400201.006        -481.511          42.000  
G24  21622712.855   113628094.752        -481.124          32.000  
> 2019  6 16  1  0 59.0000000  0  8                     
G 2  21579424.715   113400628.640        -481.627          43.000  
G 5  21579198.077   113399416.992        -481.604          45.000  
G 3  21579425.708   113400612.799        -481.671          45.000  
G 6  21579201.218   113399445.995        -481.697          36.000  
G 9  21533713.365   113160393.543        -481.394          33.000  
G 4  21579429.434   113400658.179        -481.638          44.000  
G 1  21579433.037   113400682.517        -481.350          42.000  
G24  21622804.786   113628576.233        -480.627          32.000  
> 2019  6 16  1  1  0.0000000  0  8                     
G 2  21579516.487   113401110.107        -481.638          43.000  
G 5  21579289.703   113399898.466        -481.525          45.000  
G 3  21579517.455   113401094.277        -481.605          45.000  
G 6  21579292.892   113399927.444        -481.364          36.000  
G 9  21533805.088   113160875.034        -481.592          32.000  
G 4  21579521.298   113401139.649        -481.494          44.000  
G 1  21579524.784   113401163.992        -481.248          42.000  
G24  21622896.467   113629057.764        -482.776          31.000  
> 2019  6 16  1  1  1.0000000  0  8                     
G 2  21579608.209   113401591.437        -481.484          43.000  
G 5  21579381.294   113400379.795        -481.301          45.000  
G 3  21579609.239   113401575.612        -481.327          45.000  
G 6  21579384.483   113400408.787        -481.255          36.000  
G 9  21533896.705   113161356.353        -481.066          33.000  
G 4  21579612.998   113401620.985        -481.393          44.000  
G 1  21579616.444   113401645.333        -481.332          41.000  
G24  21622988.063   113629539.036        -480.992          31.000  
> 2019  6 16  1  1  2.0000000  0  8                     
G 2  21579699.939   113402072.709        -481.425          43.000  
G 5  21579472.963   113400861.069        -481.290          45.000  
G 3  21579700.838   113402056.874        -481.294          46.000  
G 6  21579476.022   113400890.055        -481.208          36.000  
G 9  21533988.360   113161837.629        -481.136          33.000  
G 4  21579704.735   113402102.259        -481.295          45.000  
G 1  21579707.990   113402126.595        -481.262          41.000  
G24  21623079.866   113630020.360        -481.437          31.000  
> 2019  6 16  1  1  3.0000000  0  8                     
G 2  21579791.580   113402554.029        -481.241          43.000  
G 5  21579564.693   113401342.398        -481.184          45.000  
G 3  21579792.512   113402538.210        -481.315          46.000  
G 6  21579567.718   113401371.389        -481.187          36.000  
G 9  21534080.154   113162318.966        -481.301          33.000  
G 4  21579796.530   113402583.591        -481.239          45.000  
G 1  21579799.612   113402607.928        -481.179          41.000  
G24  21623171.470   113630501.654        -480.939          31.000  
> 2019  6 16  1  1  4.0000000  0  8                     
G 2  21579883.229   113403035.293        -481.311          43.000  
G 5  21579656.411   113401823.653        -481.334          45.000  
G 3  21579884.205   113403019.452        -481.318          45.000  
G 6  21579659.252   113401852.661        -481.553          36.000  
G 9  21534171.763   113162800.230        -481.599          33.000  
G 4  21579888.193   113403064.838        -481.301          45.000  
G 1  21579891.151   113403089.173        -481.222          41.000  
G24  21623263.385   113630982.961        -481.742          31.000  
> 2019  6 16  1  1  5.0000000  0  8                     
G 2  21579974.803   113403516.512        -481.412          43.000  
G 5  21579748.120   113402304.874        -481.332          45.000  
G 3  21579975.848   113403500.673        -481.283          45.000  
G 6  21579751.020   113402333.892        -481.626          36.000  
G 9  21534263.451   113163281.448        -481.550          33.000  
G 4  21579979.608   113403546.056        -481.227          45.000  
G 1  21579982.947   113403570.391        -481.195          41.000  
G24  21623355.126   113631464.221        -482.885          31.000  
> 2019  6 16  1  1  6.0000000  0  8                     
G 2  21580066.436   113403997.732        -481.544          43.000  
G 5  21579839.809   113402786.104        -481.417          45.000  
G 3  21580067.491   113403981.899        -481.298          45.000  
G 6  21579842.701   113402815.104        -481.619          36.000  
G 9  21534355.157   113163762.658        -481.234          33.000  
G 4  21580071.261   113404027.288        -481.344          45.000  
G 1  21580074.640   113404051.622        -481.307          41.000  
G24  21623446.707   113631945.463        -483.357          30.000  
> 2019  6 16  1  1  7.0000000  0  8                     
G 2  21580158.096   113404479.063        -481.328          43.000  
G 5  21579931.518   113403267.428        -481.355          45.000  
G 3  21580159.185   113404463.234        -481.323          45.000  
G 6  21579934.320   113403296.437        -481.649          36.000  
G 9  21534446.922   113164243.990        -481.200          32.000  
G 4  21580162.967   113404508.611        -481.230          45.000  
G 1  21580166.312   113404532.960        -481.399          41.000  
G24  21623538.092   113632426.701        -481.531          30.000  
> 2019  6 16  1  1  8.0000000  0  8                     
G 2  21580249.826   113404960.359        -481.321          43.000  
G 5  21580023.276   113403748.731        -481.355          45.000  
G 3  21580250.922   113404944.530        -481.288          45.000  
G 6  21580025.966   113403777.732        -481.547          36.000  
G 9  21534538.537   113164725.276        -480.946          33.000  
G 4  21580254.649   113404989.910        -481.282          44.000  
G 1  21580257.999   113405014.263        -481.438          41.000  
G24  21623629.675   113632908.015        -481.705          29.000  
> 2019  6 16  1  1  9.0000000  0  8                     
G 2  21580341.622   113405441.721        -481.365          43.000  
G 5  21580114.924   113404230.083        -481.462          45.000  
G 3  21580342.614   113405425.884        -481.365          45.000  
G 6  21580117.764   113404259.095        -481.610          36.000  
G 9  21534630.185   113165206.645        -481.370          32.000  
G 4  21580346.261   113405471.259        -481.381          44.000  
G 1  21580349.559   113405495.611        -481.515          41.000  
G24  21623721.126   113633389.356        -481.686          29.000  
> 2019  6 16  1  1 10.0000000  0  8                     
G 2  21580433.344   113405923.061        -481.284          43.000  
G 5  21580206.705   113404711.434        -481.429          45.000  
G 3  21580434.295   113405907.237        -481.348          46.000  
G 6  21580209.409   113404740.435        -481.591          36.000  
G 9  21534721.947   113165687.992        -481.406          32.000  
G 4  21580437.987   113405952.617        -481.395          44.000  
G 1  21580441.154   113405976.956        -481.335          41.000  
G24  21623812.692   113633870.748        -481.848          29.000  
> 2019  6 16  1  1 11.0000000  0  8                     
G 2  21580525.036   113406404.375        -481.307          43.000  
G 5  21580298.407   113405192.737        -481.282          45.000  
G 3  21580525.957   113406388.545        -481.222          45.000  
G 6  21580301.115   113405221.743        -481.342          36.000  
G 9  21534813.673   113166169.312        -481.711          33.000  
G 4  21580529.652   113406433.923        -481.278          44.000  
G 1  21580532.948   113406458.282        -481.404          42.000  
G24  21623904.516   113634352.031        -480.758          30.000  
> 2019  6 16  1  1 12.0000000  0  8                     
G 2  21580616.621   113406885.619        -481.179          43.000  
G 5  21580390.075   113405673.973        -481.122          45.000  
G 3  21580617.500   113406869.784        -481.115          45.000  
G 6  21580392.910   113405702.984        -481.116          36.000  
G 9  21534905.398   113166650.557        -481.337          33.000  
G 4  21580621.221   113406915.156        -481.095          44.000  
G 1  21580624.685   113406939.516        -481.216          42.000  
G24  21623996.211   113634833.290        -481.254          30.000  
> 2019  6 16  1  1 13.0000000  0  8                     
G 2  21580708.251   113407366.859        -481.300          43.000  
G 5  21580481.637   113406155.211        -481.160          45.000  
G 3  21580709.044   113407351.021        -481.219          45.000  
G 6  21580484.683   113406184.221        -481.276          36.000  
G 9  21534997.070   113167131.798        -481.602          33.000  
G 4  21580712.882   113407396.398        -481.213          44.000  
G 1  21580716.513   113407420.753        -481.300          42.000  
G24  21624087.922   113635314.544        -482.467          30.000  
> 2019  6 16  1  1 14.0000000  0  8                     
G 2  21580799.873   113407847.986        -481.263          43.000  
G 5  21580573.291   113406636.355        -481.229          45.000  
G 3  21580800.700   113407832.137        -481.056          45.000  
G 6  21580576.319   113406665.358        -481.418          35.000  
G 9  21535088.798   113167612.932        -481.569          33.000  
G 4  21580804.566   113407877.525        -481.125          44.000  
G 1  21580808.211   113407901.888        -481.428          42.000  
G24  21624179.477   113635795.631        -481.378          30.000  
> 2019  6 16  1  1 15.0000000  0  8                     
G 2  21580891.550   113408329.251        -481.176          43.000  
G 5  21580664.993   113407117.613        -481.177          45.000  
G 3  21580892.353   113408313.406        -481.027          46.000  
G 6  21580668.103   113407146.615        -481.287          36.000  
G 9  21535180.484   113168094.182        -481.320          32.000  
G 4  21580896.291   113408358.784        -481.063          44.000  
G 1  21580899.873   113408383.146        -481.266          41.000  
G24  21624271.328   113636276.949        -482.187          30.000  
> 2019  6 16  1  1 16.0000000  0  8                     
G 2  21580983.322   113408810.540        -481.385          43.000  
G 5  21580756.648   113407598.896        -481.351          45.000  
G 3  21580984.144   113408794.698        -481.256          45.000  
G 6  21580759.786   113407627.917        -481.409          37.000  
G 9  21535272.210   113168575.482        -481.910          32.000  
G 4  21580987.990   113408840.084        -481.324          44.000  
G 1  21580991.454   113408875.4343       -481.438          41.000  
G24  21624363.051   113636758.223        -481.957          30.000  
> 2019  6 16  1  1 17.0000000  0  8                     
G 2  21581075.063   113409291.823        -481.328          43.000  
G 5  21580848.285   113408080.192        -481.277          45.000  
G 3  21581075.933   113409275.986        -481.232          45.000  
G 6  21580851.536   113408109.198        -481.046          36.000  
G 9  21535363.840   113169056.768        -481.558          32.000  
G 4  21581079.658   113409321.371        -481.256          44.000  
G 1  21581083.120   113409356.7203       -481.271          41.000  
G24  21624454.923   113637239.539        -482.524          30.000  
> 2019  6 16  1  1 18.0000000  0  8                     
G 2  21581166.780   113409773.117        -481.346          43.000  
G 5  21580940.071   113408561.480        -481.356          45.000  
G 3  21581167.592   113409757.286        -481.255          45.000  
G 6  21580943.162   113408590.489        -481.235          36.000  
G 9  21535455.500   113169538.081        -482.050          33.000  
G 4  21581171.508   113409802.664        -481.401          44.000  
G 1  21581174.785   113409838.0232       -481.514          41.000  
G24  21624546.533   113637720.761        -480.300          30.000  
> 2019  6 16  1  1 19.0000000  0  8                     
G 2  21581258.418   113410254.506        -481.334          43.000  
G 5  21581031.713   113409042.870        -481.229          45.000  
G 3  21581259.251   113410238.679        -481.329          46.000  
G 6  21581034.939   113409071.880        -481.130          36.000  
G 9  21535547.192   113170019.475        -482.008          33.000  
G 4  21581263.309   113410284.047        -481.302          44.000  
G 1  21581266.532   113410319.399        -481.233          41.000  
G24  21624638.359   113638202.190        -482.230          30.000  
> 2019  6 16  1  1 20.0000000  0  8                     
G 2  21581350.223   113410735.906        -481.392          43.000  
G 5  21581123.431   113409524.255        -481.392          45.000  
G 3  21581350.919   113410720.064        -481.368          45.000  
G 6  21581126.697   113409553.260        -481.198          36.000  
G 9  21535638.940   113170500.871        -482.064          33.000  
G 4  21581354.862   113410765.442        -481.504          44.000  
G 1  21581358.206   113410800.804        -481.598          41.000  
G24  21624730.073   113638683.536        -481.349          31.000  
> 2019  6 16  1  1 21.0000000  0  8                     
G 2  21581441.877   113411217.297        -481.383          43.000  
G 5  21581215.161   113410005.645        -481.346          45.000  
G 3  21581442.537   113411201.455        -481.333          46.000  
G 6  21581218.231   113410034.639        -481.117          36.000  
G 9  21535730.574   113170982.255        -481.742          33.000  
G 4  21581446.536   113411246.839        -481.475          44.000  
G 1  21581449.900   113411282.183        -481.350          41.000  
G24  21624821.749   113639164.965        -482.357          31.000  
> 2019  6 16  1  1 22.0000000  0  8                     
G 2  21581533.675   113411698.760        -481.427          43.000  
G 5  21581306.749   113410487.099        -481.422          45.000  
G 3  21581534.278   113411682.907        -481.482          46.000  
G 6  21581309.943   113410516.089        -480.903          36.000  
G 9  21535822.183   113171463.709        -482.069          32.000  
G 4  21581538.203   113411728.293        -481.461          45.000  
G 1  21581541.675   113411763.641        -481.471          42.000  
G24  21624913.771   113639646.374        -480.365          31.000  
> 2019  6 16  1  1 23.0000000  0  8                     
G 2  21581625.418   113412180.053        -481.174          43.000  
G 5  21581398.452   113410968.406        -481.071          45.000  
G 3  21581625.969   113412164.223        -481.232          45.000  
G 6  21581401.643   113410997.393        -480.676          36.000  
G 9  21535913.869   113171945.035        -482.158          32.000  
G 4  21581629.887   113412209.594        -481.167          44.000  
G 1  21581633.372   113412244.945        -481.201          41.000  
G24  21625005.367   113640127.693        -481.216          30.000  
> 2019  6 16  1  1 24.0000000  0  8                     
G 2  21581717.184   113412661.378        -481.316          43.000  
G 5  21581490.189   113411449.730        -481.349          45.000  
G 3  21581717.694   113412645.539        -481.392          45.000  
G 6  21581493.434   113411478.727        -481.085          36.000  
G 9  21536005.473   113172426.346        -481.897          33.000  
G 4  21581721.718   113412690.917        -481.370          44.000  
G 1  21581724.922   113412726.270        -481.405          41.000  
G24  21625096.822   113640609.012        -481.434          30.000  
> 2019  6 16  1  1 25.0000000  0  8                     
G 2  21581808.865   113413142.638        -481.255          43.000  
G 5  21581581.847   113411930.995        -481.254          45.000  
G 3  21581809.400   113413126.812        -481.377          45.000  
G 6  21581585.111   113411959.976        -480.863          36.000  
G 9  21536097.069   113172907.581        -481.490          32.000  
G 4  21581813.425   113413172.180        -481.211          45.000  
G 1  21581816.575   113413207.532        -481.245          41.000  
G24  21625188.542   113641090.335        -482.273          30.000  
> 2019  6 16  1  1 26.0000000  0  8                     
G 2  21581900.598   113413624.035        -481.457          43.000  
G 5  21581673.593   113412412.390        -481.431          45.000  
G 3  21581901.112   113413608.211        -481.515          46.000  
G 6  21581676.731   113412441.376        -481.193          36.000  
G 9  21536188.746   113173388.996        -481.589          32.000  
G 4  21581905.122   113413653.578        -481.522          45.000  
G 1  21581908.228   113413688.934        -481.500          41.000  
G24  21625280.147   113641571.652        -481.036          30.000  
> 2019  6 16  1  1 27.0000000  0  8                     
G 2  21581992.203   113414105.595        -481.531          43.000  
G 5  21581765.400   113412893.957        -481.525          45.000  
G 3  21581992.826   113414089.764        -481.547          45.000  
G 6  21581768.317   113412922.932        -481.334          36.000  
G 9  21536280.444   113173870.560        -481.752          32.000  
G 4  21581996.839   113414135.142        -481.592          45.000  
G 1  21582000.028   113414170.491        -481.576          41.000  
G24  21625371.793                        -483.496          30.000  
> 2019  6 16  1  1 28.0000000  0  8                     
G 2  21582083.881   113414587.038        -481.158          43.000  
G 5  21581857.165   113413375.393        -481.133          45.000  
G 3  21582084.430   113414571.212        -481.265          45.000  
G 6  21581859.920   113413404.379        -481.166          36.000  
G 9  21536372.133   113174351.998        -481.268          33.000  
G 4  21582088.405   113414616.588        -481.278          45.000  
G 1  21582091.733   113414651.931        -481.086          41.000  
G24  21625463.393   113642576.7363       -481.597          29.000  
> 2019  6 16  1  1 29.0000000  0  8                     
G 2  21582175.518   113415068.458        -481.184          43.000  
G 5  21581948.900   113413856.815        -481.172          45.000  
G 3  21582176.101   113415052.630        -481.211          45.000  
G 6  21581951.552   113413885.802        -481.147          36.000  
G 9  21536463.833   113174833.404        -481.061          33.000  
G 4  21582180.134   113415098.011        -481.250          44.000  
G 1  21582183.606   113415133.355        -481.217          41.000  
G24  21625555.124   113643058.1342       -482.101          30.000  
> 2019  6 16  1  1 30.0000000  0  8                     
G 2  21582267.234   113415549.761        -481.339          43.000  
G 5  21582040.636   113414338.122        -481.361          45.000  
G 3  21582267.845   113415533.932        -481.372          45.000  
G 6  21582043.118   113414367.099        -481.272          36.000  
G 9  21536555.603   113175314.729        -481.639          32.000  
G 4  21582271.837   113415579.313        -481.412          44.000  
G 1  21582275.376   113415614.654        -481.295          41.000  
G24  21625646.776   113643539.3752       -481.044          30.000  
> 2019  6 16  1  1 31.0000000  0  8                     
G 2  21582358.977   113416031.014        -481.149          43.000  
G 5  21582132.234   113414819.367        -481.135          45.000  
G 3  21582359.501   113416015.182        -481.045          45.000  
G 6  21582134.825   113414848.351        -480.878          36.000  
G 9  21536647.306   113175795.970        -481.289          32.000  
G 4  21582363.572   113416060.567        -481.259          45.000  
G 1  21582366.952   113416095.909        -481.078          41.000  
G24  21625738.570   113644020.618        -480.113          30.000  
> 2019  6 16  1  1 32.0000000  0  8                     
G 2  21582450.750   113416512.395        -481.512          43.000  
G 5  21582223.887   113415300.749        -481.499          45.000  
G 3  21582451.212   113416496.566        -481.611          45.000  
G 6  21582226.615   113415329.718        -481.013          36.000  
G 9  21536738.980   113176277.333        -481.281          32.000  
G 4  21582455.406   113416541.946        -481.594          45.000  
G 1  21582458.633   113416577.288        -481.465          41.000  
G24  21625830.466   113644502.058        -481.613          31.000  
> 2019  6 16  1  1 33.0000000  0  8                     
G 2  21582542.489   113416993.749        -481.311          43.000  
G 5  21582315.557   113415782.101        -481.185          45.000  
G 3  21582542.929   113416977.913        -481.282          45.000  
G 6  21582318.316   113415811.084        -480.913          36.000  
G 9  21536830.768   113176758.696        -481.184          33.000  
G 4  21582547.218   113417023.289        -481.300          45.000  
G 1  21582550.256   113417058.633        -481.124          42.000  
G24  21625922.293   113644983.371        -481.164          31.000  
> 2019  6 16  1  1 34.0000000  0  8                     
G 2  21582634.153   113417475.170        -481.549          43.000  
G 5  21582407.223   113416263.516        -481.487          45.000  
G 3  21582634.715   113417459.344        -481.575          45.000  
G 6  21582410.124   113416292.477        -481.017          36.000  
G 9  21536922.356   113177240.110        -481.589          32.000  
G 4  21582638.838   113417504.713        -481.610          45.000  
G 1  21582642.036   113417540.061        -481.366          42.000  
G24  21626013.919   113645464.791        -481.390          31.000  
> 2019  6 16  1  1 35.0000000  0  8                     
G 2  21582725.748   113417956.687        -481.510          43.000  
G 5  21582499.034   113416745.035        -481.429          45.000  
G 3  21582726.382   113417940.848        -481.423          45.000  
G 6  21582501.822   113416774.010        -481.161          36.000  
G 9  21537014.028   113177721.627        -481.464          32.000  
G 4  21582730.519   113417986.220        -481.442          45.000  
G 1  21582733.903   113418021.569        -481.422          41.000  
G24  21626105.666   113645946.271        -480.756          31.000  
> 2019  6 16  1  1 36.0000000  0  8                     
G 2  21582817.415   113418438.099        -481.449          43.000  
G 5  21582590.763   113417226.443        -481.425          45.000  
G 3  21582818.033   113418422.265        -481.445          45.000  
G 6  21582593.687   113417255.441        -481.215          36.000  
G 9  21537105.708   113178203.043        -481.331          32.000  
G 4  21582822.113   113418467.629        -481.368          44.000  
G 1  21582825.494   113418502.985        -481.415          41.000  
G24  21626197.138   113646427.659        -480.469          31.000  
> 2019  6 16  1  1 37.0000000  0  8                     
G 2  21582909.090   113418919.522        -481.461          43.000  
G 5  21582682.408   113417707.878        -481.503          45.000  
G 3  21582909.697   113418903.699        -481.432          45.000  
G 6  21582685.439   113417736.878        -481.473          36.000  
G 9  21537197.477   113178684.450        -481.118          32.000  
G 4  21582913.665   113418949.061        -481.523          44.000  
G 1  21582917.304   113418984.411        -481.311          41.000  
G24  21626288.850   113646909.162        -481.841          30.000  
> 2019  6 16  1  1 38.0000000  0  8                     
G 2  21583000.831   113419400.958        -481.615          43.000  
G 5  21582774.106   113418189.307        -481.561          45.000  
G 3  21583001.459   113419385.111        -481.633          45.000  
G 6  21582777.083   113418218.280        -481.383          36.000  
G 9  21537289.112   113179165.903        -481.389          32.000  
G 4  21583005.238   113419430.490        -481.604          45.000  
G 1  21583008.872   113419465.839        -481.514          41.000  
G24  21626380.429   113647390.539        -481.242          31.000  
> 2019  6 16  1  1 39.0000000  0  8                     
G 2  21583092.455   113419882.434        -481.477          43.000  
G 5  21582865.729   113418670.788        -481.438          45.000  
G 3  21583093.192   113419866.591        -481.428          45.000  
G 6  21582868.623   113418699.757        -481.266          36.000  
G 9  21537380.694   113179647.373        -481.519          32.000  
G 4  21583097.185   113419911.976        -481.519          45.000  
G 1  21583100.610   113419947.317        -481.361          41.000  
G24  21626472.395   113647872.058        -481.011          32.000  
> 2019  6 16  1  1 40.0000000  0  8                     
G 2  21583184.173   113420363.875        -481.268          43.000  
G 5  21582957.420   113419152.239        -481.382          45.000  
G 3  21583184.958   113420348.048        -481.431          45.000  
G 6  21582960.110   113419181.198        -481.165          36.000  
G 9  21537472.463   113180128.829        -481.108          32.000  
G 4  21583188.988   113420393.430        -481.379          44.000  
G 1  21583192.410   113420428.770        -481.340          42.000  
G24  21626564.020   113648353.477        -481.423          31.000  
> 2019  6 16  1  1 41.0000000  0  8                     
G 2  21583275.783   113420845.267        -481.379          43.000  
G 5  21583049.169   113419633.614        -481.210          45.000  
G 3  21583276.746   113420829.429        -481.340          45.000  
G 6  21583051.768   113419662.585        -480.946          36.000  
G 9  21537564.137   113180610.205        -481.223          33.000  
G 4  21583280.784   113420874.813        -481.327          44.000  
G 1  21583284.146   113420910.144        -481.187          42.000  
G24  21626655.568   113648834.937        -481.775          30.000  
> 2019  6 16  1  1 42.0000000  0  8                     
G 2  21583367.431   113421326.646        -481.512          43.000  
G 5  21583140.897   113420115.011        -481.453          45.000  
G 3  21583368.506   113421310.822        -481.569          45.000  
G 6  21583143.436   113420143.985        -481.260          36.000  
G 9  21537655.823   113181091.598        -481.139          33.000  
G 4  21583372.498   113421356.198        -481.514          44.000  
G 1  21583375.765   113421391.545        -481.443          42.000  
G24  21626747.396   113649316.312        -482.879          30.000  
> 2019  6 16  1  1 43.0000000  0  8                     
G 2  21583459.053   113421808.102        -481.748          43.000  
G 5  21583232.690   113420596.457        -481.757          45.000  
G 3  21583460.318   113421792.261        -481.788          45.000  
G 6  21583235.121   113420625.451        -481.879          36.000  
G 9  21537747.480   113181573.030        -481.338          33.000  
G 4  21583464.083   113421837.650        -481.781          44.000  
G 1  21583467.502   113421872.996        -481.877          42.000  
G24  21626838.797   113649797.7222       -481.562          31.000  
> 2019  6 16  1  1 44.0000000  0  8                     
G 2  21583550.792   113422289.526        -481.511          43.000  
G 5  21583324.398   113421077.879        -481.498          45.000  
G 3  21583551.962   113422273.682        -481.541          45.000  
G 6  21583326.896   113421106.862        -481.809          36.000  
G 9  21537839.197   113182054.450        -480.978          32.000  
G 4  21583555.707   113422319.066        -481.388          44.000  
G 1  21583559.122   113422354.422        -481.617          41.000  
G24  21626930.639   113650279.1552       -481.901          31.000  
> 2019  6 16  1  1 45.0000000  0  8                     
G 2  21583642.613   113422770.954        -481.531          43.000  
G 5  21583416.003   113421559.299        -481.473          45.000  
G 3  21583643.589   113422755.116        -481.527          45.000  
G 6  21583418.614   113421588.301        -481.901          36.000  
G 9  21537930.849   113182535.856        -480.883          33.000  
G 4  21583647.284   113422800.487        -481.381          44.000  
G 1  21583650.876   113422835.835        -481.515          41.000  
G24  21627022.512   113650760.6232       -481.626          31.000  
> 2019  6 16  1  1 46.0000000  0  8                     
G 2  21583734.403   113423252.371        -481.407          43.000  
G 5  21583507.652   113422040.729        -481.536          45.000  
G 3  21583735.278   113423236.536        -481.521          45.000  
G 6  21583510.523   113422069.719        -481.772          37.000  
G 9  21538022.556   113183017.266        -480.561          32.000  
G 4  21583739.105   113423281.907        -481.300          44.000  
G 1  21583742.661   113423317.263        -481.498          42.000  
G24  21627114.272   113651242.0552       -483.019          30.000  
> 2019  6 16  1  1 47.0000000  0  8                     
G 2  21583826.206   113423733.861        -481.632          43.000  
G 5  21583599.307   113422522.212        -481.823          45.000  
G 3  21583826.964   113423718.015        -481.683          45.000  
G 6  21583602.309   113422551.205        -482.001          37.000  
G 9  21538114.191   113183498.757        -480.903          32.000  
G 4  21583830.907   113423763.393        -481.639          44.000  
G 1  21583834.361   113423798.749        -481.709          42.000  
G24  21627206.311   113651723.5362       -482.189          31.000  
> 2019  6 16  1  1 48.0000000  0  8                     
G 2  21583918.003   113424215.381        -481.569          43.000  
G 5  21583691.022   113423003.731        -481.676          45.000  
G 3  21583918.722   113424199.531        -481.600          45.000  
G 6  21583694.076   113423032.724        -481.819          36.000  
G 9  21538205.895   113183980.287        -480.742          32.000  
G 4  21583922.631   113424244.923        -481.569          44.000  
G 1  21583926.036   113424280.274        -481.650          42.000  
G24  21627297.936   113652205.0292       -481.715          30.000  
> 2019  6 16  1  1 49.0000000  0  8                     
G 2  21584009.656   113424696.948        -481.501          43.000  
G 5  21583782.849   113423485.297        -481.598          45.000  
G 3  21584010.428   113424681.112        -481.581          45.000  
G 6  21583785.656   113423514.296        -482.172          36.000  
G 9  21538297.542   113184461.861        -480.936          33.000  
G 4  21584014.428   113424726.487        -481.438          44.000  
G 1  21584017.666   113424761.841        -481.650          41.000  
G24  21627389.769   113652686.631        -482.243          30.000  
> 2019  6 16  1  1 50.0000000  0  8                     
G 2  21584101.400   113425178.489        -481.559          43.000  
G 5  21583874.605   113423966.830        -481.525          45.000  
G 3  21584102.080   113425162.651        -481.510          45.000  
G 6  21583877.453   113423995.844        -481.722          36.000  
G 9  21538389.124   113184943.405        -481.426          33.000  
G 4  21584106.038   113425208.016        -481.517          44.000  
G 1  21584109.477   113425243.369        -481.656          41.000  
G24  21627481.440   113653168.148        -482.842          31.000  
> 2019  6 16  1  1 51.0000000  0  8                     
G 2  21584193.057   113425660.100        -481.510          43.000  
G 5  21583966.260   113424448.450        -481.464          45.000  
G 3  21584193.781   113425644.268        -481.482          45.000  
G 6  21583969.252   113424477.459        -481.860          36.000  
G 9  21538480.846   113185425.020        -481.162          32.000  
G 4  21584197.698   113425689.628        -481.460          44.000  
G 1  21584201.276   113425724.994        -481.581          41.000  
G24  21627572.957   113653649.695        -480.510          30.000  
> 2019  6 16  1  1 52.0000000  0  8                     
G 2  21584284.857   113426141.691        -481.775          43.000  
G 5  21584058.106   113424930.060        -481.971          45.000  
G 3  21584285.464   113426125.858        -481.809          45.000  
G 6  21584060.990   113424959.042        -482.030          36.000  
G 9  21538572.627   113185906.580        -481.307          32.000  
G 4  21584289.407   113426171.217        -481.561          45.000  
G 1  21584293.053   113426206.576        -481.737          41.000  
G24  21627664.887                        -486.914          31.000  
> 2019  6 16  1  1 53.0000000  0  8                     
G 2  21584376.619   113426623.261        -481.581          43.000  
G 5  21584149.902   113425411.624        -481.666          45.000  
G 3  21584377.164   113426607.430        -481.638          45.000  
G 6  21584152.707   113425440.622        -482.023          36.000  
G 9  21538664.353   113186444.1993       -481.752          33.000  
G 4  21584381.184   113426687.8013       -481.575          45.000  
G 1  21584384.800   113426688.156        -481.669          41.000  
G24  21627756.819   113654628.3143       -479.980          31.000  
> 2019  6 16  1  1 54.0000000  0  8                     
G 2  21584468.302   113427104.739        -481.393          43.000  
G 5  21584241.599   113425893.098        -481.473          45.000  
G 3  21584468.831   113427088.904        -481.493          45.000  
G 6  21584244.340   113425922.098        -481.516          36.000  
G 9  21538756.022   113186925.6802       -481.813          32.000  
G 4  21584472.932   113427169.2772       -481.476          45.000  
G 1  21584476.447   113427169.624        -481.348          41.000  
G24  21627848.509   113655109.8722       -481.271          31.000  
> 2019  6 16  1  1 55.0000000  0  8                     
G 2  21584560.079   113427586.182        -481.503          43.000  
G 5  21584333.291   113426374.536        -481.427          45.000  
G 3  21584560.590   113427570.348        -481.476          45.000  
G 6  21584336.269   113426403.544        -481.725          36.000  
G 9  21538847.716   113187407.125        -481.848          33.000  
G 4  21584564.682   113427650.707        -481.416          44.000  
G 1  21584568.022   113427651.068        -481.390          42.000  
G24  21627940.327   113655590.7841       -480.735          30.000  
> 2019  6 16  1  1 56.0000000  0  8                     
G 2  21584651.728   113428067.654        -481.431          43.000  
G 5  21584425.029   113426856.008        -481.511          45.000  
G 3  21584652.325   113428051.820        -481.436          45.000  
G 6  21584428.102   113426885.027        -481.919          36.000  
G 9  21538939.503   113187888.590        -481.528          32.000  
G 4  21584656.351   113428132.184        -481.477          44.000  
G 1  21584659.595   113428132.545        -481.459          42.000  
G24  21628031.712   113656072.235        -481.022          29.000  
> 2019  6 16  1  1 57.0000000  0  8                     
G 2  21584743.325   113428549.132        -481.641          43.000  
G 5  21584516.771   113427337.488        -481.652          45.000  
G 3  21584744.165   113428533.295        -481.624          46.000  
G 6  21584519.846   113427366.488        -481.765          36.000  
G 9  21539031.225   113188370.075        -481.647          32.000  
G 4  21584748.032   113428613.678        -481.641          45.000  
G 1  21584751.441   113428614.025        -481.487          42.000  
G24  21628123.396   113656553.707        -480.508          30.000  
> 2019  6 16  1  1 58.0000000  0  8                     
G 2  21584835.025   113429030.650        -481.626          43.000  
G 5  21584608.396   113427818.998        -481.708          45.000  
G 3  21584835.852   113429014.810        -481.754          46.000  
G 6  21584611.482   113427848.003        -481.702          36.000  
G 9  21539122.884   113188851.567        -481.628          33.000  
G 4  21584839.800   113429095.184        -481.747          45.000  
G 1  21584843.299   113429095.537        -481.614          42.000  
G24  21628215.383   113657035.267        -480.844          31.000  
> 2019  6 16  1  1 59.0000000  0  8                     
G 2  21584926.706   113429512.291        -481.812          43.000  
G 5  21584700.101   113428300.642        -481.812          46.000  
G 3  21584927.629   113429496.456        -481.816          46.000  
G 6  21584703.123   113428329.654        -481.952          36.000  
G 9  21539214.652   113189333.246        -482.035          32.000  
G 4  21584931.447   113429576.830        -481.859          44.000  
G 1  21584935.045   113429577.179        -481.764          42.000  
G24  21628307.113   113657516.856        -481.057          30.000  
> 2019  6 16  1  2  0.0000000  0  8                     
G 2  21585018.388   113429993.761        -481.282          43.000  
G 5  21584791.824   113428782.117        -481.296          45.000  
G 3  21585019.279   113429977.932        -481.342          46.000  
G 6  21584794.849   113428811.119        -481.296          35.000  
G 9  21539306.357   113189814.696        -481.443          32.000  
G 4  21585023.080   113430058.304        -481.417          45.000  
G 1  21585026.732   113430058.660        -481.411          42.000  
G24  21628398.675   113657998.337        -480.761          31.000  
> 2019  6 16  1  2  1.0000000  0  8                     
G 2  21585110.082   113430475.242        -481.509          43.000  
G 5  21584883.513   113429263.605        -481.501          45.000  
G 3  21585111.022   113430459.415        -481.565          45.000  
G 6  21584886.343   113429292.594        -481.453          35.000  
G 9  21539398.064   113190296.176        -481.442          32.000  
G 4  21585114.728   113430539.785        -481.653          45.000  
G 1  21585118.521   113430540.142        -481.521          42.000  
G24  21628490.105   113658479.819        -481.088          30.000  
> 2019  6 16  1  2  2.0000000  0  8                     
G 2  21585201.992   113430956.777        -481.414          43.000  
G 5  21584975.291   113429745.139        -481.411          45.000  
G 3  21585202.822   113430940.955        -481.643          46.000  
G 6  21584978.023   113429774.138        -481.608          36.000  
G 9  21539489.814   113190777.720        -481.733          33.000  
G 4  21585206.512   113431021.316        -481.605          44.000  
G 1  21585210.222   113431021.673        -481.522          42.000  
G24  21628581.731   113658961.400        -481.208          29.000  
> 2019  6 16  1  2  3.0000000  0  8                     
G 2  21585293.781   113431438.325        -481.475          43.000  
G 5  21585067.022   113430226.697        -481.598          45.000  
G 3  21585294.601   113431422.503        -481.626          45.000  
G 6  21585069.745   113430255.703        -481.768          36.000  
G 9  21539581.587   113191259.256        -481.427          33.000  
G 4  21585298.256   113431502.873        -481.597          44.000  
G 1  21585301.801   113431503.228        -481.661          41.000  
G24  21628673.645   113659442.938        -481.259          30.000  
> 2019  6 16  1  2  4.0000000  0  8                     
G 2  21585385.440   113431919.848        -481.520          43.000  
G 5  21585158.693   113430708.214        -481.549          45.000  
G 3  21585386.301   113431904.023        -481.581          45.000  
G 6  21585161.483   113430737.228        -481.874          35.000  
G 9  21539673.400   113191740.784        -481.312          33.000  
G 4  21585390.030   113431984.395        -481.635          45.000  
G 1  21585393.419   113431984.751        -481.650          41.000  
G24  21628765.384   113659924.449        -481.848          30.000  
> 2019  6 16  1  2  5.0000000  0  8                     
G 2  21585477.059   113432401.341        -481.524          43.000  
G 5  21585250.476   113431189.691        -481.371          45.000  
G 3  21585478.060   113432385.507        -481.511          45.000  
G 6  21585253.078   113431218.672        -481.279          36.000  
G 9  21539765.067   113192222.265        -481.240          33.000  
G 4  21585481.879   113432465.890        -481.502          45.000  
G 1  21585485.208   113432466.234        -481.519          41.000  
G24  21628857.229   113660406.007        -482.495          31.000  
> 2019  6 16  1  2  6.0000000  0  8                     
G 2  21585568.690   113432882.644        -481.330          43.000  
G 5  21585342.202   113431671.012        -481.326          45.000  
G 3  21585569.652   113432866.832        -481.448          46.000  
G 6  21585344.845   113431700.025        -481.608          36.000  
G 9  21539856.756   113192703.588        -481.132          33.000  
G 4  21585573.593   113432947.207        -481.444          44.000  
G 1  21585576.940   113432947.556        -481.496          41.000  
G24  21628949.032   113660887.340        -482.534          31.000  
> 2019  6 16  1  2  7.0000000  0  8                     
G 2  21585660.344   113433363.992        -481.264          43.000  
G 5  21585433.869   113432152.355        -481.324          45.000  
G 3  21585661.242   113433348.164        -481.428          46.000  
G 6  21585436.541   113432181.359        -481.422          35.000  
G 9  21539948.460   113193184.922        -480.975          33.000  
G 4  21585665.109   113433428.542        -481.364          44.000  
G 1  21585668.704   113433428.896        -481.513          41.000  
G24  21629040.805   113661368.623        -482.030          31.000  
> 2019  6 16  1  2  8.0000000  0  8                     
G 2  21585752.054   113433845.315        -481.248          43.000  
G 5  21585525.435   113432633.691        -481.321          45.000  
G 3  21585752.945   113433829.498        -481.333          46.000  
G 6  21585528.213   113432662.692        -481.473          36.000  
G 9  21540040.263   113193666.239        -480.939          33.000  
G 4  21585756.799   113433909.882        -481.383          44.000  
G 1  21585760.453   113433910.239        -481.603          41.000  
G24  21629132.336   113661849.938        -481.191          30.000  
> 2019  6 16  1  2  9.0000000  0  8                     
G 2  21585843.680   113434326.688        -481.255          43.000  
G 5  21585617.119   113433115.061        -481.150          45.000  
G 3  21585844.642   113434310.864        -481.199          45.000  
G 6  21585619.919   113433144.040        -481.192          36.000  
G 9  21540131.982   113194147.633        -481.177          33.000  
G 4  21585848.476   113434391.237        -481.222          44.000  
G 1  21585852.240   113434391.588        -481.231          41.000  
G24  21629223.956   113662331.277        -481.089          30.000  
> 2019  6 16  1  2 10.0000000  0  8                     
G 2  21585935.448   113434808.021        -481.206          43.000  
G 5  21585708.778   113433596.380        -481.025          45.000  
G 3  21585936.314   113434792.196        -481.059          45.000  
G 6  21585711.806   113433625.388        -480.928          36.000  
G 9  21540223.755   113194628.962        -481.350          33.000  
G 4  21585940.334   113434872.572        -481.146          44.000  
G 1  21585943.865   113434872.922        -481.159          41.000  
G24  21629315.665   113662812.638        -481.046          29.000  
> 2019  6 16  1  2 11.0000000  0  8                     
G 2  21586027.169   113435289.317        -481.422          42.000  
G 5  21585800.569   113434077.668        -481.430          45.000  
G 3  21586028.128   113435273.492        -481.479          46.000  
G 6  21585803.739   113434106.685        -481.317          36.000  
G 9  21540315.526   113195110.253        -481.735          33.000  
G 4  21586032.088   113435353.865        -481.479          45.000  
G 1  21586035.347   113435354.195        -481.357          42.000  
G24  21629407.339   113663293.945        -481.271          29.000  
> 2019  6 16  1  2 12.0000000  0  8                     
G 2  21586118.762   113435770.636        -481.271          42.000  
G 5  21585892.306   113434558.993        -481.301          45.000  
G 3  21586119.914   113435754.814        -481.295          45.000  
G 6  21585895.526   113434587.984        -481.052          36.000  
G 9  21540407.245   113195591.589        -481.812          33.000  
G 4  21586123.808   113435835.177        -481.311          44.000  
G 1  21586126.930   113435835.526        -481.265          42.000  
G24  21629499.151   113663775.278        -481.319          29.000  
> 2019  6 16  1  2 13.0000000  0  8                     
G 2  21586210.427   113436251.963        -481.470          43.000  
G 5  21585984.037   113435040.327        -481.488          45.000  
G 3  21586211.708   113436236.140        -481.420          45.000  
G 6  21585987.288   113435069.324        -481.227          36.000  
G 9  21540498.966   113196072.921        -482.104          32.000  
G 4  21586215.409   113436316.506        -481.409          44.000  
G 1  21586218.637   113436316.862        -481.427          42.000  
G24  21629590.928   113664256.580        -480.908          30.000  
> 2019  6 16  1  2 14.0000000  0  8                     
G 2  21586302.043   113436733.302        -481.066          43.000  
G 5  21586075.681   113435521.668        -481.092          45.000  
G 3  21586303.328   113436717.483        -481.122          45.000  
G 6  21586079.126   113435550.695        -481.083          36.000  
G 9  21540590.744   113196554.277        -481.677          32.000  
G 4  21586307.075   113436797.850        -480.978          45.000  
G 1  21586310.342   113436798.197        -480.981          42.000  
G24  21629682.780   113664737.948        -480.583          30.000  
> 2019  6 16  1  2 15.0000000  0  8                     
G 2  21586393.803   113437214.508        -481.211          43.000  
G 5  21586167.398   113436002.875        -481.277          45.000  
G 3  21586394.972   113437198.686        -481.177          46.000  
G 6  21586170.835   113436031.882        -481.069          36.000  
G 9  21540682.386   113197035.475        -481.777          33.000  
G 4  21586398.776   113437279.053        -481.037          45.000  
G 1  21586402.118   113437279.403        -481.138          42.000  
G24  21629774.390   113665219.148        -481.181          30.000  
> 2019  6 16  1  2 16.0000000  0  8                     
G 2  21586485.520   113437695.724        -481.294          43.000  
G 5  21586259.024   113436484.084        -481.430          45.000  
G 3  21586486.571   113437679.891        -481.383          45.000  
G 6  21586262.271   113436513.071        -481.262          36.000  
G 9  21540774.047   113197516.682        -482.241          32.000  
G 4  21586490.529   113437760.258        -481.203          44.000  
G 1  21586493.878   113437760.612        -481.229          42.000  
G24  21629866.600   113665700.340        -480.153          31.000  
> 2019  6 16  1  2 17.0000000  0  8                     
G 2  21586577.124   113438176.969        -481.293          42.000  
G 5  21586350.664   113436965.330        -481.328          45.000  
G 3  21586578.350   113438161.144        -481.278          45.000  
G 6  21586354.037   113436994.318        -480.617          36.000  
G 9  21540865.755   113197997.937        -481.727          33.000  
G 4  21586582.310   113438241.512        -481.212          44.000  
G 1  21586585.558   113438241.860        -481.160          42.000  
G24  21629958.385   113666181.615        -481.119          30.000  
> 2019  6 16  1  2 18.0000000  0  8                     
G 2  21586668.766   113438658.277        -481.525          42.000  
G 5  21586442.385   113437446.637        -481.486          45.000  
G 3  21586670.083   113438642.451        -481.466          46.000  
G 6  21586445.793   113437475.623        -480.962          36.000  
G 9  21540957.524   113198479.230        -481.986          33.000  
G 4  21586674.096   113438722.814        -481.426          44.000  
G 1  21586677.125   113438723.166        -481.309          42.000  
G24  21630050.087   113666662.909        -481.610          30.000  
> 2019  6 16  1  2 19.0000000  0  8                     
G 2  21586760.353   113439139.572        -481.374          42.000  
G 5  21586534.053   113437927.921        -481.242          45.000  
G 3  21586761.744   113439123.739        -481.277          46.000  
G 6  21586537.482   113437956.912        -480.879          36.000  
G 9  21541049.126   113198960.534        -481.705          33.000  
G 4  21586765.759   113439204.107        -481.207          44.000  
G 1  21586768.895   113439204.457        -481.136          42.000  
G24  21630141.753   113667144.299        -483.193          30.000  
> 2019  6 16  1  2 20.0000000  0  8                     
G 2  21586852.045   113439620.860        -481.418          42.000  
G 5  21586625.717   113438409.217        -481.266          45.000  
G 3  21586853.364   113439605.030        -481.230          46.000  
G 6  21586629.102   113438438.208        -480.621          36.000  
G 9  21541140.783   113199441.825        -481.628          33.000  
G 4  21586857.460   113439685.398        -481.208          45.000  
G 1  21586860.552   113439685.745        -481.137          42.000  
G24  21630233.458   113667625.502        -481.308          30.000  
> 2019  6 16  1  2 21.0000000  0  8                     
G 2  21586943.644   113440102.114        -481.484          42.000  
G 5  21586717.390   113438890.470        -481.399          45.000  
G 3  21586945.053   113440086.290        -481.384          46.000  
G 6  21586720.880   113438919.453        -480.839          36.000  
G 9  21541232.370   113199923.099        -481.982          33.000  
G 4  21586949.101   113440166.653        -481.392          45.000  
G 1  21586952.368   113440167.004        -481.249          42.000  
G24  21630324.857   113668106.738        -481.320          30.000  
> 2019  6 16  1  2 22.0000000  0  8                     
G 2  21587035.236   113440583.368        -481.328          42.000  
G 5  21586809.069   113439371.720        -481.243          45.000  
G 3  21587036.748   113440567.541        -481.193          46.000  
G 6  21586812.412   113439400.700        -480.802          35.000  
G 9  21541324.028   113200404.355        -482.034          33.000  
G 4  21587040.601   113440647.903        -481.149          44.000  
G 1  21587043.931   113440648.247        -481.178          42.000  
G24  21630416.272   113668588.021        -481.879          30.000  
> 2019  6 16  1  2 23.0000000  0  8                     
G 2  21587126.895   113441064.546        -481.116          42.000  
G 5  21586900.690   113439852.913        -481.117          45.000  
G 3  21587128.452   113441048.727        -481.029          46.000  
G 6  21586904.022   113439881.895        -480.953          36.000  
G 9  21541415.753   113200885.516        -481.245          32.000  
G 4  21587132.190   113441129.089        -481.100          44.000  
G 1  21587135.689   113441129.450        -481.146          42.000  
G24  21630507.909   113669069.197        -481.498          30.000  
> 2019  6 16  1  2 24.0000000  0  8                     
G 2  21587218.571   113441545.698        -481.316          42.000  
G 5  21586992.342   113440334.056        -481.233          45.000  
G 3  21587220.112   113441529.857        -481.061          46.000  
G 6  21586995.679   113440363.061        -481.225          36.000  
G 9  21541507.282   113201366.659        -481.237          32.000  
G 4  21587223.955   113441610.236        -481.233          44.000  
G 1  21587227.341   113441610.587        -481.190          42.000  
G24  21630599.242   113669550.290        -481.331          30.000  
> 2019  6 16  1  2 25.0000000  0  8                     
G 2  21587310.320   113442026.836        -481.114          42.000  
G 5  21587084.003   113440815.198        -481.220          45.000  
G 3  21587311.846   113442011.008        -481.008          46.000  
G 6  21587087.443   113440844.203        -481.355          36.000  
G 9  21541598.822   113201847.771        -480.736          33.000  
G 4  21587315.650   113442091.381        -481.215          44.000  
G 1  21587319.019   113442091.740        -481.354          42.000  
G24  21630691.014   113670031.440        -480.713          30.000  
> 2019  6 16  1  2 26.0000000  0  8                     
G 2  21587402.001   113442507.929        -481.059          42.000  
G 5  21587175.645   113441296.295        -481.100          45.000  
G 3  21587403.508   113442492.099        -480.877          46.000  
G 6  21587178.964   113441325.293        -481.120          36.000  
G 9  21541690.546   113202328.848        -480.175          33.000  
G 4  21587407.299   113442572.474        -481.135          44.000  
G 1  21587410.584   113442572.832        -481.153          42.000  
G24  21630782.543   113670512.576        -481.401          30.000  
> 2019  6 16  1  2 27.0000000  0  8                     
G 2  21587493.675   113442989.063        -481.173          42.000  
G 5  21587267.355   113441777.418        -481.238          45.000  
G 3  21587495.215   113442973.227        -481.103          46.000  
G 6  21587270.578   113441806.424        -481.324          35.000  
G 9  21541782.206   113202809.973        -480.272          33.000  
G 4  21587499.052   113443053.604        -481.286          44.000  
G 1  21587502.324   113443053.961        -481.400          42.000  
G24  21630873.988   113670993.684        -481.298          30.000  
> 2019  6 16  1  2 28.0000000  0  8                     
G 2  21587585.243   113443470.262        -481.035          42.000  
G 5  21587359.112   113442258.621        -481.114          45.000  
G 3  21587586.855   113443454.425        -480.957          46.000  
G 6  21587362.326   113442287.628        -481.260          35.000  
G 9  21541873.797   113203291.197        -480.620          32.000  
G 4  21587590.601   113443534.801        -481.155          44.000  
G 1  21587593.972   113443535.161        -481.286          42.000  
G24  21630965.403   113671474.892        -481.406          30.000  
> 2019  6 16  1  2 29.0000000  0  8                     
G 2  21587676.935   113443951.445        -481.127          42.000  
G 5  21587450.746   113442739.805        -481.180          45.000  
G 3  21587678.544   113443935.608        -481.032          46.000  
G 6  21587453.996   113442768.815        -481.287          36.000  
G 9  21541965.449   113203772.355        -480.228          32.000  
G 4  21587682.319   113444015.995        -481.268          44.000  
G 1  21587685.608   113444016.338        -481.326          42.000  
G24  21631056.826   113671956.062        -481.327          29.000  
> 2019  6 16  1  2 30.0000000  0  8                     
G 2  21587768.528   113444432.672        -481.062          42.000  
G 5  21587542.376   113443221.027        -481.193          45.000  
G 3  21587770.220   113444416.832        -481.051          46.000  
G 6  21587545.674   113443250.044        -481.282          36.000  
G 9  21542057.026   113204253.602        -480.922          33.000  
G 4  21587773.845   113444497.217        -481.207          45.000  
G 1  21587777.327   113444497.566        -481.254          42.000  
G24  21631148.676   113672437.356        -481.445          30.000  
> 2019  6 16  1  2 31.0000000  0  8                     
G 2  21587860.298   113444913.969        -481.442          43.000  
G 5  21587634.078   113443702.321        -481.373          46.000  
G 3  21587861.908   113444898.124        -481.251          46.000  
G 6  21587637.284   113443731.340        -481.668          36.000  
G 9  21542148.691   113204734.896        -481.272          33.000  
G 4  21587865.479   113444978.504        -481.434          44.000  
G 1  21587869.055   113444978.856        -481.467          42.000  
G24  21631240.593   113672918.634        -481.920          30.000  
> 2019  6 16  1  2 32.0000000  0  8                     
G 2  21587951.987   113445395.246        -480.966          43.000  
G 5  21587725.646   113444183.600        -481.056          46.000  
G 3  21587953.550   113445379.400        -480.947          46.000  
G 6  21587728.935   113444212.626        -481.430          35.000  
G 9  21542240.320   113205216.175        -480.851          33.000  
G 4  21587957.184   113445459.776        -480.944          45.000  
G 1  21587960.689   113445460.135        -481.108          42.000  
G24  21631332.423   113673399.917        -481.300          31.000  
> 2019  6 16  1  2 33.0000000  0  8                     
G 2  21588043.697   113445876.486        -481.263          43.000  
G 5  21587817.391   113444664.847        -481.439          45.000  
G 3  21588045.217   113445860.654        -481.296          46.000  
G 6  21587820.663   113444693.864        -481.670          36.000  
G 9  21542332.084   113205697.400        -480.891          32.000  
G 4  21588048.912   113445941.024        -481.262          45.000  
G 1  21588052.239   113445941.387        -481.547          42.000  
G24  21631424.156   113673881.111        -481.438          30.000  
> 2019  6 16  1  2 34.0000000  0  8                     
G 2  21588135.314   113446357.674        -481.150          43.000  
G 5  21587909.056   113445146.024        -481.152          46.000  
G 3  21588136.882   113446341.834        -481.089          46.000  
G 6  21587912.446   113445175.053        -481.394          36.000  
G 9  21542423.786   113206178.590        -480.836          33.000  
G 4  21588140.581   113446422.212        -481.212          44.000  
G 1  21588143.718   113446422.559        -481.329          42.000  
G24  21631515.727   113674362.324        -481.904          30.000  
> 2019  6 16  1  2 35.0000000  0  8                     
G 2  21588227.072   113446838.773        -481.038          43.000  
G 5  21588000.657   113445627.143        -481.172          45.000  
G 3  21588228.462   113446822.949        -481.073          46.000  
G 6  21588004.054   113445656.150        -481.384          36.000  
G 9  21542515.420   113206659.699        -480.852          33.000  
G 4  21588232.236   113446903.322        -481.109          45.000  
G 1  21588235.360   113446903.666        -481.128          42.000  
G24  21631607.443   113674843.504        -482.901          30.000  
> 2019  6 16  1  2 36.0000000  0  8                     
G 2  21588318.616   113447319.863        -481.031          43.000  
G 5  21588092.306   113446108.216        -481.151          45.000  
G 3  21588320.146   113447304.026        -481.126          46.000  
G 6  21588095.674   113446137.230        -481.200          36.000  
G 9  21542607.062   113207140.782        -480.720          32.000  
G 4  21588323.856   113447384.402        -481.078          45.000  
G 1  21588327.053   113447384.754        -481.231          42.000  
G24  21631699.031   113675324.541        -481.700          31.000  
> 2019  6 16  1  2 37.0000000  0  8                     
G 2  21588410.182   113447800.942        -481.094          43.000  
G 5  21588183.959   113446589.296        -481.190          46.000  
G 3  21588411.760   113447785.114        -481.202          46.000  
G 6  21588187.403   113446618.316        -481.196          36.000  
G 9  21542698.724   113207621.891        -480.912          32.000  
G 4  21588415.452   113447865.490        -481.163          45.000  
G 1  21588418.860   113447865.837        -481.160          42.000  
G24  21631790.764   113675805.634        -482.195          31.000  
> 2019  6 16  1  2 38.0000000  0  8                     
G 2  21588501.853   113448282.148        -481.190          42.000  
G 5  21588275.550   113447070.495        -481.213          46.000  
G 3  21588503.380   113448266.306        -481.258          47.000  
G 6  21588279.174   113447099.516        -481.150          36.000  
G 9  21542790.328   113208103.088        -481.490          33.000  
G 4  21588507.130   113448346.677        -481.142          45.000  
G 1  21588510.596   113448347.031        -481.186          42.000  
G24  21631882.415   113676286.817        -481.935          30.000  
> 2019  6 16  1  2 39.0000000  0  8                     
G 2  21588593.701   113448763.390        -481.474          42.000  
G 5  21588367.245   113447551.744        -481.548          46.000  
G 3  21588595.027   113448747.556        -481.636          46.000  
G 6  21588370.955   113447580.761        -481.480          36.000  
G 9  21542881.882   113208584.343        -481.837          32.000  
G 4  21588598.865   113448827.923        -481.495          45.000  
G 1  21588602.210   113448828.285        -481.706          42.000  
G24  21631973.756   113676768.092        -482.234          29.000  
> 2019  6 16  1  2 40.0000000  0  8                     
G 2  21588685.504   113449244.650        -481.327          42.000  
G 5  21588458.896   113448032.999        -481.342          47.000  
G 3  21588686.690   113449228.807        -481.360          47.000  
G 6  21588462.674   113448062.023        -481.338          36.000  
G 9  21542973.574   113209065.600        -481.479          32.000  
G 4  21588690.470   113449309.183        -481.323          45.000  
G 1  21588693.652   113449309.528        -481.325          42.000  
G24  21632065.256   113677249.352        -482.338          29.000  
> 2019  6 16  1  2 41.0000000  0  8                     
G 2  21588777.320   113449725.948        -481.338          43.000  
G 5  21588550.666   113448514.292        -481.381          46.000  
G 3  21588778.320   113449710.091        -481.318          47.000  
G 6  21588554.219   113448543.296        -481.309          36.000  
G 9  21543065.383   113209546.878        -481.464          32.000  
G 4  21588782.142   113449790.477        -481.348          45.000  
G 1  21588785.164   113449790.810        -481.281          42.000  
G24  21632157.058   113677730.673        -482.555          30.000  
> 2019  6 16  1  2 42.0000000  0  8                     
G 2  21588869.115   113450207.256        -481.192          43.000  
G 5  21588642.365   113448995.604        -481.347          46.000  
G 3  21588870.005   113450191.413        -481.404          47.000  
G 6  21588645.824   113449024.627        -481.459          36.000  
G 9  21543157.019   113210028.212        -481.486          32.000  
G 4  21588873.784   113450271.789        -481.368          45.000  
G 1  21588876.756   113450272.139        -481.362          42.000  
G24  21632248.600   113678211.945        -482.536          30.000  
> 2019  6 16  1  2 43.0000000  0  8                     
G 2  21588960.738   113450688.548        -481.234          43.000  
G 5  21588734.068   113449476.904        -481.408          46.000  
G 3  21588961.613   113450672.707        -481.503          46.000  
G 6  21588737.531   113449505.915        -481.277          36.000  
G 9  21543248.697   113210509.470        -481.049          33.000  
G 4  21588965.601   113450753.085        -481.314          46.000  
G 1  21588968.383   113450753.419        -481.181          42.000  
G24  21632340.476   113678693.253        -482.017          31.000  
> 2019  6 16  1  2 44.0000000  0  8                     
G 2  21589052.359   113451169.888        -481.274          43.000  
G 5  21588825.745   113449958.244        -481.321          46.000  
G 3  21589053.315   113451154.056        -481.433          47.000  
G 6  21588829.285   113449987.262        -481.373          35.000  
G 9  21543340.488   113210990.834        -481.016          32.000  
G 4  21589057.287   113451234.436        -481.338          45.000  
G 1  21589059.965   113451234.771        -481.300          41.000  
G24  21632431.999   113679174.574        -481.807          30.000  
> 2019  6 16  1  2 45.0000000  0  8                     
G 2  21589143.998   113451651.332        -481.363          43.000  
G 5  21588917.470   113450439.690        -481.541          46.000  
G 3  21589144.988   113451635.495        -481.539          47.000  
G 6  21588920.917   113450468.687        -481.330          35.000  
G 9  21543432.200   113211472.263        -481.221          33.000  
G 4  21589148.994   113451715.872        -481.455          45.000  
G 1  21589151.615   113451716.208        -481.344          42.000  
G24  21632523.822   113679656.005        -481.150          31.000  
> 2019  6 16  1  2 46.0000000  0  8                     
G 2  21589235.725   113452132.760        -481.422          43.000  
G 5  21589009.112   113450921.100        -481.503          46.000  
G 3  21589236.683   113452116.923        -481.627          47.000  
G 6  21589012.641   113450950.118        -481.435          36.000  
G 9  21543523.889   113211953.668        -480.640          33.000  
G 4  21589240.739   113452197.300        -481.521          45.000  
G 1  21589243.375   113452197.648        -481.542          42.000  
G24  21632615.565   113680137.444        -482.114          30.000  
> 2019  6 16  1  2 47.0000000  0  8                     
G 2  21589327.479   113452614.178        -481.120          43.000  
G 5  21589100.773   113451402.536        -481.327          46.000  
G 3  21589328.356   113452598.353        -481.394          46.000  
G 6  21589104.337   113451431.541        -481.269          36.000  
G 9  21543615.487   113212435.105        -480.597          33.000  
G 4  21589332.493   113452678.732        -481.390          45.000  
G 1  21589335.174   113452679.063        -481.206          42.000  
G24  21632707.257   113680618.841        -480.947          30.000  
> 2019  6 16  1  2 48.0000000  0  8                     
G 2  21289626.831   113453096.039        -481.157          43.000  
G 5  21289400.076   113451884.391        -481.281          46.000  
G 3  21289627.690   113453080.201        -481.315          47.000  
G 6  21289403.703   113451913.395        -481.244          36.000  
G 9  21243914.654   113212916.954        -480.469          33.000  
G 4  21289631.911   113453160.582        -481.268          45.000  
G 1  21289634.427   113453160.925        -481.381          42.000  
G24  21333006.479   113681100.696        -481.252          30.000  
> 2019  6 16  1  2 49.0000000  0  8                     
G 2  21289718.682   113453577.521        -481.545          43.000  
G 5  21289491.765   113452365.869        -481.621          46.000  
G 3  21289719.332   113453561.679        -481.688          46.000  
G 6  21289495.351   113452394.897        -481.676          36.000  
G 9  21244006.490   113213398.425        -480.652          32.000  
G 4  21289723.575   113453642.051        -481.528          46.000  
G 1  21289726.138   113453642.405        -481.559          42.000  
G24  21333098.411   113681582.175        -480.815          31.000  
> 2019  6 16  1  2 50.0000000  0  8                     
G 2  21289810.351   113454058.889        -481.519          43.000  
G 5  21289583.386   113452847.243        -481.376          46.000  
G 3  21289810.991   113454043.050        -481.338          47.000  
G 6  21289587.108   113452876.268        -481.687          36.000  
G 9  21244098.128   113213879.817        -481.299          32.000  
G 4  21289815.198   113454123.427        -481.365          45.000  
G 1  21289817.905   113454123.772        -481.309          42.000  
G24  21333189.946   113682063.553        -482.012          30.000  
> 2019  6 16  1  2 51.0000000  0  8                     
G 2  21289901.867   113454540.272        -481.459          43.000  
G 5  21289675.218   113453328.635        -481.407          46.000  
G 3  21289902.715   113454524.446        -481.448          47.000  
G 6  21289678.920   113453357.655        -481.527          35.000  
G 9  21244189.830   113214361.217        -481.613          33.000  
G 4  21289906.817   113454604.824        -481.427          45.000  
G 1  21289909.761   113454605.165        -481.305          42.000  
G24  21333281.422   113682544.937        -481.775          30.000  
> 2019  6 16  1  2 52.0000000  0  8                     
G 2  21289993.376   113455021.588        -481.483          42.000  
G 5  21289766.969   113453809.941        -481.400          46.000  
G 3  21289994.382   113455005.756        -481.406          47.000  
G 6  21289770.701   113453838.961        -481.377          36.000  
G 9  21244281.564   113214842.532        -481.652          33.000  
G 4  21289998.541   113455086.129        -481.350          45.000  
G 1  21290001.472   113455086.468        -481.205          42.000  
G24  21333373.202   113683026.219        -480.287          30.000  
> 2019  6 16  1  2 53.0000000  0  8                     
G 2  21290085.052   113455502.990        -481.578          42.000  
G 5  21289858.672   113454291.334        -481.481          46.000  
G 3  21290086.215   113455487.150        -481.448          47.000  
G 6  21289862.210   113454320.323        -481.395          36.000  
G 9  21244373.239   113215323.920        -481.532          33.000  
G 4  21290090.070   113455567.517        -481.464          45.000  
G 1  21290093.180   113455567.857        -481.195          42.000  
G24  21333464.799   113683507.720        -482.469          29.000  
> 2019  6 16  1  2 54.0000000  0  8                     
G 2  21290176.898   113455984.331        -481.583          42.000  
G 5  21289950.247   113454772.681        -481.434          46.000  
G 3  21290177.930   113455968.497        -481.620          47.000  
G 6  21289953.642   113454801.675        -481.587          36.000  
G 9  21244464.916   113215805.265        -481.962          33.000  
G 4  21290181.769   113456048.865        -481.515          45.000  
G 1  21290184.973   113456049.200        -481.167          42.000  
G24  21333556.781   113683989.004        -481.762          30.000  
> 2019  6 16  1  2 55.0000000  0  8                     
G 2  21290268.643   113456465.677        -481.589          42.000  
G 5  21290041.823   113455254.031        -481.613          46.000  
G 3  21290269.652   113456449.842        -481.558          47.000  
G 6  21290045.141   113455283.031        -481.704          36.000  
G 9  21244556.526   113216286.610        -481.643          33.000  
G 4  21290273.683   113456530.216        -481.600          46.000  
G 1  21290276.637   113456530.553        -481.287          42.000  
G24  21333648.702   113684470.337        -480.189          30.000  
> 2019  6 16  1  2 56.0000000  0  8                     
G 2  21290360.337   113456947.102        -481.545          43.000  
G 5  21290133.525   113455735.456        -481.525          46.000  
G 3  21290361.445   113456931.270        -481.570          47.000  
G 6  21290136.683   113455764.467        -481.475          36.000  
G 9  21244648.201   113216768.042        -481.765          32.000  
G 4  21290365.514   113457011.641        -481.575          45.000  
G 1  21290368.341   113457011.982        -481.305          41.000  
G24  21333740.614   113684951.714        -479.929          31.000  
> 2019  6 16  1  2 57.0000000  0  8                     
G 2  21290452.015   113457428.552        -481.617          43.000  
G 5  21290225.227   113456216.907        -481.582          46.000  
G 3  21290453.103   113457412.716        -481.582          47.000  
G 6  21290228.253   113456245.896        -481.495          36.000  
G 9  21244739.859   113217249.491        -481.814          33.000  
G 4  21290457.259   113457493.088        -481.602          45.000  
G 1  21290460.010   113457493.431        -481.528          41.000  
G24  21333832.344   113685433.160        -480.038          31.000  
> 2019  6 16  1  2 58.0000000  0  8                     
G 2  21290543.691   113457910.024        -481.565          43.000  
G 5  21290316.949   113456698.370        -481.484          46.000  
G 3  21290544.769   113457894.174        -481.443          47.000  
G 6  21290319.897   113456727.374        -481.445          36.000  
G 9  21244831.551   113217730.959        -481.940          33.000  
G 4  21290548.900   113457974.554        -481.610          45.000  
G 1  21290551.789   113457974.908        -481.451          42.000  
G24  21333924.302   113685914.646        -480.007          31.000  
> 2019  6 16  1  2 59.0000000  0  8                     
G 2  21290635.362   113458391.418        -481.598          43.000  
G 5  21290408.648   113457179.760        -481.438          46.000  
G 3  21290636.405   113458375.569        -481.393          47.000  
G 6  21290411.725   113457208.758        -481.256          36.000  
G 9  21244923.334   113218212.356        -481.742          33.000  
G 4  21290640.497   113458455.949        -481.538          45.000  
G 1  21290643.621   113458456.296        -481.544          42.000  
G24  21334016.072   113686396.041        -480.587          31.000  
> 2019  6 16  1  3  0.0000000  0  8                     
G 2  21290727.037   113458872.894        -481.543          42.000  
G 5  21290500.373   113457661.243        -481.527          46.000  
G 3  21290728.129   113458857.048        -481.466          47.000  
G 6  21290503.487   113457690.240        -481.217          36.000  
G 9  21245015.020   113218693.838        -481.896          33.000  
G 4  21290732.163   113458937.427        -481.637          45.000  
G 1  21290735.320   113458937.777        -481.616          42.000  
G24  21334108.132   113686877.560        -481.479          30.000  
> 2019  6 16  1  3  1.0000000  0  8                     
G 2  21290818.634   113459354.316        -481.444          42.000  
G 5  21290592.055   113458142.666        -481.434          46.000  
G 3  21290819.840   113459338.478        -481.405          47.000  
G 6  21290595.344   113458171.655        -481.090          36.000  
G 9  21245106.808   113219175.252        -481.474          33.000  
G 4  21290823.837   113459418.851        -481.493          46.000  
G 1  21290827.211   113459419.197        -481.373          42.000  
G24  21334200.075   113687358.969        -481.013          30.000  
> 2019  6 16  1  3  2.0000000  0  8                     
G 2  21290910.348   113459835.667        -481.395          42.000  
G 5  21290683.782   113458624.002        -481.284          46.000  
G 3  21290911.560   113459819.813        -481.323          47.000  
G 6  21290687.189   113458653.000        -481.133          36.000  
G 9  21245198.549   113219656.620        -481.906          33.000  
G 4  21290915.529   113459900.188        -481.318          46.000  
G 1  21290918.890   113459900.540        -481.332          42.000  
G24  21334291.959   113687840.280        -481.008          31.000  
> 2019  6 16  1  3  3.0000000  0  8                     
G 2  21291002.228   113460317.072        -481.593          43.000  
G 5  21290775.379   113459105.411        -481.355          46.000  
G 3  21291003.388   113460301.222        -481.388          47.000  
G 6  21290778.951   113459134.402        -481.257          37.000  
G 9  21245290.202   113220137.990        -481.487          33.000  
G 4  21291007.206   113460381.595        -481.400          46.000  
G 1  21291010.552   113460381.946        -481.438          42.000  
G24  21334383.713   113688321.695        -480.544          32.000  
> 2019  6 16  1  3  4.0000000  0  8                     
G 2  21291093.850   113460798.518        -481.431          42.000  
G 5  21290867.178   113459586.873        -481.454          46.000  
G 3  21291095.140   113460782.686        -481.459          47.000  
G 6  21290870.638   113459615.863        -481.221          36.000  
G 9  21245382.086   113220619.433        -481.259          33.000  
G 4  21291098.949   113460863.061        -481.591          45.000  
G 1  21291102.107   113460863.405        -481.504          42.000  
G24  21334475.638   113688803.146        -480.605          31.000  
> 2019  6 16  1  3  5.0000000  0  8                     
G 2  21291185.524   113461279.954        -481.439          42.000  
G 5  21290958.977   113460068.314        -481.409          46.000  
G 3  21291186.813   113461264.122        -481.395          47.000  
G 6  21290962.408   113460097.307        -481.307          36.000  
G 9  21245473.795   113221100.879        -481.238          33.000  
G 4  21291190.745   113461344.495        -481.533          45.000  
G 1  21291193.797   113461344.844        -481.505          42.000  
G24  21334567.348   113689284.545        -480.341          31.000  
> 2019  6 16  1  3  6.0000000  0  8                     
G 2  21291277.201   113461761.430        -481.429          43.000  
G 5  21291050.732   113460549.779        -481.403          46.000  
G 3  21291278.505   113461745.585        -481.316          46.000  
G 6  21291054.230   113460578.761        -481.266          36.000  
G 9  21245565.543   113221582.374        -481.588          32.000  
G 4  21291282.441   113461825.956        -481.405          45.000  
G 1  21291285.544   113461826.310        -481.398          42.000  
G24  21334658.927   113689766.056        -480.779          30.000  
> 2019  6 16  1  3  7.0000000  0  8                     
G 2  21291368.814   113462242.904        -481.718          42.000  
G 5  21291142.499   113461031.259        -481.677          46.000  
G 3  21291370.175   113462227.064        -481.569          47.000  
G 6  21291145.973   113461060.257        -481.587          36.000  
G 9  21245657.264   113222063.841        -481.516          32.000  
G 4  21291374.134   113462307.434        -481.638          45.000  
G 1  21291377.238   113462307.789        -481.786          42.000  
G24  21334750.462   113690247.497        -481.037          30.000  
> 2019  6 16  1  3  8.0000000  0  8                     
G 2  21291460.609   113462724.368        -481.558          42.000  
G 5  21291234.215   113461512.723        -481.562          46.000  
G 3  21291461.900   113462708.521        -481.389          47.000  
G 6  21291237.830   113461541.726        -481.410          36.000  
G 9  21245748.896   113222545.301        -481.517          33.000  
G 4  21291465.772   113462788.902        -481.461          45.000  
G 1  21291468.819   113462789.255        -481.838          42.000  
G24  21334841.830   113690729.036        -481.690          29.000  
> 2019  6 16  1  3  9.0000000  0  8                     
G 2  21291552.383   113463205.785        -481.687          42.000  
G 5  21291325.901   113461994.129        -481.613          46.000  
G 3  21291553.618   113463189.933        -481.510          47.000  
G 6  21291329.654   113462023.139        -481.588          37.000  
G 9  21245840.527   113223026.716        -481.691          33.000  
G 4  21291557.490   113463270.316        -481.636          45.000  
G 1  21291560.449   113463270.663        -481.790          42.000  
G24  21334933.391   113691210.418        -481.324          30.000  
> 2019  6 16  1  3 10.0000000  0  8                     
G 2  21291644.108   113463687.329        -481.718          42.000  
G 5  21291417.562   113462475.665        -481.555          46.000  
G 3  21291645.390   113463671.471        -481.578          47.000  
G 6  21291421.390   113462504.668        -481.473          37.000  
G 9  21245932.242   113223508.258        -482.027          32.000  
G 4  21291649.301   113463751.853        -481.572          45.000  
G 1  21291652.073   113463752.202        -481.627          42.000  
G24  21335025.117   113691691.944        -481.661          31.000  
> 2019  6 16  1  3 11.0000000  0  8                     
G 2  21291735.838   113464168.741        -481.418          43.000  
G 5  21291509.273   113462957.094        -481.406          46.000  
G 3  21291737.159   113464152.892        -481.295          46.000  
G 6  21291513.007   113462986.112        -481.779          36.000  
G 9  21246023.939   113223989.676        -481.630          33.000  
G 4  21291741.031   113464233.278        -481.388          45.000  
G 1  21291743.695   113464233.630        -481.577          41.000  
G24  21335116.938   113692173.373        -482.087          31.000  
> 2019  6 16  1  3 12.0000000  0  8                     
G 2  21291827.531   113464650.155        -481.692          43.000  
G 5  21291600.968   113463438.498        -481.588          46.000  
G 3  21291828.871   113464634.301        -481.343          47.000  
G 6  21291604.911   113463467.529        -481.710          36.000  
G 9  21246115.664   113224471.066        -481.536          32.000  
G 4  21291832.678   113464714.679        -481.401          45.000  
G 1  21291835.310   113464715.030        -481.716          41.000  
G24  21335208.426   113692654.782        -480.857          30.000  
> 2019  6 16  1  3 13.0000000  0  8                     
G 2  21291919.165   113465131.548        -481.418          43.000  
G 5  21291692.633   113463919.911        -481.599          46.000  
G 3  21291920.532   113465115.707        -481.238          46.000  
G 6  21291696.650   113463948.933        -481.683          36.000  
G 9  21246207.320   113224952.477        -481.407          32.000  
G 4  21291924.381   113465196.089        -481.357          45.000  
G 1  21291927.068   113465196.439        -481.497          41.000  
G24  21335300.083   113693136.209        -481.374          30.000  
> 2019  6 16  1  3 14.0000000  0  8                     
G 2  21292010.874   113465612.843        -481.467          43.000  
G 5  21291784.387   113464401.190        -481.428          46.000  
G 3  21292012.178   113465596.989        -481.298          47.000  
G 6  21291788.247   113464430.205        -481.537          36.000  
G 9  21246298.943   113225433.778        -481.587          33.000  
G 4  21292015.996   113465677.374        -481.313          45.000  
G 1  21292018.861   113465677.720        -481.407          42.000  
G24  21335391.726   113693617.465        -481.195          30.000  
> 2019  6 16  1  3 15.0000000  0  8                     
G 2  21292102.554   113466094.117        -481.320          43.000  
G 5  21291876.113   113464882.478        -481.387          46.000  
G 3  21292103.851   113466078.274        -481.228          46.000  
G 6  21291879.893   113464911.495        -481.311          36.000  
G 9  21246390.687   113225915.070        -481.384          33.000  
G 4  21292107.678   113466158.663        -481.334          45.000  
G 1  21292110.631   113466158.999        -481.256          41.000  
G24  21335483.189   113694098.757        -481.609          30.000  
> 2019  6 16  1  3 16.0000000  0  8                     
G 2  21292194.273   113466575.346        -481.191          43.000  
G 5  21291967.797   113465363.701        -481.239          46.000  
G 3  21292195.488   113466559.503        -481.129          46.000  
G 6  21291971.575   113465392.729        -481.372          36.000  
G 9  21246482.379   113226396.297        -481.341          33.000  
G 4  21292199.280   113466639.886        -481.157          45.000  
G 1  21292202.279   113466640.236        -481.348          42.000  
G24  21335574.851   113694579.976        -481.218          30.000  
> 2019  6 16  1  3 17.0000000  0  8                     
G 2  21292285.961   113467056.614        -481.084          43.000  
G 5  21292059.444   113465844.968        -481.074          46.000  
G 3  21292287.186   113467040.771        -481.052          46.000  
G 6  21292063.254   113465873.982        -481.052          36.000  
G 9  21246574.050   113226877.537        -480.664          32.000  
G 4  21292290.838   113467121.154        -481.035          45.000  
G 1  21292293.952   113467121.507        -481.290          42.000  
G24  21335666.399   113695061.237        -480.897          30.000  
> 2019  6 16  1  3 18.0000000  0  8                     
G 2  21292377.690   113467537.832        -481.287          43.000  
G 5  21292151.034   113466326.190        -481.394          46.000  
G 3  21292378.843   113467521.994        -481.353          46.000  
G 6  21292154.814   113466355.200        -481.385          36.000  
G 9  21246665.639   113227358.755        -481.124          32.000  
G 4  21292382.565   113467602.375        -481.398          45.000  
G 1  21292385.561   113467602.728        -481.490          42.000  
G24  21335757.960   113695542.463        -481.284          30.000  
> 2019  6 16  1  3 19.0000000  0  8                     
G 2  21292469.373   113468018.987        -481.221          43.000  
G 5  21292242.658   113466807.334        -481.205          46.000  
G 3  21292470.423   113468003.140        -481.201          46.000  
G 6  21292246.607   113466836.356        -481.123          36.000  
G 9  21246757.311   113227839.902        -481.034          33.000  
G 4  21292474.200   113468083.517        -481.150          45.000  
G 1  21292477.120   113468083.871        -481.338          41.000  
G24  21335849.573   113696023.600        -480.819          30.000  
> 2019  6 16  1  3 20.0000000  0  8                     
G 2  21292561.099   113468500.148        -481.204          43.000  
G 5  21292334.311   113467288.502        -481.193          46.000  
G 3  21292561.981   113468484.306        -481.213          46.000  
G 6  21292338.242   113467317.498        -480.972          36.000  
G 9  21246848.936   113228321.077        -481.344          32.000  
G 4  21292565.775   113468564.681        -481.172          45.000  
G 1  21292568.734   113468565.039        -481.322          42.000  
G24  21335941.265   113696504.778        -481.188          30.000  
> 2019  6 16  1  3 21.0000000  0  8                     
G 2  21292652.724   113468981.250        -480.903          43.000  
G 5  21292425.999   113467769.598        -480.923          46.000  
G 3  21292653.696   113468965.404        -480.929          46.000  
G 6  21292429.726   113467798.608        -480.709          36.000  
G 9  21246940.633   113228802.230        -481.486          32.000  
G 4  21292657.387   113469045.783        -480.933          45.000  
G 1  21292660.338   113469046.142        -481.123          41.000  
G24  21336032.755   113696985.930        -480.888          29.000  
> 2019  6 16  1  3 22.0000000  0  8                     
G 2  21292744.306   113469462.288        -480.740          43.000  
G 5  21292517.677   113468250.645        -480.817          46.000  
G 3  21292745.269   113469446.446        -480.907          46.000  
G 6  21292521.378   113468279.640        -480.673          36.000  
G 9  21247032.275   113229283.210        -480.675          32.000  
G 4  21292749.004   113469526.835        -480.962          45.000  
G 1  21292752.083   113469527.182        -480.878          41.000  
G24  21336124.469   113697466.942        -480.573          29.000  
> 2019  6 16  1  3 23.0000000  0  8                     
G 2  21292835.907   113469943.428        -481.146          43.000  
G 5  21292609.339   113468731.786        -481.274          46.000  
G 3  21292836.862   113469927.595        -481.317          46.000  
G 6  21292612.880   113468760.776        -481.069          36.000  
G 9  21247123.925   113229764.377        -481.442          33.000  
G 4  21292840.677   113470007.972        -481.389          45.000  
G 1  21292843.817   113470008.319        -481.240          41.000  
G24  21336216.253   113697948.078        -481.542          30.000  
> 2019  6 16  1  3 24.0000000  0  8                     
G 2  21292927.575   113470424.708        -481.226          43.000  
G 5  21292701.062   113469213.063        -481.317          46.000  
G 3  21292928.514   113470408.866        -481.401          46.000  
G 6  21292704.339   113469242.057        -481.238          36.000  
G 9  21247215.589   113230245.646        -481.404          33.000  
G 4  21292932.297   113470489.249        -481.459          45.000  
G 1  21292935.551   113470489.596        -481.292          41.000  
G24  21336308.018   113698429.343        -481.555          30.000  
> 2019  6 16  1  3 25.0000000  0  8                     
G 2  21293019.348   113470905.916        -480.989          43.000  
G 5  21292792.656   113469694.273        -481.176          46.000  
G 3  21293020.207   113470890.077        -481.211          46.000  
G 6  21292796.023   113469723.271        -481.123          36.000  
G 9  21247307.266   113230726.849        -481.025          33.000  
G 4  21293023.942   113470970.460        -481.326          45.000  
G 1  21293027.255   113470970.811        -481.245          41.000  
G24  21336399.678   113698910.584        -481.195          30.000  
> 2019  6 16  1  3 26.0000000  0  8                     
G 2  21293111.035   113471387.056        -481.030          43.000  
G 5  21292884.289   113470175.419        -481.200          46.000  
G 3  21293111.942   113471371.224        -481.237          46.000  
G 6  21292887.607   113470204.415        -481.215          36.000  
G 9  21247398.882   113231207.998        -481.277          32.000  
G 4  21293115.628   113471451.607        -481.334          45.000  
G 1  21293118.911   113471451.953        -481.134          41.000  
G24  21336491.266   113699391.706        -481.188          31.000  
> 2019  6 16  1  3 27.0000000  0  8                     
G 2  21293202.700   113471868.351        -481.124          43.000  
G 5  21292976.037   113470656.718        -481.455          46.000  
G 3  21293203.636   113471852.522        -481.484          46.000  
G 6  21292979.232   113470685.722        -481.545          36.000  
G 9  21247490.497   113231689.299        -481.265          33.000  
G 4  21293207.271   113471932.904        -481.494          45.000  
G 1  21293210.565   113471933.249        -481.344          41.000  
G24  21336582.730   113699873.002        -481.451          30.000  
> 2019  6 16  1  3 28.0000000  0  8                     
G 2  21293294.367   113472349.525        -480.916          43.000  
G 5  21293067.740   113471137.880        -481.074          46.000  
G 3  21293295.333   113472333.692        -481.161          46.000  
G 6  21293070.986   113471166.890        -481.005          36.000  
G 9  21247582.088   113232170.463        -481.009          33.000  
G 4  21293298.956   113472414.072        -481.205          45.000  
G 1  21293302.076   113472414.414        -481.028          41.000  
G24  21336674.340   113700354.172        -480.954          30.000  
> 2019  6 16  1  3 29.0000000  0  8                     
G 2  21293386.025   113472830.676        -480.903          43.000  
G 5  21293159.417   113471619.041        -481.111          46.000  
G 3  21293387.087   113472814.846        -481.206          46.000  
G 6  21293162.826   113471648.050        -481.201          36.000  
G 9  21247673.732   113232651.617        -481.052          33.000  
G 4  21293390.630   113472895.228        -481.195          45.000  
G 1  21293393.654   113472895.563        -481.078          41.000  
G24  21336765.954   113700835.282        -480.380          30.000  
> 2019  6 16  1  3 30.0000000  0  8                     
G 2  21293477.635   113473311.809        -480.723          43.000  
G 5  21293251.105   113472100.161        -480.973          46.000  
G 3  21293478.734   113473295.967        -481.053          46.000  
G 6  21293254.381   113472129.177        -481.289          36.000  
G 9  21247765.387   113233132.741        -481.147          33.000  
G 4  21293482.083   113473376.347        -480.881          45.000  
G 1  21293485.291   113473376.683        -480.796          41.000  
G24  21336857.648   113701316.513        -480.975          30.000  
> 2019  6 16  1  3 31.0000000  0  8                     
G 2  21293569.324   113473792.873        -481.157          43.000  
G 5  21293342.747   113472581.224        -481.166          46.000  
G 3  21293570.403   113473777.036        -481.327          46.000  
G 6  21293346.025   113472610.256        -481.468          36.000  
G 9  21247857.112   113233613.810        -481.228          32.000  
G 4  21293573.880   113473857.410        -481.185          45.000  
G 1  21293576.948   113473857.749        -480.917          41.000  
G24  21336949.462   113701797.535        -482.231          30.000  
> 2019  6 16  1  3 32.0000000  0  8                     
G 2  21293661.038   113474274.075        -481.235          43.000  
G 5  21293434.404   113473062.427        -481.130          46.000  
G 3  21293662.133   113474258.235        -481.278          46.000  
G 6  21293437.738   113473091.440        -481.346          36.000  
G 9  21247948.786   113234095.032        -481.568          32.000  
G 4  21293665.742   113474338.613        -481.189          45.000  
G 1  21293668.680   113474338.947        -480.876          41.000  
G24  21337041.007   113702278.747        -482.775          30.000  
> 2019  6 16  1  3 33.0000000  0  8                     
G 2  21293752.693   113474755.277        -481.364          43.000  
G 5  21293526.029   113473543.615        -481.147          46.000  
G 3  21293753.857   113474739.428        -481.294          46.000  
G 6  21293529.414   113473572.648        -481.658          35.000  
G 9  21248040.423   113234576.217        -481.549          32.000  
G 4  21293757.430   113474819.806        -481.178          45.000  
G 1  21293760.220   113474820.137        -480.895          41.000  
G24  21337132.468   113702759.970        -482.887          31.000  
> 2019  6 16  1  3 34.0000000  0  8                     
G 2  21293844.314   113475236.446        -481.420          43.000  
G 5  21293617.674   113474024.791        -481.270          46.000  
G 3  21293845.525   113475220.605        -481.476          46.000  
G 6  21293621.030   113474053.817        -481.650          35.000  
G 9  21248132.056   113235057.398        -481.656          32.000  
G 4  21293849.067   113475300.980        -481.295          45.000  
G 1  21293851.866   113475301.317        -481.127          41.000  
G24  21337224.082   113703241.118        -482.450          31.000  
> 2019  6 16  1  3 35.0000000  0  8                     
G 2  21293935.957   113475717.637        -481.208          43.000  
G 5  21293709.412   113474505.984        -481.125          46.000  
G 3  21293937.148   113475701.792        -481.211          46.000  
G 6  21293712.633   113474535.004        -481.449          36.000  
G 9  21248223.636   113235538.583        -481.524          32.000  
G 4  21293940.637   113475782.174        -481.119          45.000  
G 1  21293943.553   113475782.507        -480.996          42.000  
G24  21337315.732   113703722.350        -482.540          31.000  
> 2019  6 16  1  3 36.0000000  0  8                     
G 2  21294027.655   113476198.790        -481.174          43.000  
G 5  21293801.060   113474987.130        -481.145          46.000  
G 3  21294028.743   113476182.940        -481.182          46.000  
G 6  21293804.361   113475016.150        -481.282          36.000  
G 9  21248315.329   113236019.752        -481.808          33.000  
G 4  21294032.223   113476263.315        -480.984          45.000  
G 1  21294035.247   113476263.644        -480.898          42.000  
G24  21337407.741   113704203.536        -482.959          31.000  
> 2019  6 16  1  3 37.0000000  0  8                     
G 2  21294119.377   113476679.900        -480.845          42.000  
G 5  21293892.683   113475468.241        -480.905          45.000  
G 3  21294120.402   113476664.053        -480.961          46.000  
G 6  21293896.095   113475497.267        -481.088          36.000  
G 9  21248406.886   113236500.854        -481.324          33.000  
G 4  21294123.832   113476744.431        -480.775          45.000  
G 1  21294126.975   113476744.765        -480.782          42.000  
G24  21337499.658   113704684.602        -481.293          31.000  
> 2019  6 16  1  3 38.0000000  0  8                     
G 2  21294210.966   113477160.862        -481.260          42.000  
G 5  21293984.293   113475949.202        -481.132          46.000  
G 3  21294212.038   113477145.018        -481.138          46.000  
G 6  21293987.939   113475978.220        -481.071          36.000  
G 9  21248498.427   113236981.819        -481.592          32.000  
G 4  21294215.377   113477225.387        -480.896          45.000  
G 1  21294218.787   113477225.737        -481.112          42.000  
G24  21337591.100   113705165.538        -481.465          30.000  
> 2019  6 16  1  3 39.0000000  0  8                     
G 2  21294302.491   113477641.844        -481.174          42.000  
G 5  21294075.943   113476430.196        -481.028          45.000  
G 3  21294303.630   113477626.007        -481.084          45.000  
G 6  21294079.520   113476459.211        -481.233          36.000  
G 9  21248589.998   113237462.789        -481.184          33.000  
G 4  21294307.058   113477706.375        -480.922          45.000  
G 1  21294310.365   113477706.717        -480.869          42.000  
G24  21337682.824   113705646.504        -481.207          30.000  
> 2019  6 16  1  3 40.0000000  0  8                     
G 2  21294394.010   113478122.702        -480.934          42.000  
G 5  21294167.480   113476911.043        -480.889          46.000  
G 3  21294395.320   113478106.856        -480.889          46.000  
G 6  21294171.155   113476940.071        -481.056          36.000  
G 9  21248681.397   113237943.667        -481.226          32.000  
G 4  21294398.754   113478187.228        -480.704          45.000  
G 1  21294401.899   113478187.576        -480.936          42.000  
G24  21337774.263   113706127.391        -481.296          30.000  
> 2019  6 16  1  3 41.0000000  0  8                     
G 2  21294485.774   113478603.610        -481.063          42.000  
G 5  21294259.056   113477391.953        -481.057          45.000  
G 3  21294486.961   113478587.761        -481.044          45.000  
G 6  21294262.923   113477420.974        -480.918          36.000  
G 9  21248772.912   113238424.560        -481.325          32.000  
G 4  21294490.490   113478668.132        -481.003          45.000  
G 1  21294493.470   113478668.472        -481.049          42.000  
G24  21337866.116   113706662.7943       -481.696          30.000  
> 2019  6 16  1  3 42.0000000  0  8                     
G 2  21294577.398   113479084.447        -480.818          42.000  
G 5  21294350.617   113477872.780        -480.868          46.000  
G 3  21294578.540   113479068.597        -480.938          46.000  
G 6  21294354.515   113477901.801        -480.647          36.000  
G 9  21248864.527   113238905.388        -480.995          32.000  
G 4  21294582.228   113479148.960        -480.852          45.000  
G 1  21294585.014   113479149.308        -480.914          42.000  
G24  21337958.084   113707143.5872       -480.908          29.000  
> 2019  6 16  1  3 43.0000000  0  8                     
G 2  21294668.991   113479565.337        -481.171          43.000  
G 5  21294442.255   113478353.683        -481.107          45.000  
G 3  21294670.069   113479549.494        -481.150          46.000  
G 6  21294445.860   113478382.696        -481.224          36.000  
G 9  21248956.037   113239386.279        -481.550          32.000  
G 4  21294673.856   113479629.865        -480.984          44.000  
G 1  21294676.524   113479630.206        -481.124          42.000  
G24  21338049.008   113707624.0001       -480.894          30.000  
> 2019  6 16  1  3 44.0000000  0  8                     
G 2  21294760.465   113480046.379        -481.189          43.000  
G 5  21294533.923   113478834.723        -481.078          45.000  
G 3  21294761.760   113480030.528        -481.006          46.000  
G 6  21294537.399   113478863.717        -480.824          36.000  
G 9  21249047.688   113239867.325        -481.224          32.000  
G 4  21294765.425   113480110.896        -481.123          45.000  
G 1  21294768.193   113480111.246        -481.041          42.000  
G24  21338140.099   113708104.978        -480.505          30.000  
> 2019  6 16  1  3 45.0000000  0  8                     
G 2  21294852.005   113480527.433        -481.154          42.000  
G 5  21294625.617   113479315.788        -481.161          45.000  
G 3  21294853.431   113480511.598        -481.124          45.000  
G 6  21294629.044   113479344.770        -480.785          36.000  
G 9  21249139.286   113240348.387        -481.328          32.000  
G 4  21294856.981   113480591.956        -481.036          44.000  
G 1  21294859.849   113480592.310        -481.034          42.000  
G24  21338231.565   113708586.087        -480.800          30.000  
> 2019  6 16  1  3 46.0000000  0  8                     
G 2  21294943.691   113481008.503        -480.901          42.000  
G 5  21294717.159   113479796.853        -481.158          46.000  
G 3  21294945.041   113480992.657        -480.945          46.000  
G 6  21294720.596   113479825.849        -480.762          37.000  
G 9  21249230.864   113240829.436        -481.366          32.000  
G 4  21294948.600   113481073.034        -481.038          45.000  
G 1  21294951.582   113481073.384        -481.074          41.000  
G24  21338325.926   113709067.154        -480.271          32.000  
> 2019  6 16  1  3 47.0000000  0  8                     
G 2  21295035.389   113481489.550        -481.038          43.000  
G 5  21294808.842   113480277.927        -481.185          45.000  
G 3  21295036.756   113481473.720        -481.144          46.000  
G 6  21294812.120   113480306.916        -481.017          36.000  
G 9  21249322.530   113241310.519        -481.276          32.000  
G 4  21295040.205   113481554.108        -481.158          45.000  
G 1  21295043.163   113481554.455        -481.172          41.000  
G24  21338416.115   113709548.180        -480.837          30.000  
> 2019  6 16  1  3 48.0000000  0  8                     
G 2  21295127.106   113481970.619        -481.158          44.000  
G 5  21294900.400   113480758.982        -481.140          46.000  
G 3  21295128.477   113481954.784        -481.143          46.000  
G 6  21294903.691   113480787.962        -480.994          36.000  
G 9  21249414.206   113241791.582        -481.237          33.000  
G 4  21295131.896   113482035.154        -481.168          44.000  
G 1  21295134.825   113482035.502        -480.958          41.000  
G24  21338507.365   113710029.230        -480.217          30.000  
> 2019  6 16  1  3 49.0000000  0  8                     
G 2  21295218.797   113482451.686        -481.108          43.000  
G 5  21294991.980   113481240.043        -481.095          45.000  
G 3  21295220.097   113482435.843        -481.099          46.000  
G 6  21294995.153   113481269.034        -481.068          36.000  
G 9  21249505.827   113242272.616        -480.816          32.000  
G 4  21295223.535   113482516.215        -481.033          44.000  
G 1  21295226.441   113482516.567        -481.022          41.000  
G24  21338598.538   113710510.254        -479.856          31.000  
> 2019  6 16  1  3 50.0000000  0  8                     
G 2  21295310.512   113482932.824        -481.102          43.000  
G 5  21295083.643   113481721.178        -481.176          45.000  
G 3  21295311.726   113482916.979        -481.122          46.000  
G 6  21295086.701   113481750.176        -481.158          36.000  
G 9  21249597.396   113242753.772        -481.193          32.000  
G 4  21295315.100   113482997.358        -481.193          44.000  
G 1  21295318.183   113482997.714        -481.276          41.000  
G24  21338690.136   113710991.387        -479.304          30.000  
> 2019  6 16  1  3 51.0000000  0  8                     
G 2  21295402.165   113483413.975        -481.152          43.000  
G 5  21295175.301   113482202.312        -481.134          45.000  
G 3  21295403.370   113483398.121        -481.020          45.000  
G 6  21295178.348   113482231.308        -480.908          36.000  
G 9  21249689.107   113243234.928        -481.090          32.000  
G 4  21295406.692   113483478.498        -481.158          45.000  
G 1  21295409.962   113483478.857        -481.210          41.000  
G24  21338781.807   113711472.587        -480.120          31.000  
> 2019  6 16  1  3 52.0000000  0  8                     
G 2  21295493.811   113483895.071        -481.301          43.000  
G 5  21295267.039   113482683.418        -481.232          45.000  
G 3  21295494.901   113483879.217        -481.129          46.000  
G 6  21295269.934   113482712.410        -481.229          36.000  
G 9  21249780.905   113243716.023        -481.165          32.000  
G 4  21295498.245   113483959.608        -481.233          45.000  
G 1  21295501.734   113483959.958        -481.272          41.000  
G24  21338873.572   113711953.711        -480.560          31.000  
> 2019  6 16  1  3 53.0000000  0  8                     
G 2  21295585.377   113484376.199        -481.357          43.000  
G 5  21295358.722   113483164.559        -481.306          44.000  
G 3  21295586.508   113484360.355        -481.110          45.000  
G 6  21295361.565   113483193.572        -481.631          36.000  
G 9  21249872.460   113244197.159        -481.493          32.000  
G 4  21295589.879   113484440.749        -481.329          45.000  
G 1  21295593.224   113484441.093        -481.459          41.000  
G24  21338965.160   113712434.810        -480.592          31.000  
> 2019  6 16  1  3 54.0000000  0  8                     
G 2  21295676.942   113484857.366        -481.147          43.000  
G 5  21295450.331   113483645.730        -481.150          45.000  
G 3  21295678.068   113484841.529        -481.012          46.000  
G 6  21295453.179   113483674.738        -481.477          36.000  
G 9  21249964.193   113244678.335        -481.189          33.000  
G 4  21295681.565   113484921.918        -481.224          45.000  
G 1  21295684.824   113484922.260        -481.167          41.000  
G24  21339056.910   113712915.968        -479.905          31.000  
> 2019  6 16  1  3 55.0000000  0  8                     
G 2  21295768.649   113485338.624        -481.560          43.000  
G 5  21295542.030   113484126.984        -481.475          45.000  
G 3  21295769.726   113485322.781        -481.370          46.000  
G 6  21295544.914   113484155.996        -481.758          36.000  
G 9  21250055.723   113245159.572        -481.280          33.000  
G 4  21295773.379   113485403.170        -481.570          45.000  
G 1  21295776.418   113485403.513        -481.541          41.000  
G24  21339148.614   113713397.233        -480.959          31.000  
> 2019  6 16  1  3 56.0000000  0  8                     
G 2  21295860.262   113485819.931        -481.324          43.000  
G 5  21295633.685   113484608.284        -481.221          45.000  
G 3  21295861.412   113485804.081        -481.144          46.000  
G 6  21295636.604   113484637.283        -481.592          36.000  
G 9  21250147.400   113245640.873        -481.129          33.000  
G 4  21295865.162   113485884.478        -481.460          45.000  
G 1  21295867.998   113485884.812        -481.290          41.000  
G24  21339240.127   113713878.564        -481.174          30.000  
> 2019  6 16  1  3 57.0000000  0  8                     
G 2  21295952.012   113486301.340        -481.155          43.000  
G 5  21295725.380   113485089.698        -481.101          45.000  
G 3  21295953.166   113486285.494        -481.069          45.000  
G 6  21295728.237   113485118.706        -481.235          36.000  
G 9  21250239.096   113246122.270        -480.604          33.000  
G 4  21295956.758   113486365.882        -481.343          44.000  
G 1  21295959.767   113486366.239        -481.407          41.000  
G24  21339331.903   113714359.958        -481.043          30.000  
> 2019  6 16  1  3 58.0000000  0  8                     
G 2  21296043.657   113486782.603        -481.316          43.000  
G 5  21295817.096   113485570.954        -481.248          45.000  
G 3  21296044.923   113486766.757        -481.213          46.000  
G 6  21295819.942   113485599.942        -481.080          36.000  
G 9  21250330.771   113246603.529        -480.436          33.000  
G 4  21296048.399   113486847.142        -481.282          45.000  
G 1  21296051.536   113486847.502        -481.394          41.000  
G24  21339423.557   113714841.202        -480.767          30.000  
> 2019  6 16  1  3 59.0000000  0  8                     
G 2  21296135.283   113487263.941        -481.381          43.000  
G 5  21295908.773   113486052.298        -481.328          45.000  
G 3  21296136.611   113487248.103        -481.376          46.000  
G 6  21295911.613   113486081.281        -481.161          37.000  
G 9  21250422.455   113247084.865        -480.727          32.000  
G 4  21296139.939   113487328.490        -481.560          44.000  
G 1  21296143.313   113487328.844        -481.599          41.000  
G24  21339515.282   113715322.530        -480.372          30.000  
> 2019  6 16  1  4  0.0000000  0  8                     
G 2  21296226.959   113487745.246        -481.377          43.000  
G 5  21296000.480   113486533.609        -481.443          45.000  
G 3  21296228.310   113487729.406        -481.310          46.000  
G 6  21296003.133   113486562.592        -481.355          37.000  
G 9  21250514.220   113247566.198        -481.048          33.000  
G 4  21296231.630   113487809.792        -481.512          45.000  
G 1  21296235.108   113487810.148        -481.553          41.000  
G24  21339606.910   113715803.875        -481.266          30.000  
> 2019  6 16  1  4  1.0000000  0  8                     
G 2  21296318.718   113488226.491        -481.395          43.000  
G 5  21296092.156   113487014.840        -481.198          45.000  
G 3  21296320.029   113488210.643        -481.277          45.000  
G 6  21296094.745   113487043.834        -481.069          36.000  
G 9  21250605.894   113248047.425        -480.887          32.000  
G 4  21296323.336   113488291.028        -481.329          44.000  
G 1  21296326.717   113488291.387        -481.439          41.000  
G24  21339698.604   113716285.096        -480.795          29.000  
> 2019  6 16  1  4  2.0000000  0  8                     
G 2  21296410.423   113488707.787        -481.332          43.000  
G 5  21296183.854   113487496.137        -481.268          45.000  
G 3  21296411.765   113488691.947        -481.438          46.000  
G 6  21296186.665   113487525.137        -481.085          36.000  
G 9  21250697.473   113248528.706        -480.701          32.000  
G 4  21296415.090   113488772.328        -481.393          44.000  
G 1  21296418.547   113488772.694        -481.527          41.000  
G24  21339790.312   113716766.411        -481.117          30.000  
> 2019  6 16  1  4  3.0000000  0  8                     
G 2  21296502.159   113489189.046        -481.208          43.000  
G 5  21296275.498   113487977.387        -481.102          45.000  
G 3  21296503.596   113489173.202        -481.300          46.000  
G 6  21296278.343   113488006.392        -481.136          36.000  
G 9  21250789.183   113249009.976        -481.027          33.000  
G 4  21296506.937   113489253.580        -481.233          45.000  
G 1  21296510.328   113489253.938        -481.185          41.000  
G24  21339881.934   113717247.702        -482.324          30.000  
> 2019  6 16  1  4  4.0000000  0  8                     
G 2  21296593.806   113489670.179        -481.084          43.000  
G 5  21296367.163   113488458.535        -481.265          46.000  
G 3  21296595.265   113489654.339        -481.304          46.000  
G 6  21296370.120   113488487.540        -480.989          36.000  
G 9  21250880.830   113249491.096        -480.404          33.000  
G 4  21296598.618   113489734.717        -481.219          44.000  
G 1  21296601.828   113489735.069        -481.276          41.000  
G24  21339973.756   113717728.834        -481.477          31.000  
> 2019  6 16  1  4  5.0000000  0  8                     
G 2  21296685.523   113490151.277        -480.984          43.000  
G 5  21296458.846   113488939.633        -481.136          45.000  
G 3  21296686.821   113490135.440        -481.187          46.000  
G 6  21296461.839   113488968.642        -481.155          36.000  
G 9  21250972.533   113249972.187        -480.401          33.000  
G 4  21296690.098   113490215.812        -480.983          44.000  
G 1  21296693.437   113490216.166        -481.111          41.000  
G24  21340066.280   113718224.4623       -481.613          30.000  
> 2019  6 16  1  4  6.0000000  0  8                     
G 2  21296777.147   113490632.352        -480.975          43.000  
G 5  21296550.553   113489420.718        -481.086          45.000  
G 3  21296778.407   113490616.527        -481.252          46.000  
G 6  21296553.506   113489449.723        -481.127          36.000  
G 9  21251064.214   113250453.270        -480.274          32.000  
G 4  21296781.707   113490696.885        -480.938          45.000  
G 1  21296785.162   113490697.248        -481.066          41.000  
G24  21340156.912   113718705.5142       -481.912          30.000  
> 2019  6 16  1  4  7.0000000  0  8                     
G 2  21296868.789   113491113.409        -480.967          43.000  
G 5  21296642.258   113489901.773        -481.155          45.000  
G 3  21296870.024   113491097.578        -481.132          46.000  
G 6  21296645.149   113489930.772        -481.011          36.000  
G 9  21251155.957   113250934.325        -480.491          33.000  
G 4  21296873.198   113491177.938        -480.944          44.000  
G 1  21296876.899   113491178.304        -480.989          41.000  
G24  21340248.500   113719186.0321       -480.913          30.000  
> 2019  6 16  1  4  8.0000000  0  8                     
G 2  21296960.460   113491594.353        -480.717          43.000  
G 5  21296733.904   113490382.716        -480.989          46.000  
G 3  21296961.670   113491578.522        -481.008          45.000  
G 6  21296736.812   113490411.711        -480.841          36.000  
G 9  21251247.665   113251415.251        -480.032          33.000  
G 4  21296964.734   113491658.879        -480.769          44.000  
G 1  21296968.526   113491659.254        -480.979          41.000  
G24  21340341.524   113719667.028        -481.285          30.000  
> 2019  6 16  1  4  9.0000000  0  8                     
G 2  21297052.083   113492075.194        -480.795          43.000  
G 5  21296825.436   113490863.566        -481.094          45.000  
G 3  21297053.225   113492059.366        -481.140          46.000  
G 6  21296828.434   113490892.550        -480.927          36.000  
G 9  21251339.311   113251896.102        -480.263          32.000  
G 4  21297056.406   113492139.730        -480.941          44.000  
G 1  21297060.104   113492140.095        -481.101          42.000  
G24  21340432.640   113720147.821        -480.805          30.000  
> 2019  6 16  1  4 10.0000000  0  8                     
G 2  21297143.747   113492556.021        -480.726          43.000  
G 5  21296916.927   113491344.375        -480.818          46.000  
G 3  21297144.787   113492540.183        -480.850          45.000  
G 6  21296919.863   113491373.369        -480.781          36.000  
G 9  21251430.880   113252376.914        -479.805          32.000  
G 4  21297148.147   113492620.554        -480.731          44.000  
G 1  21297151.613   113492620.907        -480.754          42.000  
G24  21340524.617   113720628.676        -481.099          31.000  
> 2019  6 16  1  4 11.0000000  0  8                     
G 2  21297235.370   113493036.883        -481.099          43.000  
G 5  21297008.498   113491825.223        -481.069          46.000  
G 3  21297236.472   113493021.026        -481.089          46.000  
G 6  21297011.532   113491854.233        -481.169          37.000  
G 9  21251522.573   113252857.776        -480.565          33.000  
G 4  21297239.889   113493101.405        -481.020          44.000  
G 1  21297243.096   113493101.756        -481.023          42.000  
G24  21340617.521   113721109.562        -481.530          31.000  
> 2019  6 16  1  4 12.0000000  0  8                     
G 2  21297326.997   113493517.867        -480.797          43.000  
G 5  21297100.014   113492306.215        -480.841          45.000  
G 3  21297328.075   113493502.019        -480.867          46.000  
G 6  21297103.182   113492335.216        -480.851          36.000  
G 9  21251614.131   113253338.764        -480.348          32.000  
G 4  21297331.391   113493582.388        -480.830          44.000  
G 1  21297334.775   113493582.740        -480.660          42.000  
G24  21340709.089   113721590.494        -480.880          32.000  
> 2019  6 16  1  4 13.0000000  0  8                     
G 2  21297418.525   113493998.858        -480.964          43.000  
G 5  21297191.767   113492787.232        -481.115          45.000  
G 3  21297419.742   113493983.036        -481.123          45.000  
G 6  21297194.870   113492816.219        -481.017          36.000  
G 9  21251705.627   113253819.787        -480.879          32.000  
G 4  21297423.057   113494063.406        -481.086          44.000  
G 1  21297426.278   113494063.743        -480.851          41.000  
G24  21340800.384   113722071.510        -481.045          30.000  
> 2019  6 16  1  4 14.0000000  0  8                     
G 2  21297510.177   113494479.942        -481.066          43.000  
G 5  21297283.388   113493268.309        -480.986          46.000  
G 3  21297511.178   113494464.112        -480.997          45.000  
G 6  21297286.482   113493297.301        -481.035          36.000  
G 9  21251797.371   113254300.857        -480.754          32.000  
G 4  21297514.532   113494544.490        -481.005          45.000  
G 1  21297517.705   113494544.819        -480.897          41.000  
G24  21340891.963   113722552.551        -480.040          31.000  
> 2019  6 16  1  4 15.0000000  0  8                     
G 2  21297601.915   113494961.110        -481.136          43.000  
G 5  21297374.981   113493749.462        -481.147          45.000  
G 3  21297602.798   113494945.274        -481.201          45.000  
G 6  21297377.974   113493778.469        -481.257          36.000  
G 9  21251889.067   113254782.029        -481.196          32.000  
G 4  21297606.012   113495025.651        -481.288          44.000  
G 1  21297609.278   113495025.988        -481.053          41.000  
G24  21340983.498   113723033.723        -481.000          31.000  
> 2019  6 16  1  4 16.0000000  0  8                     
G 2  21297693.611   113495442.359        -481.312          43.000  
G 5  21297466.574   113494230.716        -481.434          46.000  
G 3  21297694.390   113495426.533        -481.326          46.000  
G 6  21297469.452   113494259.706        -481.564          36.000  
G 9  21251980.703   113255263.269        -481.148          32.000  
G 4  21297697.687   113495506.909        -481.437          44.000  
G 1  21297701.092   113495507.251        -481.288          41.000  
G24  21341074.966   113723515.003        -481.366          32.000  
> 2019  6 16  1  4 17.0000000  0  8                     
G 2  21297785.338   113495923.562        -481.356          43.000  
G 5  21297558.141   113494711.923        -481.420          45.000  
G 3  21297785.940   113495907.736        -481.439          45.000  
G 6  21297561.149   113494740.929        -481.354          36.000  
G 9  21252072.335   113255744.470        -481.187          33.000  
G 4  21297789.347   113495988.110        -481.379          44.000  
G 1  21297792.844   113495988.456        -481.355          41.000  
G24  21341166.736   113723996.206        -480.652          31.000  
> 2019  6 16  1  4 18.0000000  0  8                     
G 2  21297876.926   113496404.826        -481.117          43.000  
G 5  21297649.903   113495193.193        -481.039          45.000  
G 3  21297877.570   113496389.004        -481.133          45.000  
G 6  21297652.900   113495222.194        -481.100          36.000  
G 9  21252164.008   113256225.733        -480.905          32.000  
G 4  21297881.034   113496469.382        -481.083          44.000  
G 1  21297884.426   113496469.712        -480.881          41.000  
G24  21341258.372   113724477.473        -480.503          30.000  
> 2019  6 16  1  4 19.0000000  0  8                     
G 2  21297968.556   113496886.121        -481.436          43.000  
G 5  21297741.687   113495674.477        -481.425          45.000  
G 3  21297969.102   113496870.289        -481.492          45.000  
G 6  21297744.659   113495703.466        -481.099          36.000  
G 9  21252255.739   113256707.045        -481.480          33.000  
G 4  21297972.847   113496950.666        -481.436          44.000  
G 1  21297976.047   113496951.002        -481.204          41.000  
G24  21341350.381   113724972.7613       -481.488          30.000  
> 2019  6 16  1  4 20.0000000  0  8                     
G 2  21298060.188   113497367.482        -481.490          43.000  
G 5  21297833.449   113496155.838        -481.420          46.000  
G 3  21298060.668   113497351.644        -481.426          45.000  
G 6  21297836.352   113496184.824        -481.066          36.000  
G 9  21252347.374   113257188.388        -481.432          33.000  
G 4  21298064.475   113497432.017        -481.403          44.000  
G 1  21298067.725   113497432.363        -481.279          41.000  
G24  21341441.909   113725454.0882       -481.213          31.000  
> 2019  6 16  1  4 21.0000000  0  8                     
G 2  21298151.816   113497848.812        -481.553          43.000  
G 5  21297925.321   113496637.166        -481.437          45.000  
G 3  21298152.220   113497832.973        -481.484          45.000  
G 6  21297928.101   113496666.166        -481.260          36.000  
G 9  21252439.046   113257669.713        -481.296          32.000  
G 4  21298156.111   113497913.349        -481.493          44.000  
G 1  21298159.438   113497913.694        -481.497          41.000  
G24  21341533.513   113725935.4663       -481.407          31.000  
> 2019  6 16  1  4 22.0000000  0  8                     
G 2  21298243.442   113498330.161        -481.324          43.000  
G 5  21298017.002   113497118.517        -481.370          45.000  
G 3  21298243.764   113498314.327        -481.389          45.000  
G 6  21298019.868   113497147.517        -481.233          36.000  
G 9  21252530.749   113258151.068        -481.386          33.000  
G 4  21298247.618   113498394.699        -481.364          44.000  
G 1  21298251.124   113498395.049        -481.370          41.000  
G24  21341625.483   113726416.8002       -481.003          31.000  
> 2019  6 16  1  4 23.0000000  0  8                     
G 2  21298335.231   113498811.570        -481.487          43.000  
G 5  21298108.777   113497599.937        -481.495          45.000  
G 3  21298335.435   113498795.736        -481.331          45.000  
G 6  21298111.598   113497628.932        -481.376          36.000  
G 9  21252622.426   113258632.502        -481.785          32.000  
G 4  21298339.326   113498876.108        -481.339          44.000  
G 1  21298342.914   113498876.458        -481.401          41.000  
G24  21341716.990   113726898.2662       -482.415          30.000  
> 2019  6 16  1  4 24.0000000  0  8                     
G 2  21298426.748   113499292.920        -481.389          43.000  
G 5  21298200.553   113498081.295        -481.427          45.000  
G 3  21298427.171   113499277.099        -481.318          45.000  
G 6  21298203.414   113498110.309        -481.477          36.000  
G 9  21252714.046   113259113.862        -481.577          32.000  
G 4  21298431.160   113499357.479        -481.334          44.000  
G 1  21298434.506   113499357.810        -481.305          41.000  
G24  21341808.399   113727379.6552       -483.459          29.000  
> 2019  6 16  1  4 25.0000000  0  8                     
G 2  21298518.472   113499774.375        -481.605          43.000  
G 5  21298292.274   113498562.747        -481.538          46.000  
G 3  21298518.811   113499758.547        -481.498          45.000  
G 6  21298295.245   113498591.754        -481.545          36.000  
G 9  21252805.719   113259595.291        -481.320          32.000  
G 4  21298522.923   113499838.920        -481.373          44.000  
G 1  21298526.115   113499839.267        -481.464          41.000  
G24  21341899.927   113727860.0943       -481.990          30.000  
> 2019  6 16  1  4 26.0000000  0  8                     
G 2  21298610.277   113500255.844        -481.555          43.000  
G 5  21298383.944   113499044.219        -481.434          46.000  
G 3  21298610.497   113500240.017        -481.434          45.000  
G 6  21298387.029   113499073.240        -481.687          36.000  
G 9  21252897.529   113260076.763        -481.382          32.000  
G 4  21298614.680   113500320.392        -481.401          44.000  
G 1  21298617.744   113500320.736        -481.423          41.000  
G24  21341991.535   113728341.5542       -482.264          29.000  
> 2019  6 16  1  4 27.0000000  0  8                     
G 2  21298702.002   113500737.312        -481.528          43.000  
G 5  21298475.648   113499525.686        -481.553          45.000  
G 3  21298702.173   113500721.493        -481.476          45.000  
G 6  21298478.751   113499554.695        -481.733          36.000  
G 9  21252989.218   113260558.241        -480.957          33.000  
G 4  21298706.420   113500801.868        -481.434          45.000  
G 1  21298709.486   113500802.215        -481.538          41.000  
G24  21342083.106   113728822.9982       -481.979          29.000  
> 2019  6 16  1  4 28.0000000  0  8                     
G 2  21298793.775   113501218.768        -481.547          43.000  
G 5  21298567.360   113500007.145        -481.708          45.000  
G 3  21298793.971   113501202.946        -481.571          46.000  
G 6  21298570.464   113500036.165        -481.862          36.000  
G 9  21253080.929   113261039.684        -481.431          33.000  
G 4  21298798.237   113501283.324        -481.600          45.000  
G 1  21298801.237   113501283.657        -481.611          42.000  
G24  21342174.839   113729304.4742       -482.172          30.000  
> 2019  6 16  1  4 29.0000000  0  8                     
G 2  21298885.504   113501700.242        -481.519          43.000  
G 5  21298659.048   113500488.610        -481.616          45.000  
G 3  21298885.718   113501684.414        -481.509          45.000  
G 6  21298662.133   113500517.639        -481.708          36.000  
G 9  21253172.593   113261521.187        -481.592          33.000  
G 4  21298889.813   113501764.789        -481.592          44.000  
G 1  21298893.027   113501765.129        -481.560          42.000  
G24  21342266.437   113729785.9192       -481.464          30.000  
> 2019  6 16  1  4 30.0000000  0  8                     
G 2  21298977.252   113502181.720        -481.732          43.000  
G 5  21298750.738   113500970.087        -481.710          45.000  
G 3  21298977.441   113502165.889        -481.570          45.000  
G 6  21298753.882   113500999.106        -481.716          36.000  
G 9  21253264.334   113262002.655        -482.073          33.000  
G 4  21298981.397   113502246.262        -481.686          44.000  
G 1  21298984.789   113502246.605        -481.721          42.000  
G24  21342357.844   113730267.3953       -481.800          29.000  
> 2019  6 16  1  4 31.0000000  0  8                     
G 2  21299068.882   113502663.228        -481.462          43.000  
G 5  21298842.351   113501451.595        -481.527          45.000  
G 3  21299069.180   113502647.401        -481.427          46.000  
G 6  21298845.757   113501480.620        -481.495          36.000  
G 9  21253356.074   113262484.166        -481.503          33.000  
G 4  21299072.978   113502727.770        -481.456          44.000  
G 1  21299076.453   113502728.115        -481.536          42.000  
G24  21342449.491   113730748.918        -482.288          30.000  
> 2019  6 16  1  4 32.0000000  0  8                     
G 2  21299160.584   113503144.664        -481.639          43.000  
G 5  21298934.003   113501933.017        -481.583          45.000  
G 3  21299160.967   113503128.817        -481.471          46.000  
G 6  21298937.462   113501962.043        -481.685          36.000  
G 9  21253447.848   113262965.610        -481.891          33.000  
G 4  21299164.686   113503209.190        -481.498          44.000  
G 1  21299168.145   113503209.543        -481.771          42.000  
G24  21342540.841   113731230.287        -481.667          30.000  
> 2019  6 16  1  4 33.0000000  0  8                     
G 2  21299252.471   113503626.173        -481.663          43.000  
G 5  21299025.618   113502414.527        -481.514          45.000  
G 3  21299252.770   113503610.323        -481.288          46.000  
G 6  21299029.172   113502443.553        -481.749          36.000  
G 9  21253539.598   113263447.115        -481.668          33.000  
G 4  21299256.410   113503690.694        -481.416          44.000  
G 1  21299259.746   113503691.054        -481.665          41.000  
G24  21342632.401   113731711.818        -482.050          30.000  
> 2019  6 16  1  4 34.0000000  0  8                     
G 2  21299344.155   113504107.634        -481.587          44.000  
G 5  21299117.324   113502895.995        -481.561          45.000  
G 3  21299344.566   113504091.797        -481.389          45.000  
G 6  21299120.852   113502925.022        -481.630          36.000  
G 9  21253631.279   113263928.583        -481.855          32.000  
G 4  21299348.270   113504172.160        -481.398          44.000  
G 1  21299351.439   113504172.520        -481.636          42.000  
G24  21342723.894   113732193.322        -482.634          30.000  
