     3.02           OBSERVATION DATA    G: GPS              RINEX VERSION / TYPE
RTKCONV 2.4.3                           20200430 005924 UTC PGM / RUN BY / DATE 
log: D:\FastData\IF_Test\0429-C7สตั้\2020-04-29-zhanghan-u  COMMENT             
format: u-blox                                              COMMENT             
                                                            MARKER NAME         
                                                            MARKER NUMBER       
                                                            MARKER TYPE         
                                                            OBSERVER / AGENCY   
                                                            REC # / TYPE / VERS 
                                                            ANT # / TYPE        
        0.0000        0.0000        0.0000                  APPROX POSITION XYZ 
        0.0000        0.0000        0.0000                  ANTENNA: DELTA H/E/N
G    4 C1C L1C D1C S1C                                      SYS / # / OBS TYPES 
  2019     6    16     0    59   34.1000000     GPS         TIME OF FIRST OBS   
  2019     6    16     1     4   30.0000000     GPS         TIME OF LAST OBS    
G                                                           SYS / PHASE SHIFT   
  0                                                         GLONASS SLOT / FRQ #
 C1C    0.000 C1P    0.000 C2C    0.000 C2P    0.000        GLONASS COD/PHS/BIS 
                                                            END OF HEADER       
> 2019  6 16  0 59 34.1000000  0  8                     
G 5  51596035.819   195518836.4222       -523.029          44.000  
G 1  51596274.300   195519967.107        -522.851          38.000  
G 4  51596264.645   195519974.774        -523.015          46.000  
G 2  51596269.587   195520051.018        -522.931          44.000  
G 6  51596040.344   195518844.595        -523.096          45.000  
G 3  51596264.887   195519983.523        -522.820          44.000  
G22  51650513.670   195805061.507        -522.646          32.000  
G14  51506302.217   195047213.007        -522.841          31.000  
> 2019  6 16  0 59 35.1000000  0  8                     
G 5  51596135.419   195519359.3592       -522.826          44.000  
G 1  51596373.824   195520490.044        -522.835          39.000  
G 4  51596364.163   195520497.717        -522.905          47.000  
G 2  51596369.165   195520573.966        -522.869          44.000  
G 6  51596139.898   195519367.531        -522.967          45.000  
G 3  51596364.496   195520506.470        -522.688          44.000  
G22  51650613.372   195805584.449        -522.826          32.000  
G14  51506402.017   195047735.932        -522.335          32.000  
> 2019  6 16  0 59 36.1000000  0  8                     
G 5  51596235.096   195519882.3482       -523.078          45.000  
G 1  51596473.431   195521013.040        -523.014          38.000  
G 4  51596463.820   195521020.705        -523.134          46.000  
G 2  51596468.784   195521096.954        -523.011          44.000  
G 6  51596239.502   195519890.527        -523.206          45.000  
G 3  51596464.153   195521029.465        -523.049          44.000  
G22  51650713.111   195806107.447        -523.022          33.000  
G14  51506501.730   195048258.943        -523.007          31.000  
> 2019  6 16  0 59 37.0000000  0  8                     
G 5  21617088.871   113598568.3463       -522.986          44.000  
G 1  21617327.190   113599696.036        -522.918          38.000  
G 4  21617317.674   113599770.2053       -523.011          46.000  
G 2  21617322.564   113599779.960        -523.071          44.000  
G 6  21617093.289   113598573.521        -523.156          45.000  
G 3  21617318.007   113599712.469        -523.050          45.000  
G22  21671567.057   113884790.441        -522.823          32.000  
G14  21527355.661   113126941.950        -523.140          31.000  
> 2019  6 16  0 59 38.0000000  0  8                     
G 5  21617188.562   113599091.4002       -523.102          44.000  
G 1  21617426.751   113600219.088        -523.039          38.000  
G 4  21617417.239   113600293.2512       -523.093          46.000  
G 2  21617422.197   113600303.004        -522.994          44.000  
G 6  21617192.843   113599096.571        -523.053          45.000  
G 3  21617417.685   113600235.504        -523.134          45.000  
G22  21671666.643   113885313.485        -523.117          33.000  
G14  21527455.302   113127465.000        -523.799          31.000  
> 2019  6 16  0 59 39.0000000  0  8                     
G 5  21617288.191   113599614.4422       -522.938          45.000  
G 1  21617526.447   113600742.124        -522.909          38.000  
G 4  21617516.839   113600816.2912       -523.018          46.000  
G 2  21617521.726   113600826.046        -522.885          44.000  
G 6  21617292.622   113599619.609        -522.916          45.000  
G 3  21617517.328   113600758.543        -522.934          44.000  
G22  21671766.340   113885836.530        -523.068          32.000  
G14  21527554.827   113127988.034        -523.535          31.000  
> 2019  6 16  0 59 40.0000000  0  8                     
G 5  21617387.845   113600137.4542       -522.980          45.000  
G 1  21617626.190   113601265.147        -522.979          38.000  
G 4  21617616.432   113601339.2982       -523.030          46.000  
G 2  21617621.328   113601349.067        -523.021          44.000  
G 6  21617392.314   113600142.621        -522.859          45.000  
G 3  21617616.896   113601281.553        -522.871          44.000  
G22  21671866.103   113886359.556        -522.863          33.000  
G14  21527654.538   113128511.044        -523.357          31.000  
> 2019  6 16  0 59 41.0000000  0  8                     
G 5  21617487.504   113600660.4962       -522.948          45.000  
G 1  21617725.740   113601788.179        -522.967          38.000  
G 4  21617716.132   113601862.3452       -523.014          46.000  
G 2  21617720.862   113601872.095        -522.739          44.000  
G 6  21617491.984   113600665.666        -522.919          45.000  
G 3  21617716.490   113601804.595        -522.826          44.000  
G22  21671966.000   113886882.599        -523.095          33.000  
G14  21527754.191   113129034.084        -523.320          32.000  
> 2019  6 16  0 59 42.0000000  0  8                     
G 5  21617587.161   113601183.5672       -523.012          45.000  
G 1  21617825.260   113602311.248        -523.108          38.000  
G 4  21617815.753   113602385.4082       -522.966          46.000  
G 2  21617820.450   113602395.168        -522.881          44.000  
G 6  21617591.608   113601188.730        -522.835          45.000  
G 3  21617816.115   113602327.664        -522.916          44.000  
G22  21672065.701   113887405.671        -523.294          33.000  
G14  21527853.811   113129557.154        -523.312          31.000  
> 2019  6 16  0 59 43.0000000  0  8                     
G 5  21617686.828   113601710.5903       -523.188          45.000  
G 1  21617924.955   113602961.7593       -523.040          39.000  
G 4  21617915.222   113602910.4273       -523.122          46.000  
G 2  21617920.054   113602936.1853       -523.073          44.000  
G 6  21617691.315   113601733.7473       -522.987          45.000  
G 3  21617915.823   113602913.6883       -523.134          44.000  
G22  21672165.485   113887998.2023       -523.330          32.000  
G14  21527953.347   113130157.6943       -523.801          31.000  
> 2019  6 16  0 59 44.0000000  0  8                     
G 5  21617786.521   113602234.6072       -523.121          45.000  
G 1  21618024.743   113603486.7822       -522.909          39.000  
G 4  21618014.986   113603435.4492       -523.173          46.000  
G 2  21618019.660   113603459.2062       -523.082          45.000  
G 6  21617790.936   113602257.7702       -523.008          45.000  
G 3  21618015.397   113603436.7032       -523.070          44.000  
G22  21672265.155   113888521.2192       -522.990          32.000  
G14  21528053.003   113130681.7032       -523.224          32.000  
> 2019  6 16  0 59 45.0000000  0  8                     
G 5  21617886.234   113602757.5812       -522.942          45.000  
G 1  21618124.172   113604009.7462       -522.824          39.000  
G 4  21618114.622   113603958.4242       -522.999          46.000  
G 2  21618119.206   113603982.1832       -522.940          44.000  
G 6  21617890.564   113602780.7432       -522.884          44.000  
G 3  21618114.974   113603959.6762       -522.900          45.000  
G22  21672364.916   113889044.1832       -522.840          32.000  
G14  21528152.701   113131204.6902       -523.480          32.000  
> 2019  6 16  0 59 46.0000000  0  8                     
G 5  21617985.843   113603280.5602       -523.206          44.000  
G 1  21618223.872   113604532.7372       -522.972          39.000  
G 4  21618214.285   113604481.4132       -523.255          46.000  
G 2  21618218.848   113604505.1672       -523.091          44.000  
G 6  21617990.221   113603303.7252       -523.109          45.000  
G 3  21618214.652   113604482.6702       -523.251          45.000  
G22  21672464.511   113889567.1652       -523.441          33.000  
G14  21528252.329   113131727.6892       -523.970          32.000  
> 2019  6 16  0 59 47.0000000  0  8                     
G 5  21618085.465   113603805.5993       -523.195          44.000  
G 1  21618323.592   113605056.7773       -522.891          39.000  
G 4  21618313.956   113605006.4413       -523.144          46.000  
G 2  21618318.528   113605030.2043       -523.116          44.000  
G 6  21618089.794   113603827.7633       -523.154          45.000  
G 3  21618314.275   113605007.7113       -523.134          45.000  
G22  21672564.209   113890093.2053       -522.971          32.000  
G14  21528352.053   113132252.7463       -523.472          32.000  
> 2019  6 16  0 59 48.0000000  0  8                     
G 5  21618185.146   113604329.6762       -523.117          44.000  
G 1  21618423.315   113605580.8632       -523.069          38.000  
G 4  21618413.444   113605528.5192       -523.116          45.000  
G 2  21618418.228   113605554.2812       -523.071          44.000  
G 6  21618189.322   113604350.8342       -523.125          45.000  
G 3  21618413.954   113605531.7902       -523.146          45.000  
G22  21672663.902   113890617.2712       -523.129          32.000  
G14  21528451.777   113132776.7972       -523.359          31.000  
> 2019  6 16  0 59 49.0000000  0  8                     
G 5  21618284.672   113604852.7023       -523.066          44.000  
G 1  21618522.901   113606103.8863       -522.983          38.000  
G 4  21618513.021   113606052.5393       -522.933          46.000  
G 2  21618517.894   113606077.3143       -523.136          44.000  
G 6  21618288.962   113604874.8613       -523.001          45.000  
G 3  21618513.671   113606055.8053       -523.013          45.000  
G22  21672763.523   113891140.2983       -522.891          32.000  
G14  21528551.423   113133300.8183       -523.445          31.000  
> 2019  6 16  0 59 50.0000000  0  8                     
G 5  21618384.274   113605375.7392       -523.187          44.000  
G 1  21618622.511   113606626.9262       -523.217          38.000  
G 4  21618612.684   113606575.5862       -523.125          46.000  
G 2  21618617.606   113606600.3562       -523.269          44.000  
G 6  21618388.493   113605397.9112       -523.208          45.000  
G 3  21618613.351   113606578.8552       -523.148          44.000  
G22  21672863.153   113891663.3472       -522.863          32.000  
G14  21528651.004   113133823.8392       -523.420          31.000  
> 2019  6 16  0 59 51.0000000  0  8                     
G 5  21618483.897   113605898.7572       -522.969          44.000  
G 1  21618722.080   113607149.9362       -522.861          39.000  
G 4  21618712.315   113607098.5972       -522.849          46.000  
G 2  21618717.204   113607123.3682       -522.943          44.000  
G 6  21618488.120   113605920.9222       -522.985          45.000  
G 3  21618712.949   113607101.8592       -522.945          45.000  
G22  21672962.758   113892186.3632       -522.566          32.000  
G14  21528750.537   113134346.8512       -523.203          32.000  
> 2019  6 16  0 59 52.0000000  0  8                     
G 5  21618583.471   113606421.6312       -523.002          44.000  
G 1  21618821.531   113607672.7982       -522.884          39.000  
G 4  21618811.913   113607621.4632       -522.728          46.000  
G 2  21618816.792   113607646.2382       -522.910          44.000  
G 6  21618587.738   113606443.7932       -522.934          45.000  
G 3  21618812.623   113607624.7252       -522.825          45.000  
G22  21673062.398   113892709.2172       -522.661          31.000  
G14  21528850.051   113134869.7182       -523.112          31.000  
> 2019  6 16  0 59 53.0000000  0  8                     
G 5  21618682.989   113606944.5132       -523.005          44.000  
G 1  21618920.931   113608195.6832       -522.932          39.000  
G 4  21618911.589   113608144.3532       -522.874          46.000  
G 2  21618916.336   113608169.1292       -523.101          44.000  
G 6  21618687.271   113606966.6802       -523.021          45.000  
G 3  21618912.139   113608147.6102       -522.928          44.000  
G22  21673162.022   113893232.1082       -522.833          31.000  
G14  21528949.630   113135393.6213       -523.247          31.000  
> 2019  6 16  0 59 54.0000000  0  8                     
G 5  21618782.618   113607467.5122       -523.189          44.000  
G 1  21619020.430   113608718.6922       -523.240          39.000  
G 4  21619011.182   113608667.3492       -523.007          46.000  
G 2  21619015.908   113608692.1222       -523.350          44.000  
G 6  21618786.964   113607489.6852       -523.242          45.000  
G 3  21619011.731   113608670.6222       -523.288          45.000  
G22  21673261.729   113893755.1372       -523.122          32.000  
G14  21529049.091   113135915.6252       -523.688          31.000  
> 2019  6 16  0 59 55.0000000  0  8                     
G 5  21618882.153   113607990.523        -522.817          44.000  
G 1  21619119.917   113609241.1991       -522.785          39.000  
G 4  21619110.671   113609189.8651       -522.672          46.000  
G 2  21619115.484   113609215.134        -522.895          44.000  
G 6  21618886.547   113608012.702        -523.014          45.000  
G 3  21619111.324   113609193.633        -522.907          44.000  
G22  21673361.290   113894277.6451       -522.670          32.000  
G14  21529148.516   113136438.1391       -523.346          31.000  
> 2019  6 16  0 59 56.0000000  0  8                     
G 5  21618981.720   113608513.528        -523.246          44.000  
G 1  21619219.566   113609764.189        -523.114          38.000  
G 4  21619210.195   113609712.866        -523.128          46.000  
G 2  21619215.108   113609738.129        -523.286          44.000  
G 6  21618986.188   113608535.697        -523.204          45.000  
G 3  21619210.970   113609716.627        -523.268          45.000  
G22  21673460.910   113894800.657        -523.224          32.000  
G14  21529248.093   113136961.119        -523.190          30.000  
> 2019  6 16  0 59 57.0000000  0  8                     
G 5  21619081.331   113609036.612        -523.090          44.000  
G 1  21619319.139   113610287.298        -523.262          38.000  
G 4  21619309.788   113610235.949        -523.008          46.000  
G 2  21619314.733   113610261.220        -523.174          44.000  
G 6  21619085.918   113609058.788        -523.163          45.000  
G 3  21619310.580   113610239.717        -523.096          45.000  
G22  21673560.527   113895323.728        -523.065          33.000  
G14  21529347.620   113137484.216        -523.365          31.000  
> 2019  6 16  0 59 58.0000000  0  8                     
G 5  21619181.000   113609559.739        -522.983          44.000  
G 1  21619418.862   113610810.420        -523.169          38.000  
G 4  21619409.368   113610759.073        -522.916          46.000  
G 2  21619414.401   113610784.342        -523.038          44.000  
G 6  21619185.562   113609581.911        -523.005          45.000  
G 3  21619410.255   113610762.843        -523.024          45.000  
G22  21673660.050   113895846.862        -523.269          33.000  
G14  21529447.268   113138007.345        -523.400          31.000  
> 2019  6 16  0 59 59.0000000  0  8                     
G 5  21619280.656   113610082.872        -523.159          44.000  
G 1  21619518.530   113611333.550        -523.426          38.000  
G 4  21619508.996   113611282.207        -523.151          46.000  
G 2  21619514.057   113611307.476        -523.185          44.000  
G 6  21619285.227   113610105.040        -523.141          45.000  
G 3  21619509.972   113611285.965        -523.083          45.000  
G22  21673759.656   113896369.977        -522.757          33.000  
G14  21529546.893   113138530.502        -523.596          31.000  
> 2019  6 16  1  0  0.0000000  0  8                     
G 5  21619380.159   113610605.947        -523.214          44.000  
G 1  21619618.285   113611856.644        -523.548          38.000  
G 4  21619608.604   113611805.288        -523.225          46.000  
G 2  21619613.757   113611830.547        -523.195          44.000  
G 6  21619384.795   113610628.113        -523.168          45.000  
G 3  21619609.550   113611809.050        -523.188          45.000  
G22  21673859.183   113896893.051        -523.361          33.000  
G14  21529646.548   113139053.557        -523.335          32.000  
> 2019  6 16  1  0  1.0000000  0  8                     
G 5  21619479.779   113611128.964        -522.989          44.000  
G 1  21619718.048   113612379.672        -523.377          38.000  
G 4  21619708.175   113612328.307        -523.078          46.000  
G 2  21619713.409   113612353.576        -523.100          44.000  
G 6  21619484.395   113611151.130        -522.956          45.000  
G 3  21619709.138   113612332.074        -523.069          45.000  
G22  21673958.797   113897416.066        -522.974          33.000  
G14  21529746.284   113139576.607        -523.552          31.000  
> 2019  6 16  1  0  2.0000000  0  8                     
G 5  21619579.443   113611651.962        -522.921          44.000  
G 1  21619817.665   113612902.649        -523.093          38.000  
G 4  21619807.702   113612851.304        -523.096          46.000  
G 2  21619813.076   113612876.571        -523.100          45.000  
G 6  21619584.049   113611674.129        -522.989          45.000  
G 3  21619808.745   113612855.066        -523.027          45.000  
G22  21674058.314   113897939.058        -522.926          32.000  
G14  21529845.886   113140099.599        -523.575          31.000  
> 2019  6 16  1  0  3.0000000  0  8                     
G 5  21619679.012   113612175.021        -522.964          44.000  
G 1  21619917.325   113613425.712        -523.167          38.000  
G 4  21619907.310   113613374.365        -523.171          46.000  
G 2  21619912.684   113613399.630        -523.114          45.000  
G 6  21619683.641   113612197.184        -522.903          45.000  
G 3  21619908.490   113613378.119        -522.961          45.000  
G22  21674157.922   113898462.103        -522.725          32.000  
G14  21529945.451   113140622.630        -523.217          31.000  
> 2019  6 16  1  0  4.0000000  0  8                     
G 5  21619778.624   113612698.082        -522.993          44.000  
G 1  21620017.005   113613948.788        -523.448          38.000  
G 4  21620006.959   113613897.434        -523.244          46.000  
G 2  21620012.401   113613922.699        -523.214          44.000  
G 6  21619783.335   113612720.247        -522.966          45.000  
G 3  21620008.166   113613901.195        -523.176          45.000  
G22  21674257.586   113898985.185        -523.062          32.000  
G14  21530045.174   113141145.713        -523.408          31.000  
> 2019  6 16  1  0  5.0000000  0  8                     
G 5  21619878.344   113613221.140        -522.912          45.000  
G 1  21620116.784   113614471.847        -523.275          39.000  
G 4  21620106.547   113614420.492        -523.232          45.000  
G 2  21620112.041   113614445.752        -523.064          44.000  
G 6  21619882.880   113613243.310        -522.977          45.000  
G 3  21620107.861   113614424.251        -523.112          45.000  
G22  21674357.250   113899508.237        -523.072          32.000  
G14  21530144.771   113141668.717        -522.535          31.000  
> 2019  6 16  1  0  6.0000000  0  8                     
G 5  21619977.865   113613744.202        -522.928          44.000  
G 1  21620216.339   113614994.897        -523.143          38.000  
G 4  21620206.245   113614943.559        -523.160          46.000  
G 2  21620211.637   113614968.818        -523.125          44.000  
G 6  21619982.495   113613766.375        -523.000          45.000  
G 3  21620207.522   113614947.315        -523.014          45.000  
G22  21674456.868   113900031.301        -523.222          32.000  
G14  21530244.382   113142191.753        -522.207          31.000  
> 2019  6 16  1  0  7.0000000  0  8                     
G 5  21620077.478   113614267.162        -522.820          44.000  
G 1  21620315.808   113615517.853        -523.014          38.000  
G 4  21620305.863   113615466.518        -523.049          46.000  
G 2  21620311.203   113615491.779        -523.036          44.000  
G 6  21620082.116   113614289.334        -522.874          45.000  
G 3  21620307.162   113615470.274        -522.867          45.000  
G22  21674556.428   113900554.273        -523.257          32.000  
G14  21530344.009   113142714.725        -522.346          32.000  
> 2019  6 16  1  0  8.0000000  0  8                     
G 5  21620177.093   113614790.031        -522.832          44.000  
G 1  21620415.506   113616040.728        -523.167          38.000  
G 4  21620405.459   113615989.388        -523.116          46.000  
G 2  21620410.753   113616014.648        -523.016          45.000  
G 6  21620181.765   113614812.209        -522.952          45.000  
G 3  21620406.740   113615993.144        -522.979          45.000  
G22  21674656.094   113901077.183        -523.615          32.000  
G14  21530443.644   113143237.616        -522.528          32.000  
> 2019  6 16  1  0  9.0000000  0  8                     
G 5  21620276.737   113615312.869        -522.523          44.000  
G 1  21620514.942   113616563.551        -522.576          38.000  
G 4  21620505.064   113616512.223        -522.794          46.000  
G 2  21620510.358   113616537.477        -522.591          45.000  
G 6  21620281.392   113615335.044        -522.620          45.000  
G 3  21620506.372   113616515.980        -522.614          45.000  
G22  21674755.703   113901600.023        -523.048          32.000  
G14  21530543.294   113143760.467        -522.446          32.000  
> 2019  6 16  1  0 10.0000000  0  8                     
G 5  21620376.336   113615835.759        -522.792          44.000  
G 1  21620614.591   113617086.450        -522.871          39.000  
G 4  21620604.666   113617035.104        -522.900          45.000  
G 2  21620609.991   113617060.369        -522.887          45.000  
G 6  21620380.972   113615857.925        -522.883          45.000  
G 3  21620606.010   113617038.865        -522.856          45.000  
G22  21674855.155   113902122.864        -523.329          32.000  
G14  21530642.946   113144283.346        -522.249          32.000  
> 2019  6 16  1  0 11.0000000  0  8                     
G 5  21620475.930   113616358.721        -523.244          44.000  
G 1  21620714.243   113617609.394        -522.988          38.000  
G 4  21620704.274   113617558.069        -523.299          46.000  
G 2  21620709.651   113617583.325        -523.155          44.000  
G 6  21620480.610   113616380.883        -523.232          45.000  
G 3  21620705.580   113617561.829        -523.278          45.000  
G22  21674954.812   113902645.853        -523.462          33.000  
G14  21530742.755   113144806.336        -523.060          32.000  
> 2019  6 16  1  0 12.0000000  0  8                     
G 5  21620575.500   113616881.609        -522.734          44.000  
G 1  21620813.792   113618132.300        -522.726          38.000  
G 4  21620803.874   113618080.950        -522.716          46.000  
G 2  21620809.244   113618106.216        -522.738          44.000  
G 6  21620580.117   113616903.774        -522.740          45.000  
G 3  21620805.164   113618084.719        -522.819          45.000  
G22  21675054.393   113903168.712        -522.719          32.000  
G14  21530842.378   113145329.189        -522.399          32.000  
> 2019  6 16  1  0 13.0000000  0  8                     
G 5  21620675.133   113617404.452        -522.837          44.000  
G 1  21620913.363   113618655.132        -522.568          38.000  
G 4  21620903.524   113618603.801        -522.847          45.000  
G 2  21620908.883   113618629.064        -522.694          44.000  
G 6  21620679.696   113617426.620        -522.858          45.000  
G 3  21620904.821   113618607.563        -522.871          45.000  
G22  21675153.973   113903691.565        -522.858          32.000  
G14  21530941.984   113145852.061        -522.820          31.000  
> 2019  6 16  1  0 14.0000000  0  8                     
G 5  21620774.714   113617927.319        -522.980          44.000  
G 1  21621012.890   113619177.999        -522.863          38.000  
G 4  21621003.073   113619126.662        -522.957          45.000  
G 2  21621008.482   113619151.932        -522.968          44.000  
G 6  21620779.257   113617949.488        -523.070          45.000  
G 3  21621004.380   113619130.431        -523.123          45.000  
G22  21675253.414   113904214.408        -523.230          32.000  
G14  21531041.639   113146374.899        -522.491          32.000  
> 2019  6 16  1  0 15.0000000  0  8                     
G 5  21620874.328   113618450.154        -522.773          44.000  
G 1  21621112.436   113619700.840        -522.729          38.000  
G 4  21621102.605   113619649.509        -522.766          45.000  
G 2  21621108.045   113619674.768        -522.718          44.000  
G 6  21620878.767   113618472.323        -522.845          45.000  
G 3  21621103.894   113619653.276        -522.804          45.000  
G22  21675352.962   113904737.255        -522.683          33.000  
G14  21531141.317   113146897.755        -522.124          32.000  
> 2019  6 16  1  0 16.0000000  0  8                     
G 5  21620973.862   113618973.043        -522.819          44.000  
G 1  21621211.984   113620223.735        -522.830          39.000  
G 4  21621202.169   113620172.392        -522.682          46.000  
G 2  21621207.641   113620197.664        -522.915          45.000  
G 6  21620978.214   113619007.2163       -522.997          45.000  
G 3  21621203.495   113620176.170        -522.901          45.000  
G22  21675451.993   113905260.148        -523.317          29.000  
G14  21531240.922   113147420.632        -522.401          31.000  
> 2019  6 16  1  0 17.0000000  0  8                     
G 5  21621073.489   113619495.921        -522.829          44.000  
G 1  21621311.492   113620746.602        -522.914          39.000  
G 4  21621301.792   113620695.261        -522.696          46.000  
G 2  21621307.242   113620720.536        -522.810          44.000  
G 6  21621077.833   113619530.0903       -522.923          45.000  
G 3  21621303.074   113620699.020        -522.842          45.000  
G22  21675551.314   113905783.029        -522.593          31.000  
G14  21531340.497   113147943.482        -522.606          32.000  
> 2019  6 16  1  0 18.0000000  0  8                     
G 5  21621173.074   113620018.775        -522.900          44.000  
G 1  21621410.989   113621269.449        -522.944          39.000  
G 4  21621401.286   113621218.111        -522.679          46.000  
G 2  21621406.863   113621243.385        -522.848          44.000  
G 6  21621177.467   113620052.9462       -522.910          45.000  
G 3  21621402.600   113621221.874        -522.857          45.000  
G22  21675650.686   113906305.888        -523.349          31.000  
G14  21531440.015   113148466.363        -522.422          32.000  
> 2019  6 16  1  0 19.0000000  0  8                     
G 5  21621272.722   113620541.566        -522.896          44.000  
G 1  21621510.481   113621792.252        -523.092          38.000  
G 4  21621500.861   113621740.906        -522.793          46.000  
G 2  21621506.468   113621766.171        -522.829          44.000  
G 6  21621276.978   113620576.7343       -522.822          45.000  
G 3  21621502.160   113621744.666        -522.807          45.000  
G22  21675750.105   113906828.672        -523.161          31.000  
G14  21531539.586   113148989.160        -522.821          32.000  
> 2019  6 16  1  0 20.0000000  0  8                     
G 5  21621372.309   113621064.366        -522.802          44.000  
G 1  21621610.084   113622315.051        -522.864          38.000  
G 4  21621600.487   113622263.705        -522.693          46.000  
G 2  21621606.049   113622288.977        -522.781          44.000  
G 6  21621376.614   113621099.5462       -522.833          45.000  
G 3  21621601.778   113622267.477        -522.740          45.000  
G22  21675849.655   113907351.487        -522.956          31.000  
G14  21531639.142   113149511.972        -523.107          32.000  
> 2019  6 16  1  0 21.0000000  0  8                     
G 5  21621471.763   113621587.141        -522.744          44.000  
G 1  21621709.536   113622837.829        -522.939          39.000  
G 4  21621700.093   113622786.480        -522.573          46.000  
G 2  21621705.690   113622811.760        -522.729          44.000  
G 6  21621476.213   113621622.3242       -522.751          45.000  
G 3  21621701.345   113622790.252        -522.684          45.000  
G22  21675949.297   113907874.258        -522.859          31.000  
G14  21531738.563   113150034.725        -523.176          32.000  
> 2019  6 16  1  0 22.0000000  0  8                     
G 5  21621571.286   113622109.906        -522.844          44.000  
G 1  21621809.123   113623360.602        -523.074          38.000  
G 4  21621799.675   113623309.240        -522.751          46.000  
G 2  21621805.287   113623334.510        -522.731          44.000  
G 6  21621575.710   113622145.0802       -522.823          44.000  
G 3  21621800.870   113623313.007        -522.712          45.000  
G22  21676048.988   113908397.033        -522.854          32.000  
G14  21531838.163   113150557.498        -522.958          31.000  
> 2019  6 16  1  0 23.0000000  0  8                     
G 5  21621670.861   113622632.710        -522.981          44.000  
G 1  21621908.660   113623883.416        -523.099          38.000  
G 4  21621899.337   113623832.054        -522.884          46.000  
G 2  21621904.910   113623857.323        -522.926          44.000  
G 6  21621675.420   113622667.8852       -522.898          45.000  
G 3  21621900.434   113623835.818        -522.834          45.000  
G22  21676148.517   113908919.857        -523.029          32.000  
G14  21531937.717   113151080.310        -523.126          31.000  
> 2019  6 16  1  0 24.0000000  0  8                     
G 5  21621770.455   113623155.637        -522.912          44.000  
G 1  21622008.394   113624406.321        -522.866          39.000  
G 4  21621998.943   113624354.972        -522.913          46.000  
G 2  21622004.380   113624380.241        -522.911          44.000  
G 6  21621775.128   113623190.8082       -522.966          45.000  
G 3  21622000.128   113624358.735        -522.891          44.000  
G22  21676248.081   113909442.770        -523.082          32.000  
G14  21532037.297   113151603.245        -523.419          31.000  
> 2019  6 16  1  0 25.0000000  0  8                     
G 5  21621870.019   113623678.570        -522.969          44.000  
G 1  21622108.065   113624929.272        -523.182          38.000  
G 4  21622098.533   113624877.909        -523.003          46.000  
G 2  21622103.893   113624922.1793       -523.082          44.000  
G 6  21621874.698   113623713.748        -523.075          44.000  
G 3  21622099.708   113624881.669        -522.995          45.000  
G22  21676347.765   113909965.686        -523.227          32.000  
G14  21532136.828   113152126.6562       -523.312          31.000  
> 2019  6 16  1  0 26.0000000  0  8                     
G 5  21621969.698   113624201.564        -522.933          44.000  
G 1  21622207.686   113625452.261        -523.255          38.000  
G 4  21622198.149   113625400.902        -522.955          46.000  
G 2  21622203.527   113625446.1733       -522.931          44.000  
G 6  21621974.213   113624236.739        -522.993          44.000  
G 3  21622199.310   113625404.665        -522.901          45.000  
G22  21676447.597   113910488.698        -523.076          32.000  
G14  21532236.316   113152649.6692       -523.142          31.000  
> 2019  6 16  1  0 27.0000000  0  8                     
G 5  21622069.309   113624724.560        -522.849          44.000  
G 1  21622307.381   113625975.267        -522.899          38.000  
G 4  21622297.756   113625923.899        -522.833          46.000  
G 2  21622303.178   113625969.1752       -522.815          44.000  
G 6  21622073.988   113624759.738        -522.889          45.000  
G 3  21622298.981   113625927.662        -522.777          45.000  
G22  21676547.299   113911011.690        -523.017          32.000  
G14  21532335.878   113153172.6542       -522.915          32.000  
> 2019  6 16  1  0 28.0000000  0  8                     
G 5  21622168.877   113625247.535        -523.018          44.000  
G 1  21622406.975   113626498.237        -523.134          38.000  
G 4  21622397.429   113626446.882        -523.059          46.000  
G 2  21622402.728   113626493.1453       -522.926          44.000  
G 6  21622173.506   113625282.717        -523.035          45.000  
G 3  21622398.570   113626450.642        -523.019          45.000  
G22  21676646.983   113911534.669        -523.105          32.000  
G14  21532435.424   113153695.6352       -523.237          32.000  
> 2019  6 16  1  0 29.0000000  0  8                     
G 5  21622268.513   113625770.592        -523.015          44.000  
G 1  21622506.564   113627021.290        -522.966          38.000  
G 4  21622496.981   113626969.938        -523.054          45.000  
G 2  21622502.405   113627016.2033       -522.889          44.000  
G 6  21622273.052   113625805.768        -522.948          45.000  
G 3  21622498.126   113626973.704        -522.949          45.000  
G22  21676746.717   113912057.716        -523.029          32.000  
G14  21532534.994   113154218.6902       -522.794          31.000  
> 2019  6 16  1  0 30.0000000  0  8                     
G 5  21622368.236   113626293.554        -523.222          44.000  
G 1  21622606.319   113627544.253        -523.052          39.000  
G 4  21622596.611   113627492.902        -523.132          45.000  
G 2  21622602.037   113627539.1602       -523.060          44.000  
G 6  21622372.681   113626328.723        -523.137          45.000  
G 3  21622597.762   113627496.659        -523.135          45.000  
G22  21676846.297   113912580.673        -523.174          33.000  
G14  21532634.719   113154741.6642       -523.354          31.000  
> 2019  6 16  1  0 31.0000000  0  8                     
G 5  21622467.788   113626816.514        -522.805          44.000  
G 1  21622706.082   113628067.219        -522.856          38.000  
G 4  21622696.252   113628015.866        -522.948          45.000  
G 2  21622701.631   113628062.124        -522.897          44.000  
G 6  21622472.318   113626851.684        -522.836          45.000  
G 3  21622697.463   113628019.627        -522.968          45.000  
G22  21676945.855   113913103.647        -523.243          33.000  
G14  21532734.181   113155264.132        -523.398          31.000  
> 2019  6 16  1  0 32.0000000  0  8                     
G 5  21622567.377   113627339.379        -522.652          44.000  
G 1  21622805.750   113628590.068        -522.499          38.000  
G 4  21622795.903   113628538.733        -522.804          45.000  
G 2  21622801.237   113628584.991        -522.712          44.000  
G 6  21622571.839   113627374.551        -522.729          44.000  
G 3  21622797.130   113628542.489        -522.722          45.000  
G22  21677045.383   113913626.492        -522.783          32.000  
G14  21532833.764   113155786.993        -522.898          31.000  
> 2019  6 16  1  0 33.0000000  0  8                     
G 5  21622667.033   113627862.274        -522.881          44.000  
G 1  21622905.239   113629112.947        -522.525          38.000  
G 4  21622895.524   113629061.620        -522.925          45.000  
G 2  21622900.828   113629107.881        -522.926          44.000  
G 6  21622671.522   113627897.442        -522.957          44.000  
G 3  21622896.704   113629065.374        -522.875          45.000  
G22  21677144.835   113914149.395        -523.041          32.000  
G14  21532933.441   113156309.876        -522.921          31.000  
> 2019  6 16  1  0 34.0000000  0  8                     
G 5  21622766.584   113628385.083        -522.996          44.000  
G 1  21623004.837   113629635.787        -522.986          38.000  
G 4  21622995.143   113629584.424        -522.957          45.000  
G 2  21623000.434   113629630.693        -522.932          44.000  
G 6  21622771.110   113628420.254        -523.050          44.000  
G 3  21622996.337   113629588.187        -522.859          45.000  
G22  21677244.422   113914672.206        -522.787          32.000  
G14  21533033.025   113156832.693        -523.136          31.000  
> 2019  6 16  1  0 35.0000000  0  8                     
G 5  21622866.190   113628907.932        -522.737          44.000  
G 1  21623104.418   113630158.620        -522.542          39.000  
G 4  21623094.746   113630107.283        -522.851          45.000  
G 2  21623100.006   113630153.545        -522.705          44.000  
G 6  21622870.562   113628943.112        -522.886          44.000  
G 3  21623095.819   113630111.041        -522.621          45.000  
G22  21677344.018   113915195.066        -522.699          32.000  
G14  21533132.659   113157355.530        -522.474          31.000  
> 2019  6 16  1  0 36.0000000  0  8                     
G 5  21622965.829   113629430.787        -522.948          44.000  
G 1  21623203.845   113630681.474        -522.752          38.000  
G 4  21623194.270   113630630.137        -523.021          45.000  
G 2  21623199.590   113630676.400        -522.898          44.000  
G 6  21622970.150   113629465.962        -522.973          44.000  
G 3  21623195.375   113630633.888        -522.841          45.000  
G22  21677443.679   113915717.924        -522.878          33.000  
G14  21533232.374   113157878.414        -523.356          31.000  
> 2019  6 16  1  0 37.0000000  0  8                     
G 5  21623065.490   113629953.622        -522.806          44.000  
G 1  21623303.351   113631204.315        -522.524          39.000  
G 4  21623293.841   113631152.980        -522.950          45.000  
G 2  21623299.199   113631199.246        -522.913          44.000  
G 6  21623069.715   113629988.800        -522.864          44.000  
G 3  21623295.051   113631156.734        -522.789          45.000  
G22  21677543.349   113916240.737        -522.701          33.000  
G14  21533332.118   113158401.238        -522.961          31.000  
> 2019  6 16  1  0 38.0000000  0  8                     
G 5  21623165.039   113630476.449        -522.646          44.000  
G 1  21623403.043   113631727.136        -522.415          38.000  
G 4  21623393.436   113631675.800        -522.747          46.000  
G 2  21623398.747   113631722.066        -522.759          44.000  
G 6  21623169.251   113630511.617        -522.700          44.000  
G 3  21623394.674   113631679.552        -522.605          45.000  
G22  21677642.953   113916763.550        -522.234          32.000  
G14  21533431.769   113158924.050        -522.881          31.000  
> 2019  6 16  1  0 39.0000000  0  8                     
G 5  21623264.656   113630999.350        -523.153          44.000  
G 1  21623502.778   113632250.016        -522.456          38.000  
G 4  21623493.053   113632222.1643       -522.516          46.000  
G 2  21623498.365   113632244.932        -522.706          44.000  
G 6  21623268.891   113631034.506        -522.881          44.000  
G 3  21623494.238   113632202.450        -522.884          45.000  
G22  21677742.483   113917286.428        -522.130          33.000  
G14  21533531.434   113159446.936        -522.579          31.000  
> 2019  6 16  1  0 40.0000000  0  8                     
G 5  21623364.336   113631522.299        -522.842          45.000  
G 1  21623602.305   113632772.984        -522.584          39.000  
G 4  21623592.658   113632746.1512       -522.938          46.000  
G 2  21623597.961   113632767.917        -522.935          43.000  
G 6  21623368.554   113631557.467        -522.751          44.000  
G 3  21623593.845   113632725.413        -522.823          45.000  
G22  21677842.218   113917809.377        -522.084          33.000  
G14  21533631.052   113159969.904        -523.010          32.000  
> 2019  6 16  1  0 41.0000000  0  8                     
G 5  21623463.831   113632045.177        -522.863          45.000  
G 1  21623701.871   113633295.853        -522.542          39.000  
G 4  21623692.145   113633269.0273       -522.907          45.000  
G 2  21623697.451   113633290.788        -522.863          43.000  
G 6  21623468.148   113632080.344        -522.646          44.000  
G 3  21623693.395   113633248.290        -522.783          45.000  
G22  21677942.037   113918332.273        -522.186          33.000  
G14  21533730.493   113160492.771        -522.577          32.000  
> 2019  6 16  1  0 42.0000000  0  8                     
G 5  21623563.419   113632568.016        -523.084          45.000  
G 1  21623801.485   113633818.696        -522.903          38.000  
G 4  21623791.725   113633791.8652       -523.088          46.000  
G 2  21623797.001   113633813.626        -523.103          43.000  
G 6  21623567.738   113632603.180        -522.959          44.000  
G 3  21623792.914   113633771.133        -523.091          45.000  
G22  21678041.666   113918855.100        -522.601          32.000  
G14  21533830.088   113161015.621        -523.015          32.000  
> 2019  6 16  1  0 43.0000000  0  8                     
G 5  21623663.094   113633090.943        -523.222          45.000  
G 1  21623900.959   113634341.623        -523.049          39.000  
G 4  21623891.387   113634315.7863       -523.104          45.000  
G 2  21623896.568   113634336.541        -523.111          43.000  
G 6  21623667.232   113633126.107        -523.031          45.000  
G 3  21623892.501   113634294.055        -523.101          45.000  
G22  21678141.250   113919378.032        -522.578          32.000  
G14  21533929.739   113161538.545        -523.254          32.000  
> 2019  6 16  1  0 44.0000000  0  8                     
G 5  21623762.676   113633613.807        -523.052          45.000  
G 1  21624000.596   113634864.498        -522.870          39.000  
G 4  21623990.998   113634838.6502       -522.944          45.000  
G 2  21623996.184   113634859.405        -522.968          43.000  
G 6  21623766.846   113633648.976        -522.959          45.000  
G 3  21623992.089   113634816.927        -522.968          45.000  
G22  21678240.861   113919900.884        -522.431          32.000  
G14  21534029.270   113162061.405        -523.071          32.000  
> 2019  6 16  1  0 45.0000000  0  8                     
G 5  21623862.218   113634136.656        -522.964          45.000  
G 1  21624100.278   113635387.328        -522.650          39.000  
G 4  21624090.582   113635361.4902       -522.811          45.000  
G 2  21624095.766   113635382.246        -522.859          44.000  
G 6  21623866.517   113634171.810        -522.759          44.000  
G 3  21624091.660   113635339.769        -522.918          45.000  
G22  21678340.594   113920423.722        -522.291          32.000  
G14  21534128.871   113162584.271        -523.167          32.000  
> 2019  6 16  1  0 46.0000000  0  8                     
G 5  21623961.854   113634659.469        -523.042          45.000  
G 1  21624199.825   113635910.139        -522.686          39.000  
G 4  21624190.175   113635884.3042       -522.791          45.000  
G 2  21624195.358   113635905.054        -522.786          44.000  
G 6  21623966.094   113634694.629        -522.917          45.000  
G 3  21624191.292   113635862.588        -523.051          45.000  
G22  21678440.276   113920946.543        -522.709          32.000  
G14  21534228.522   113163107.084        -523.597          31.000  
> 2019  6 16  1  0 47.0000000  0  8                     
G 5  21624061.549   113635182.394        -523.180          45.000  
G 1  21624299.152   113636433.064        -522.945          39.000  
G 4  21624289.671   113636407.2392       -523.025          45.000  
G 2  21624294.959   113636427.985        -523.049          43.000  
G 6  21624065.631   113635217.561        -523.034          45.000  
G 3  21624290.891   113636385.525        -523.306          45.000  
G22  21678539.942   113921469.512        -523.147          31.000  
G14  21534328.071   113163630.018        -523.754          31.000  
> 2019  6 16  1  0 48.0000000  0  8                     
G 5  21624161.131   113635705.386        -523.204          45.000  
G 1  21624398.799   113636956.059        -522.906          39.000  
G 4  21624389.311   113636930.2242       -522.987          45.000  
G 2  21624394.515   113636950.973        -522.903          43.000  
G 6  21624165.210   113635740.552        -523.079          45.000  
G 3  21624390.562   113636908.506        -523.328          45.000  
G22  21678639.730   113921992.504        -523.077          32.000  
G14  21534427.633   113164152.984        -523.104          31.000  
> 2019  6 16  1  0 49.0000000  0  8                     
G 5  21624260.685   113636228.420        -523.270          45.000  
G 1  21624498.466   113637479.102        -523.127          39.000  
G 4  21624489.007   113637452.7521       -522.916          45.000  
G 2  21624494.145   113637474.012        -523.086          43.000  
G 6  21624264.845   113636263.585        -523.127          45.000  
G 3  21624490.156   113637431.535        -523.247          45.000  
G22  21678739.424   113922515.528        -522.826          32.000  
G14  21534527.230   113164676.028        -523.491          31.000  
> 2019  6 16  1  0 50.0000000  0  8                     
G 5  21624360.320   113636751.481        -523.193          45.000  
G 1  21624598.184   113638002.171        -523.028          39.000  
G 4  21624588.532   113637975.818        -522.891          45.000  
G 2  21624593.767   113637997.080        -523.176          44.000  
G 6  21624364.471   113636786.643        -523.092          44.000  
G 3  21624589.716   113637954.600        -523.279          45.000  
G22  21678839.127   113923038.590        -523.197          32.000  
G14  21534626.890   113165199.103        -523.301          31.000  
> 2019  6 16  1  0 51.0000000  0  8                     
G 5  21624459.928   113637274.433        -523.261          45.000  
G 1  21624697.819   113638525.094        -522.339          39.000  
G 4  21624688.239   113638498.771        -523.006          45.000  
G 2  21624693.402   113638520.021        -523.083          44.000  
G 6  21624464.025   113637309.593        -523.012          44.000  
G 3  21624689.311   113638477.539        -523.108          45.000  
G22  21678938.771   113923561.518        -522.626          32.000  
G14  21534726.503   113165721.940        -521.493          31.000  
> 2019  6 16  1  0 52.0000000  0  8                     
G 5  21624559.544   113637797.312        -522.764          44.000  
G 1  21624797.568   113639077.4983       -522.632          39.000  
G 4  21624787.816   113639021.662        -522.692          45.000  
G 2  21624793.065   113639042.912        -522.716          43.000  
G 6  21624563.610   113637832.482        -522.825          44.000  
G 3  21624788.816   113639000.430        -522.843          45.000  
G22  21679038.426   113924084.428        -522.704          33.000  
G14  21534826.055   113166244.929        -523.027          31.000  
> 2019  6 16  1  0 53.0000000  0  8                     
G 5  21624659.051   113638320.118        -522.691          44.000  
G 1  21624897.106   113639601.2863       -522.425          39.000  
G 4  21624887.475   113639544.469        -522.671          45.000  
G 2  21624892.594   113639565.711        -522.668          43.000  
G 6  21624663.099   113638355.285        -522.648          44.000  
G 3  21624888.431   113639523.232        -522.651          45.000  
G22  21679138.080   113924607.208        -522.586          33.000  
G14  21534925.644   113166767.685        -522.195          32.000  
> 2019  6 16  1  0 54.0000000  0  8                     
G 5  21624758.589   113638842.912        -522.851          44.000  
G 1  21624996.685   113640124.0942       -522.795          39.000  
G 4  21624987.136   113640067.266        -522.954          45.000  
G 2  21624992.107   113640088.499        -522.729          43.000  
G 6  21624762.654   113638878.076        -522.847          44.000  
G 3  21624987.985   113640046.029        -522.876          45.000  
G22  21679237.684   113925130.004        -522.777          32.000  
G14  21535025.185   113167290.506        -522.809          31.000  
> 2019  6 16  1  0 55.0000000  0  8                     
G 5  21325065.725   113639366.250        -522.867          45.000  
G 1  21325303.936   113640646.9211       -522.638          39.000  
G 4  21325294.374   113640590.598        -522.957          45.000  
G 2  21325299.243   113640611.832        -522.811          43.000  
G 6  21325069.840   113639401.411        -522.920          44.000  
G 3  21325295.193   113640569.361        -522.906          45.000  
G22  21379544.780   113925653.337        -522.788          33.000  
G14  21235332.455   113167813.874        -523.190          31.000  
> 2019  6 16  1  0 56.0000000  0  8                     
G 5  21325165.269   113639889.021        -523.042          45.000  
G 1  21325403.582   113641169.708        -523.064          39.000  
G 4  21325393.925   113641113.372        -523.163          45.000  
G 2  21325398.781   113641134.604        -523.046          43.000  
G 6  21325169.525   113639924.184        -522.993          44.000  
G 3  21325394.702   113641092.131        -523.010          45.000  
G22  21379644.375   113926176.097        -522.909          33.000  
G14  21235431.990   113168336.593        -522.778          31.000  
> 2019  6 16  1  0 57.0000000  0  8                     
G 5  21325264.811   113640411.802        -522.672          45.000  
G 1  21325502.942   113641692.478        -522.690          39.000  
G 4  21325493.496   113641636.151        -522.750          45.000  
G 2  21325498.301   113641657.401        -522.788          43.000  
G 6  21325269.019   113640446.964        -522.650          44.000  
G 3  21325494.352   113641614.914        -522.726          45.000  
G22  21379743.950   113926698.891        -522.656          32.000  
G14  21235531.601   113168859.396        -522.709          32.000  
> 2019  6 16  1  0 58.0000000  0  8                     
G 5  21325364.414   113640934.516        -522.671          45.000  
G 1  21325602.572   113642215.217        -522.988          39.000  
G 4  21325593.019   113642158.872        -522.880          45.000  
G 2  21325597.881   113642180.112        -522.661          43.000  
G 6  21325368.641   113640969.689        -522.800          44.000  
G 3  21325594.002   113642137.632        -522.672          45.000  
G22  21379843.466   113927221.633        -523.060          32.000  
G14  21235631.221   113169382.149        -523.293          32.000  
> 2019  6 16  1  0 59.0000000  0  8                     
G 5  21325464.043   113641457.298        -522.717          45.000  
G 1  21325702.321   113642737.982        -522.512          39.000  
G 4  21325692.517   113642681.647        -522.748          45.000  
G 2  21325697.408   113642702.897        -522.771          43.000  
G 6  21325468.170   113641492.464        -522.764          44.000  
G 3  21325693.512   113642660.412        -522.747          45.000  
G22  21379943.103   113927744.374        -522.631          32.000  
G14  21235730.918   113169904.930        -523.333          32.000  
> 2019  6 16  1  1  0.0000000  0  8                     
G 5  21325563.655   113641980.057        -522.720          44.000  
G 1  21325801.966   113643260.747        -522.771          39.000  
G 4  21325792.124   113643204.406        -522.867          45.000  
G 2  21325797.021   113643225.663        -522.811          44.000  
G 6  21325567.819   113642015.221        -522.760          45.000  
G 3  21325793.089   113643183.170        -522.786          45.000  
G22  21380042.587   113928267.146        -522.872          32.000  
G14  21235830.498   113170427.637        -522.218          31.000  
> 2019  6 16  1  1  1.0000000  0  8                     
G 5  21325663.214   113642502.803        -522.526          44.000  
G 1  21325901.437   113643783.499        -522.725          39.000  
G 4  21325891.694   113643727.155        -522.644          45.000  
G 2  21325896.523   113643748.421        -522.748          44.000  
G 6  21325667.392   113642537.967        -522.574          44.000  
G 3  21325892.616   113643705.919        -522.605          45.000  
G22  21380141.921   113928789.882        -522.543          33.000  
G14  21235930.110   113170950.397        -522.320          31.000  
> 2019  6 16  1  1  2.0000000  0  8                     
G 5  21325762.745   113643025.623        -522.643          44.000  
G 1  21326001.119   113644306.326        -522.819          39.000  
G 4  21325991.243   113644249.979        -522.784          45.000  
G 2  21325996.084   113644271.246        -522.865          44.000  
G 6  21325766.994   113643060.799        -522.744          44.000  
G 3  21325992.256   113644228.739        -522.686          45.000  
G22  21380241.311   113929312.719        -522.686          32.000  
G14  21236029.617   113171473.228        -522.527          31.000  
> 2019  6 16  1  1  3.0000000  0  8                     
G 5  21325862.222   113643548.428        -522.722          45.000  
G 1  21326100.667   113644829.131        -522.958          39.000  
G 4  21326090.857   113644772.791        -522.856          45.000  
G 2  21326095.716   113644794.050        -522.910          44.000  
G 6  21325866.663   113643583.611        -522.856          44.000  
G 3  21326091.841   113644751.550        -522.854          45.000  
G22  21380340.724   113929835.531        -522.731          32.000  
G14  21236129.256   113171996.023        -522.761          32.000  
> 2019  6 16  1  1  4.0000000  0  8                     
G 5  21325961.752   113644071.113        -522.798          45.000  
G 1  21326200.198   113645351.807        -522.753          39.000  
G 4  21326190.470   113645295.460        -522.698          45.000  
G 2  21326195.316   113645316.728        -522.804          44.000  
G 6  21325966.115   113644106.289        -522.825          44.000  
G 3  21326191.511   113645274.222        -522.740          45.000  
G22  21380440.193   113930358.241        -522.899          32.000  
G14  21236228.774   113172518.689        -522.242          32.000  
> 2019  6 16  1  1  5.0000000  0  8                     
G 5  21326061.269   113644593.833        -522.719          44.000  
G 1  21326299.752   113645874.525        -522.703          38.000  
G 4  21326289.960   113645818.181        -522.657          44.000  
G 2  21326294.923   113645839.450        -522.830          43.000  
G 6  21326065.788   113644629.011        -522.825          44.000  
G 3  21326291.082   113645796.955        -522.858          44.000  
G22  21380539.722   113930880.953        -522.825          32.000  
G14  21236328.312   113173041.417        -522.585          31.000  
> 2019  6 16  1  1  6.0000000  0  8                     
G 5  21326160.730   113645116.545        -522.559          44.000  
G 1  21326399.436   113646397.253        -522.814          39.000  
G 4  21326389.585   113646340.890        -522.518          45.000  
G 2  21326394.479   113646362.162        -522.727          44.000  
G 6  21326165.322   113645151.723        -522.651          44.000  
G 3  21326390.616   113646319.668        -522.656          45.000  
G22  21380639.284   113931403.648        -522.473          32.000  
G14  21236427.882   113173564.146        -522.542          32.000  
> 2019  6 16  1  1  7.0000000  0  8                     
G 5  21326260.316   113645639.375        -522.798          44.000  
G 1  21326498.971   113646920.075        -522.943          39.000  
G 4  21326489.221   113646863.727        -522.856          45.000  
G 2  21326494.041   113646884.994        -522.886          44.000  
G 6  21326264.842   113645674.547        -522.802          44.000  
G 3  21326490.211   113646842.495        -522.891          45.000  
G22  21380738.807   113931926.499        -522.971          31.000  
G14  21236527.499   113174086.964        -522.817          32.000  
> 2019  6 16  1  1  8.0000000  0  8                     
G 5  21326359.803   113646162.145        -522.585          44.000  
G 1  21326598.640   113647442.853        -522.859          39.000  
G 4  21326588.815   113647386.499        -522.709          45.000  
G 2  21326593.613   113647407.754        -522.812          44.000  
G 6  21326364.436   113646197.310        -522.676          44.000  
G 3  21326589.891   113647365.262        -522.666          45.000  
G22  21380838.359   113932449.258        -523.004          32.000  
G14  21236627.010   113174609.706        -522.140          31.000  
> 2019  6 16  1  1  9.0000000  0  8                     
G 5  21326459.353   113646684.917        -522.695          44.000  
G 1  21326698.294   113647965.617        -522.871          38.000  
G 4  21326688.370   113647909.260        -522.589          45.000  
G 2  21326693.242   113647930.531        -522.655          44.000  
G 6  21326463.991   113646720.091        -522.661          44.000  
G 3  21326689.457   113647888.033        -522.689          45.000  
G22  21380937.796   113932972.033        -522.981          32.000  
G14  21236726.555   113175132.503        -522.546          31.000  
> 2019  6 16  1  1 10.0000000  0  8                     
G 5  21326558.981   113647207.741        -522.852          44.000  
G 1  21326797.922   113648488.449        -522.937          39.000  
G 4  21326787.967   113648432.100        -522.855          45.000  
G 2  21326792.958   113648453.361        -522.882          44.000  
G 6  21326563.581   113647242.920        -522.902          45.000  
G 3  21326789.022   113648410.869        -522.828          45.000  
G22  21381037.285   113933494.882        -523.225          32.000  
G14  21236826.106   113175655.326        -522.737          31.000  
> 2019  6 16  1  1 11.0000000  0  8                     
G 5  21326658.686   113647730.597        -522.789          44.000  
G 1  21326897.245   113649011.286        -522.943          39.000  
G 4  21326887.406   113648954.939        -522.717          45.000  
G 2  21326892.508   113648976.189        -522.675          43.000  
G 6  21326663.158   113647765.766        -522.781          45.000  
G 3  21326888.598   113648933.717        -522.777          45.000  
G22  21381136.903   113934017.728        -523.165          32.000  
G14  21236925.752   113176178.203        -523.008          31.000  
> 2019  6 16  1  1 12.0000000  0  8                     
G 5  21326758.299   113648253.378        -522.864          44.000  
G 1  21326996.894   113649534.073        -522.965          39.000  
G 4  21326987.009   113649477.725        -522.954          45.000  
G 2  21326992.022   113649498.971        -522.852          43.000  
G 6  21326762.778   113648288.541        -522.920          44.000  
G 3  21326988.211   113649456.487        -522.921          45.000  
G22  21381236.541   113934540.483        -523.408          33.000  
G14  21237025.278   113176700.995        -523.349          31.000  
> 2019  6 16  1  1 13.0000000  0  8                     
G 5  21326857.824   113648776.142        -522.745          45.000  
G 1  21327096.506   113650056.850        -522.981          39.000  
G 4  21327086.645   113650000.490        -522.770          45.000  
G 2  21327091.589   113650021.743        -522.804          43.000  
G 6  21326862.309   113648811.315        -522.848          44.000  
G 3  21327087.763   113649979.256        -522.728          45.000  
G22  21381336.185   113935063.245        -523.224          33.000  
G14  21237124.912   113177223.776        -523.174          31.000  
> 2019  6 16  1  1 14.0000000  0  8                     
G 5  21326957.457   113649298.883        -522.852          45.000  
G 1  21327196.031   113650579.591        -523.064          39.000  
G 4  21327186.255   113650523.225        -522.747          45.000  
G 2  21327191.099   113650544.493        -522.830          43.000  
G 6  21326961.784   113649334.058        -522.898          44.000  
G 3  21327187.355   113650501.999        -522.772          45.000  
G22  21381435.710   113935586.002        -523.290          33.000  
G14  21237224.484   113177746.490        -522.857          31.000  
> 2019  6 16  1  1 15.0000000  0  8                     
G 5  21327057.039   113649821.540        -522.789          44.000  
G 1  21327295.678   113651102.242        -523.019          39.000  
G 4  21327285.831   113651045.887        -522.753          45.000  
G 2  21327290.669   113651067.152        -522.772          44.000  
G 6  21327061.425   113649856.705        -522.806          44.000  
G 3  21327286.930   113651024.650        -522.789          45.000  
G22  21381535.262   113936108.665        -523.090          33.000  
G14  21237324.104   113178269.155        -522.939          32.000  
> 2019  6 16  1  1 16.0000000  0  8                     
G 5  21327156.492   113650344.172        -522.529          44.000  
G 1  21327395.368   113651638.3733       -522.889          39.000  
G 4  21327385.407   113651568.527        -522.583          45.000  
G 2  21327390.220   113651589.797        -522.688          44.000  
G 6  21327161.044   113650379.352        -522.700          44.000  
G 3  21327386.401   113651547.278        -522.604          45.000  
G22  21381634.879   113936631.297        -522.872          33.000  
G14  21237423.556   113178791.784        -522.867          32.000  
> 2019  6 16  1  1 17.0000000  0  8                     
G 5  21327256.070   113650866.867        -522.673          44.000  
G 1  21327494.864   113652161.0783       -522.985          39.000  
G 4  21327484.909   113652091.223        -522.749          45.000  
G 2  21327489.857   113652112.494        -522.836          43.000  
G 6  21327260.696   113650902.042        -522.767          45.000  
G 3  21327485.862   113652069.980        -522.666          45.000  
G22  21381734.485   113937153.991        -522.869          33.000  
G14  21237523.100   113179314.493        -523.101          32.000  
> 2019  6 16  1  1 18.0000000  0  8                     
G 5  21327355.709   113651389.577        -522.986          44.000  
G 1  21327594.306   113652683.7762       -522.974          38.000  
G 4  21327584.339   113652613.921        -522.947          45.000  
G 2  21327589.422   113652635.172        -522.870          44.000  
G 6  21327360.233   113651424.749        -523.055          44.000  
G 3  21327585.437   113652592.673        -522.817          45.000  
G22  21381833.950   113937676.665        -523.016          33.000  
G14  21237622.830   113179837.193        -523.225          32.000  
> 2019  6 16  1  1 19.0000000  0  8                     
G 5  21327455.167   113651912.322        -522.618          44.000  
G 1  21327694.049   113653206.0401       -522.836          39.000  
G 4  21327683.840   113653136.679        -522.704          45.000  
G 2  21327688.956   113653157.945        -522.697          44.000  
G 6  21327459.761   113651947.498        -522.655          44.000  
G 3  21327685.018   113653115.449        -522.700          45.000  
G22  21381933.411   113938199.400        -522.169          33.000  
G14  21237722.459   113180359.904        -522.026          31.000  
> 2019  6 16  1  1 20.0000000  0  8                     
G 5  21327554.768   113652434.991        -522.612          44.000  
G 1  21327793.617   113653728.680        -522.628          39.000  
G 4  21327783.413   113653659.335        -522.609          45.000  
G 2  21327788.529   113653680.590        -522.617          43.000  
G 6  21327559.344   113652470.151        -522.596          44.000  
G 3  21327784.530   113653638.097        -522.456          45.000  
G22  21382032.907   113938722.067        -522.485          32.000  
G14  21237822.068   113180882.598        -522.651          31.000  
> 2019  6 16  1  1 21.0000000  0  8                     
G 5  21327654.346   113652957.677        -522.786          44.000  
G 1  21327893.079   113654251.376        -522.865          39.000  
G 4  21327882.983   113654182.024        -522.705          44.000  
G 2  21327888.146   113654203.273        -522.751          44.000  
G 6  21327658.872   113652992.847        -522.795          44.000  
G 3  21327884.014   113654160.785        -522.640          45.000  
G22  21382132.588   113939244.769        -522.626          32.000  
G14  21237921.639   113181405.284        -522.816          32.000  
> 2019  6 16  1  1 22.0000000  0  8                     
G 5  21327753.879   113653480.375        -522.728          45.000  
G 1  21327992.632   113654774.062        -522.660          39.000  
G 4  21327982.571   113654704.715        -522.690          45.000  
G 2  21327987.728   113654725.978        -522.720          43.000  
G 6  21327758.410   113653515.538        -522.721          44.000  
G 3  21327983.570   113654683.486        -522.621          44.000  
G22  21382232.136   113939767.465        -522.643          33.000  
G14  21238021.119   113181927.955        -522.319          31.000  
> 2019  6 16  1  1 23.0000000  0  8                     
G 5  21327853.419   113654003.088        -522.882          44.000  
G 1  21328092.130   113655296.783        -522.999          39.000  
G 4  21328082.220   113655227.441        -522.986          45.000  
G 2  21328087.252   113655248.684        -522.800          44.000  
G 6  21327858.038   113654038.253        -522.834          44.000  
G 3  21328083.088   113655206.203        -522.799          44.000  
G22  21382331.835   113940290.183        -522.457          33.000  
G14  21238120.643   113182450.678        -522.536          31.000  
> 2019  6 16  1  1 24.0000000  0  8                     
G 5  21327953.035   113654525.686        -522.843          44.000  
G 1  21328191.579   113655819.377        -522.886          39.000  
G 4  21328181.783   113655750.031        -522.798          45.000  
G 2  21328186.849   113655771.276        -522.683          44.000  
G 6  21327957.563   113654560.848        -522.770          44.000  
G 3  21328182.606   113655728.796        -522.720          45.000  
G22  21382431.547   113940812.792        -522.831          32.000  
G14  21238220.159   113182973.274        -522.748          32.000  
> 2019  6 16  1  1 25.0000000  0  8                     
G 5  21328052.568   113655048.209        -522.354          44.000  
G 1  21328291.013   113656341.898        -522.405          39.000  
G 4  21328281.194   113656272.553        -522.313          45.000  
G 2  21328286.376   113656293.812        -522.555          44.000  
G 6  21328057.034   113655083.377        -522.384          44.000  
G 3  21328282.093   113656251.325        -522.371          45.000  
G22  21382531.280   113941335.315        -522.491          32.000  
G14  21238319.606   113183495.800        -522.162          32.000  
> 2019  6 16  1  1 26.0000000  0  8                     
G 5  21328152.062   113655570.773        -522.460          44.000  
G 1  21328390.482   113656864.466        -522.609          39.000  
G 4  21328380.754   113656795.126        -522.511          45.000  
G 2  21328385.878   113656816.378        -522.606          44.000  
G 6  21328156.521   113655605.936        -522.458          44.000  
G 3  21328381.634   113656773.885        -522.533          45.000  
G22  21382630.844   113941857.881        -522.384          32.000  
G14  21238419.153   113184018.367        -522.566          32.000  
> 2019  6 16  1  1 27.0000000  0  8                     
G 5  21328251.597   113656093.384        -522.728          44.000  
G 1  21328490.073   113657387.070        -522.657          39.000  
G 4  21328480.375   113657317.741        -522.795          45.000  
G 2  21328485.500   113657338.987        -522.777          44.000  
G 6  21328256.173   113656128.553        -522.780          44.000  
G 3  21328481.085   113657296.505        -522.823          44.000  
G22  21382730.439   113942380.464        -522.610          32.000  
G14  21238518.757   113184540.981        -522.600          32.000  
> 2019  6 16  1  1 28.0000000  0  8                     
G 5  21328351.171   113656616.052        -522.668          44.000  
G 1  21328589.675   113657909.741        -522.502          39.000  
G 4  21328579.951   113657840.403        -522.650          45.000  
G 2  21328585.041   113657861.659        -522.637          44.000  
G 6  21328355.648   113656651.220        -522.709          44.000  
G 3  21328580.646   113657819.170        -522.755          45.000  
G22  21382829.952   113942903.149        -522.664          32.000  
G14  21238618.337   113185063.652        -522.622          32.000  
> 2019  6 16  1  1 29.0000000  0  8                     
G 5  21328450.705   113657138.676        -522.712          44.000  
G 1  21328689.179   113658432.360        -522.690          38.000  
G 4  21328679.534   113658363.021        -522.747          45.000  
G 2  21328684.590   113658384.281        -522.698          43.000  
G 6  21328455.203   113657173.848        -522.810          44.000  
G 3  21328680.284   113658341.797        -522.832          45.000  
G22  21382929.542   113943425.770        -522.634          32.000  
G14  21238717.813   113185586.260        -522.853          31.000  
> 2019  6 16  1  1 30.0000000  0  8                     
G 5  21328550.226   113657661.320        -522.848          44.000  
G 1  21328788.802   113658955.005        -522.666          38.000  
G 4  21328779.165   113658885.663        -522.823          45.000  
G 2  21328784.136   113658906.928        -522.736          43.000  
G 6  21328554.904   113657696.481        -522.847          44.000  
G 3  21328779.862   113658864.430        -522.866          45.000  
G22  21383029.008   113943948.411        -522.699          32.000  
G14  21238817.333   113186108.901        -522.958          31.000  
> 2019  6 16  1  1 31.0000000  0  8                     
G 5  21328649.764   113658183.956        -522.706          44.000  
G 1  21328888.205   113659477.625        -522.468          38.000  
G 4  21328878.614   113659408.302        -522.629          45.000  
G 2  21328883.615   113659429.551        -522.632          43.000  
G 6  21328654.411   113658219.127        -522.692          44.000  
G 3  21328879.404   113659387.069        -522.646          45.000  
G22  21383128.624   113944471.099        -522.839          32.000  
G14  21238916.835   113186631.551        -522.601          31.000  
> 2019  6 16  1  1 32.0000000  0  8                     
G 5  21328749.320   113658706.556        -522.849          44.000  
G 1  21328987.574   113660000.237        -522.645          39.000  
G 4  21328978.134   113659930.906        -522.742          45.000  
G 2  21328983.121   113659952.144        -522.596          43.000  
G 6  21328753.940   113658741.728        -522.754          44.000  
G 3  21328979.012   113659909.683        -522.906          45.000  
G22  21383228.259   113944993.678        -522.760          31.000  
G14  21239016.224   113187154.163        -523.293          31.000  
> 2019  6 16  1  1 33.0000000  0  8                     
G 5  21328848.864   113659229.259        -522.678          44.000  
G 1  21329087.106   113660522.939        -522.456          39.000  
G 4  21329077.721   113660453.608        -522.664          45.000  
G 2  21329082.641   113660474.861        -522.595          44.000  
G 6  21328853.517   113659264.438        -522.682          44.000  
G 3  21329078.693   113660432.380        -522.811          44.000  
G22  21383327.853   113945516.394        -522.542          32.000  
G14  21239115.625   113187676.872        -523.305          31.000  
> 2019  6 16  1  1 34.0000000  0  8                     
G 5  21328948.461   113659751.938        -522.721          44.000  
G 1  21329186.594   113661045.613        -522.515          39.000  
G 4  21329177.317   113660976.287        -522.794          45.000  
G 2  21329182.210   113660997.534        -522.781          44.000  
G 6  21328953.009   113659787.099        -522.581          44.000  
G 3  21329178.230   113660955.037        -522.437          44.000  
G22  21383427.481   113946039.032        -521.848          31.000  
G14  21239215.177   113188199.541        -523.022          31.000  
> 2019  6 16  1  1 35.0000000  0  8                     
G 5  21329048.120   113660274.580        -522.671          44.000  
G 1  21329286.122   113661568.259        -522.473          39.000  
G 4  21329276.900   113661498.935        -522.666          45.000  
G 2  21329281.730   113661520.173        -522.551          44.000  
G 6  21329052.539   113660309.748        -522.532          44.000  
G 3  21329277.736   113661477.694        -522.625          44.000  
G22  21383527.119   113946561.679        -522.141          32.000  
G14  21239314.726   113188722.174        -522.860          32.000  
> 2019  6 16  1  1 36.0000000  0  8                     
G 5  21329147.634   113660797.195        -522.677          44.000  
G 1  21329385.696   113662090.870        -522.472          39.000  
G 4  21329376.453   113662021.538        -522.545          45.000  
G 2  21329381.231   113662042.789        -522.527          44.000  
G 6  21329152.096   113660832.357        -522.526          44.000  
G 3  21329377.374   113662000.304        -522.576          44.000  
G22  21383626.847   113947084.272        -522.238          32.000  
G14  21239414.201   113189244.802        -522.867          32.000  
> 2019  6 16  1  1 37.0000000  0  8                     
G 5  21329247.151   113661319.886        -522.797          44.000  
G 1  21329485.375   113662613.551        -522.572          39.000  
G 4  21329475.914   113662544.231        -522.797          45.000  
G 2  21329480.765   113662565.486        -522.805          44.000  
G 6  21329251.778   113661355.050        -522.816          45.000  
G 3  21329476.908   113662523.000        -522.806          44.000  
G22  21383726.451   113947606.980        -522.467          32.000  
G14  21239513.810   113189767.487        -523.343          32.000  
> 2019  6 16  1  1 38.0000000  0  8                     
G 5  21329346.706   113661842.464        -522.699          44.000  
G 1  21329584.880   113663136.140        -522.416          39.000  
G 4  21329575.469   113663066.812        -522.585          45.000  
G 2  21329580.293   113663088.070        -522.605          44.000  
G 6  21329351.173   113661877.626        -522.473          45.000  
G 3  21329576.418   113663045.576        -522.654          45.000  
G22  21383825.984   113948129.602        -522.556          32.000  
G14  21239613.284   113190290.084        -523.044          31.000  
> 2019  6 16  1  1 39.0000000  0  8                     
G 5  21329446.214   113662365.028        -522.717          44.000  
G 1  21329684.532   113663658.714        -522.584          38.000  
G 4  21329674.992   113663589.383        -522.596          45.000  
G 2  21329679.808   113663610.642        -522.645          43.000  
G 6  21329450.725   113662400.202        -522.679          44.000  
G 3  21329675.937   113663568.147        -522.690          45.000  
G22  21383925.434   113948652.163        -522.732          33.000  
G14  21239712.728   113190812.648        -523.142          31.000  
> 2019  6 16  1  1 40.0000000  0  8                     
G 5  21329545.746   113662887.681        -522.837          44.000  
G 1  21329784.108   113664181.355        -522.557          39.000  
G 4  21329774.550   113664112.036        -522.792          45.000  
G 2  21329779.420   113664133.290        -522.797          43.000  
G 6  21329550.318   113662922.852        -522.811          44.000  
G 3  21329775.418   113664090.807        -522.830          45.000  
G22  21384024.849   113949174.791        -522.819          32.000  
G14  21239812.206   113191335.319        -523.334          32.000  
> 2019  6 16  1  1 41.0000000  0  8                     
G 5  21329645.249   113663410.304        -523.018          44.000  
G 1  21329883.488   113664703.966        -522.716          38.000  
G 4  21329874.149   113664634.648        -522.883          45.000  
G 2  21329878.976   113664655.899        -522.891          43.000  
G 6  21329649.824   113663445.465        -522.877          44.000  
G 3  21329874.930   113664613.414        -523.009          45.000  
G22  21384124.364   113949697.393        -522.620          32.000  
G14  21239911.826   113191857.926        -523.438          32.000  
> 2019  6 16  1  1 42.0000000  0  8                     
G 5  21329744.921   113663932.983        -522.673          44.000  
G 1  21329983.018   113665226.656        -522.500          38.000  
G 4  21329973.739   113665157.325        -522.589          45.000  
G 2  21329978.594   113665178.589        -522.661          43.000  
G 6  21329749.187   113663968.150        -522.534          44.000  
G 3  21329974.491   113665136.098        -522.683          45.000  
G22  21384223.840   113950220.081        -522.286          32.000  
G14  21240011.429   113192380.612        -522.777          32.000  
> 2019  6 16  1  1 43.0000000  0  8                     
G 5  21329844.427   113664455.558        -522.644          44.000  
G 1  21330082.495   113665749.243        -522.633          38.000  
G 4  21330073.191   113665679.898        -522.532          45.000  
G 2  21330078.140   113665701.162        -522.599          43.000  
G 6  21329848.830   113664490.728        -522.605          44.000  
G 3  21330074.118   113665658.670        -522.689          45.000  
G22  21384323.437   113950742.668        -522.380          33.000  
G14  21240111.056   113192903.192        -522.971          31.000  
> 2019  6 16  1  1 44.0000000  0  8                     
G 5  21329943.892   113664978.232        -522.478          44.000  
G 1  21330182.145   113666271.915        -522.496          39.000  
G 4  21330172.787   113666202.573        -522.374          45.000  
G 2  21330177.670   113666223.829        -522.545          43.000  
G 6  21329948.370   113665013.403        -522.517          44.000  
G 3  21330173.597   113666181.345        -522.531          45.000  
G22  21384422.979   113951265.332        -522.424          33.000  
G14  21240210.687   113193425.871        -522.895          31.000  
> 2019  6 16  1  1 45.0000000  0  8                     
G 5  21330043.494   113665500.884        -522.699          44.000  
G 1  21330281.542   113666794.560        -522.766          39.000  
G 4  21330272.242   113666725.224        -522.617          45.000  
G 2  21330277.216   113666746.481        -522.592          44.000  
G 6  21330048.000   113665536.042        -522.683          44.000  
G 3  21330273.140   113666703.995        -522.678          45.000  
G22  21384522.610   113951787.965        -522.061          33.000  
G14  21240310.331   113193948.489        -522.422          31.000  
> 2019  6 16  1  1 46.0000000  0  8                     
G 5  21330143.100   113666023.469        -522.478          44.000  
G 1  21330381.093   113667317.138        -522.406          39.000  
G 4  21330371.846   113667247.813        -522.286          45.000  
G 2  21330376.742   113667269.059        -522.339          44.000  
G 6  21330147.433   113666058.634        -522.474          44.000  
G 3  21330372.657   113667226.581        -522.357          44.000  
G22  21384622.153   113952310.571        -522.206          32.000  
G14  21240409.826   113194471.049        -521.952          31.000  
> 2019  6 16  1  1 47.0000000  0  8                     
G 5  21330242.653   113666546.032        -522.644          44.000  
G 1  21330480.574   113667839.710        -522.770          39.000  
G 4  21330471.315   113667770.373        -522.534          45.000  
G 2  21330476.287   113667791.622        -522.599          44.000  
G 6  21330247.033   113666581.196        -522.560          44.000  
G 3  21330472.192   113667749.144        -522.529          44.000  
G22  21384721.743   113952833.128        -522.133          32.000  
G14  21240509.410   113194993.631        -522.634          31.000  
> 2019  6 16  1  1 48.0000000  0  8                     
G 5  21330342.207   113667068.686        -522.614          44.000  
G 1  21330580.244   113668362.368        -522.739          39.000  
G 4  21330570.838   113668293.027        -522.520          45.000  
G 2  21330575.864   113668314.285        -522.599          44.000  
G 6  21330346.587   113667103.846        -522.554          45.000  
G 3  21330571.720   113668271.794        -522.555          44.000  
G22  21384821.384   113953355.787        -522.301          32.000  
G14  21240609.052   113195516.300        -522.477          31.000  
> 2019  6 16  1  1 49.0000000  0  8                     
G 5  21330441.772   113667591.168        -522.522          44.000  
G 1  21330679.861   113668884.860        -522.687          39.000  
G 4  21330670.470   113668815.515        -522.465          45.000  
G 2  21330675.284   113668836.768        -522.544          44.000  
G 6  21330446.077   113667626.335        -522.604          44.000  
G 3  21330671.303   113668794.279        -522.573          45.000  
G22  21384920.819   113953878.282        -522.722          32.000  
G14  21240708.617   113196038.773        -522.428          32.000  
> 2019  6 16  1  1 50.0000000  0  8                     
G 5  21330541.326   113668113.718        -522.450          44.000  
G 1  21330779.463   113669407.412        -522.651          39.000  
G 4  21330770.012   113669338.065        -522.474          45.000  
G 2  21330774.818   113669359.317        -522.439          44.000  
G 6  21330545.667   113668148.891        -522.477          44.000  
G 3  21330770.829   113669316.823        -522.477          44.000  
G22  21385020.366   113954400.834        -522.697          33.000  
G14  21240808.036   113196561.308        -522.214          32.000  
> 2019  6 16  1  1 51.0000000  0  8                     
G 5  21330640.878   113668636.337        -522.430          44.000  
G 1  21330879.044   113669930.031        -522.640          39.000  
G 4  21330869.538   113669860.693        -522.627          45.000  
G 2  21330874.346   113669881.950        -522.495          44.000  
G 6  21330645.276   113668671.512        -522.550          44.000  
G 3  21330870.432   113669839.465        -522.632          45.000  
G22  21385119.976   113954923.462        -522.751          32.000  
G14  21240907.588   113197083.927        -522.045          32.000  
> 2019  6 16  1  1 52.0000000  0  8                     
G 5  21330740.471   113669158.984        -522.789          44.000  
G 1  21330978.604   113670452.662        -522.645          39.000  
G 4  21330969.115   113670383.328        -522.690          45.000  
G 2  21330973.970   113670404.586        -522.649          44.000  
G 6  21330744.800   113669194.153        -522.751          44.000  
G 3  21330969.997   113670362.081        -522.532          44.000  
G22  21385219.603   113955446.082        -522.686          32.000  
G14  21241007.087   113197606.577        -522.600          32.000  
> 2019  6 16  1  1 53.0000000  0  8                     
G 5  21330840.009   113669681.508        -522.493          44.000  
G 1  21331077.936   113670975.192        -522.673          39.000  
G 4  21331068.614   113670941.3593       -522.545          45.000  
G 2  21331073.474   113670927.114        -522.534          44.000  
G 6  21330844.356   113669716.682        -522.634          44.000  
G 3  21331069.545   113670884.618        -522.562          45.000  
G22  21385319.109   113955968.629        -522.639          32.000  
G14  21241106.500   113198129.089        -522.278          31.000  
> 2019  6 16  1  1 54.0000000  0  8                     
G 5  21330939.465   113670204.049        -522.776          44.000  
G 1  21331177.407   113671497.719        -522.800          39.000  
G 4  21331168.111   113671463.8982       -522.869          45.000  
G 2  21331172.988   113671449.647        -522.777          44.000  
G 6  21330943.884   113670239.217        -522.698          44.000  
G 3  21331169.056   113671407.162        -522.791          44.000  
G22  21385418.589   113956491.161        -523.170          32.000  
G14  21241205.879   113198651.626        -522.420          31.000  
> 2019  6 16  1  1 55.0000000  0  8                     
G 5  21331039.058   113670726.672        -522.562          44.000  
G 1  21331276.999   113672020.356        -522.764          39.000  
G 4  21331267.615   113671986.0311       -522.971          45.000  
G 2  21331272.535   113671972.275        -522.719          43.000  
G 6  21331043.375   113670761.843        -522.749          44.000  
G 3  21331268.655   113671929.792        -522.695          44.000  
G22  21385518.087   113957013.800        -523.265          32.000  
G14  21241305.359   113199174.299        -523.315          31.000  
> 2019  6 16  1  1 56.0000000  0  8                     
G 5  21331138.640   113671249.204        -522.458          44.000  
G 1  21331376.422   113672542.875        -522.490          39.000  
G 4  21331367.202   113672508.554        -522.722          45.000  
G 2  21331372.089   113672494.806        -522.565          44.000  
G 6  21331142.919   113671284.369        -522.494          44.000  
G 3  21331368.143   113672452.317        -522.480          44.000  
G22  21385617.628   113957536.304        -522.545          32.000  
G14  21241404.935   113199696.739        -521.534          32.000  
> 2019  6 16  1  1 57.0000000  0  8                     
G 5  21331238.112   113671771.760        -522.506          44.000  
G 1  21331475.810   113673065.440        -522.457          39.000  
G 4  21331466.723   113673031.116        -522.734          45.000  
G 2  21331471.582   113673017.370        -522.581          44.000  
G 6  21331242.445   113671806.930        -522.618          45.000  
G 3  21331467.558   113672974.878        -522.567          44.000  
G22  21385717.223   113958058.860        -522.391          32.000  
G14  21241504.428   113200219.318        -521.923          32.000  
> 2019  6 16  1  1 58.0000000  0  8                     
G 5  21331337.548   113672294.210        -522.432          44.000  
G 1  21331575.385   113673587.879        -522.368          39.000  
G 4  21331566.298   113673553.556        -522.629          45.000  
G 2  21331571.218   113673539.804        -522.432          44.000  
G 6  21331341.991   113672329.370        -522.406          44.000  
G 3  21331567.075   113673497.313        -522.329          44.000  
G22  21385816.713   113958581.306        -522.471          32.000  
G14  21241603.872   113200741.777        -522.015          32.000  
> 2019  6 16  1  1 59.0000000  0  8                     
G 5  21331437.071   113672816.757        -522.592          44.000  
G 1  21331675.058   113674110.439        -522.542          39.000  
G 4  21331665.773   113674076.108        -522.740          45.000  
G 2  21331670.775   113674062.357        -522.637          44.000  
G 6  21331441.504   113672851.920        -522.635          44.000  
G 3  21331666.613   113674019.863        -522.540          44.000  
G22  21385916.301   113959103.871        -522.814          32.000  
G14  21241703.556   113201264.343        -522.366          33.000  
> 2019  6 16  1  2  0.0000000  0  8                     
G 5  21331536.617   113673339.355        -522.606          45.000  
G 1  21331774.749   113674633.041        -522.592          39.000  
G 4  21331765.317   113674598.702        -522.720          45.000  
G 2  21331770.339   113674584.955        -522.662          44.000  
G 6  21331541.112   113673374.519        -522.574          44.000  
G 3  21331766.156   113674542.461        -522.513          44.000  
G22  21386015.762   113959626.468        -522.767          32.000  
G14  21241803.121   113201786.934        -522.452          33.000  
> 2019  6 16  1  2  1.0000000  0  8                     
G 5  21331636.074   113673861.905        -522.560          44.000  
G 1  21331874.427   113675155.589        -522.531          39.000  
G 4  21331864.894   113675121.256        -522.682          45.000  
G 2  21331869.851   113675107.504        -522.440          44.000  
G 6  21331640.600   113673897.069        -522.610          44.000  
G 3  21331865.668   113675065.022        -522.643          44.000  
G22  21386115.243   113960149.002        -522.719          33.000  
G14  21241902.763   113202309.525        -522.793          32.000  
> 2019  6 16  1  2  2.0000000  0  8                     
G 5  21331735.677   113674384.417        -522.783          44.000  
G 1  21331973.968   113675678.096        -522.628          39.000  
G 4  21331964.388   113675643.769        -522.946          45.000  
G 2  21331969.404   113675630.022        -522.664          43.000  
G 6  21331740.060   113674419.579        -522.729          44.000  
G 3  21331965.227   113675587.520        -522.712          44.000  
G22  21386214.738   113960671.500        -522.616          32.000  
G14  21242002.355   113202832.015        -522.846          31.000  
> 2019  6 16  1  2  3.0000000  0  8                     
G 5  21331835.189   113674906.981        -522.487          44.000  
G 1  21332073.479   113676200.669        -522.622          39.000  
G 4  21332063.851   113676166.335        -522.627          45.000  
G 2  21332068.827   113676152.591        -522.545          44.000  
G 6  21331839.553   113674942.146        -522.563          44.000  
G 3  21332064.738   113676110.091        -522.577          45.000  
G22  21386314.198   113961194.073        -522.820          32.000  
G14  21242101.928   113203354.572        -522.618          32.000  
> 2019  6 16  1  2  4.0000000  0  8                     
G 5  21331934.610   113675429.528        -522.516          44.000  
G 1  21332172.958   113676723.220        -522.761          39.000  
G 4  21332163.360   113676688.887        -522.664          45.000  
G 2  21332168.350   113676675.141        -522.550          44.000  
G 6  21331939.095   113675464.700        -522.562          44.000  
G 3  21332164.448   113676632.641        -522.498          45.000  
G22  21386413.721   113961716.637        -522.561          32.000  
G14  21242201.279   113203877.125        -522.562          32.000  
> 2019  6 16  1  2  5.0000000  0  8                     
G 5  21332034.129   113675952.071        -522.600          44.000  
G 1  21332272.456   113677245.765        -522.623          39.000  
G 4  21332262.855   113677211.430        -522.620          45.000  
G 2  21332267.911   113677197.684        -522.568          44.000  
G 6  21332038.692   113675987.237        -522.550          44.000  
G 3  21332264.053   113677155.181        -522.500          45.000  
G22  21386513.226   113962239.202        -522.578          32.000  
G14  21242300.819   113204399.651        -522.334          31.000  
> 2019  6 16  1  2  6.0000000  0  8                     
G 5  21332133.660   113676474.605        -522.407          44.000  
G 1  21332371.991   113677768.290        -522.515          39.000  
G 4  21332362.354   113677733.965        -522.488          44.000  
G 2  21332367.393   113677720.208        -522.249          43.000  
G 6  21332138.286   113676509.781        -522.435          45.000  
G 3  21332363.570   113677677.717        -522.356          45.000  
G22  21386612.791   113962761.715        -522.209          32.000  
G14  21242400.246   113204922.183        -522.216          31.000  
> 2019  6 16  1  2  7.0000000  0  8                     
G 5  21332233.138   113676997.074        -522.538          44.000  
G 1  21332471.390   113678290.770        -522.711          39.000  
G 4  21332461.908   113678256.438        -522.510          45.000  
G 2  21332466.838   113678242.695        -522.517          44.000  
G 6  21332237.796   113677032.247        -522.526          44.000  
G 3  21332463.084   113678200.178        -522.538          45.000  
G22  21386712.243   113963284.199        -522.946          32.000  
G14  21242499.759   113205444.689        -522.913          31.000  
> 2019  6 16  1  2  8.0000000  0  8                     
G 5  21332332.625   113677519.674        -522.391          44.000  
G 1  21332570.944   113678813.384        -522.750          39.000  
G 4  21332561.481   113678779.037        -522.435          45.000  
G 2  21332566.356   113678765.289        -522.479          44.000  
G 6  21332337.352   113677554.856        -522.517          44.000  
G 3  21332562.636   113678722.787        -522.423          44.000  
G22  21386811.797   113963806.791        -522.749          32.000  
G14  21242599.409   113205967.278        -522.484          32.000  
> 2019  6 16  1  2  9.0000000  0  8                     
G 5  21332432.194   113678042.282        -522.516          44.000  
G 1  21332670.657   113679335.980        -522.753          39.000  
G 4  21332661.018   113679301.631        -522.587          45.000  
G 2  21332665.977   113679287.904        -522.729          44.000  
G 6  21332436.794   113678077.458        -522.625          44.000  
G 3  21332662.136   113679245.387        -522.605          45.000  
G22  21386911.281   113964329.403        -522.986          33.000  
G14  21242698.935   113206489.903        -522.875          32.000  
> 2019  6 16  1  2 10.0000000  0  8                     
G 5  21332531.746   113678564.950        -522.570          44.000  
G 1  21332770.189   113679858.658        -523.152          39.000  
G 4  21332760.597   113679824.299        -522.634          45.000  
G 2  21332765.598   113679810.556        -522.797          43.000  
G 6  21332536.245   113678600.110        -522.621          44.000  
G 3  21332761.704   113679768.062        -522.581          44.000  
G22  21387010.761   113964852.071        -522.921          32.000  
G14  21242798.490   113207012.586        -523.305          32.000  
> 2019  6 16  1  2 11.0000000  0  8                     
G 5  21332631.307   113679087.674        -522.709          44.000  
G 1  21332869.803   113680381.358        -523.025          39.000  
G 4  21332860.103   113680347.016        -522.695          45.000  
G 2  21332865.115   113680333.271        -522.748          44.000  
G 6  21332635.709   113679122.835        -522.734          44.000  
G 3  21332861.300   113680290.784        -522.686          44.000  
G22  21387110.257   113965374.767        -522.490          33.000  
G14  21242898.125   113207535.246        -522.647          31.000  
> 2019  6 16  1  2 12.0000000  0  8                     
G 5  21332730.898   113679610.425        -522.612          44.000  
G 1  21332969.349   113680904.109        -522.585          39.000  
G 4  21332959.605   113680869.773        -522.612          45.000  
G 2  21332964.743   113680856.022        -522.708          44.000  
G 6  21332735.295   113679645.588        -522.588          44.000  
G 3  21332960.844   113680813.531        -522.605          44.000  
G22  21387209.762   113965897.526        -522.775          32.000  
G14  21242997.641   113208057.980        -521.850          31.000  
> 2019  6 16  1  2 13.0000000  0  8                     
G 5  21332830.398   113680133.023        -522.904          44.000  
G 1  21333068.846   113681426.696        -522.854          39.000  
G 4  21333059.246   113681392.375        -522.773          45.000  
G 2  21333064.197   113681378.607        -522.762          44.000  
G 6  21332834.851   113680168.187        -522.820          44.000  
G 3  21333060.316   113681336.133        -522.816          44.000  
G22  21387309.312   113966420.107        -522.799          32.000  
G14  21243097.316   113208580.612        -522.644          31.000  
> 2019  6 16  1  2 14.0000000  0  8                     
G 5  21332929.924   113680655.726        -522.772          44.000  
G 1  21333168.304   113681949.411        -522.712          39.000  
G 4  21333158.830   113681915.070        -522.554          45.000  
G 2  21333163.723   113681901.307        -522.577          44.000  
G 6  21332934.405   113680690.890        -522.710          44.000  
G 3  21333159.846   113681858.833        -522.651          44.000  
G22  21387408.883   113966942.830        -522.902          32.000  
G14  21243196.840   113209103.306        -522.484          31.000  
> 2019  6 16  1  2 15.0000000  0  8                     
G 5  21333029.435   113681178.366        -522.833          44.000  
G 1  21333267.887   113682472.053        -522.910          39.000  
G 4  21333258.364   113682437.706        -522.543          45.000  
G 2  21333263.368   113682423.960        -522.751          44.000  
G 6  21333034.008   113681213.531        -522.811          44.000  
G 3  21333259.404   113682381.471        -522.747          45.000  
G22  21387508.475   113967465.459        -522.949          32.000  
G14  21243296.454   113209625.960        -522.833          32.000  
> 2019  6 16  1  2 16.0000000  0  8                     
G 5  21333129.013   113681700.962        -522.581          44.000  
G 1  21333367.310   113682994.639        -522.634          39.000  
G 4  21333357.999   113682960.311        -522.426          45.000  
G 2  21333362.782   113682946.552        -522.495          44.000  
G 6  21333133.535   113681736.131        -522.573          44.000  
G 3  21333358.884   113682904.068        -522.603          44.000  
G22  21387608.084   113967988.078        -522.925          32.000  
G14  21243395.941   113210148.564        -522.926          31.000  
> 2019  6 16  1  2 17.0000000  0  8                     
G 5  21333228.608   113682223.615        -522.769          44.000  
G 1  21333466.729   113683517.293        -522.742          39.000  
G 4  21333457.595   113683482.961        -522.533          45.000  
G 2  21333462.351   113683469.203        -522.540          44.000  
G 6  21333233.059   113682258.775        -522.540          44.000  
G 3  21333458.449   113683426.726        -522.681          44.000  
G22  21387707.632   113968510.713        -522.711          32.000  
G14  21243495.575   113210671.222        -522.880          31.000  
> 2019  6 16  1  2 18.0000000  0  8                     
G 5  21333328.138   113682746.208        -522.576          44.000  
G 1  21333566.234   113684039.874        -522.264          39.000  
G 4  21333557.141   113684005.554        -522.401          45.000  
G 2  21333561.929   113683991.804        -522.496          44.000  
G 6  21333332.649   113682781.376        -522.567          44.000  
G 3  21333558.031   113683949.319        -522.656          44.000  
G22  21387807.249   113969033.299        -522.456          32.000  
G14  21243595.179   113211193.812        -522.812          32.000  
> 2019  6 16  1  2 19.0000000  0  8                     
G 5  21333427.699   113683268.850        -522.750          44.000  
G 1  21333665.893   113684562.524        -522.600          39.000  
G 4  21333656.683   113684528.202        -522.704          45.000  
G 2  21333661.503   113684514.448        -522.754          44.000  
G 6  21333432.235   113683304.018        -522.791          44.000  
G 3  21333657.562   113684471.960        -522.853          44.000  
G22  21387906.831   113969555.956        -522.793          32.000  
G14  21243694.673   113211716.451        -522.837          32.000  
> 2019  6 16  1  2 20.0000000  0  8                     
G 5  21333527.328   113683791.539        -522.606          44.000  
G 1  21333765.466   113685085.204        -522.542          39.000  
G 4  21333756.333   113685050.887        -522.427          45.000  
G 2  21333761.088   113685037.129        -522.625          44.000  
G 6  21333531.846   113683826.705        -522.484          45.000  
G 3  21333757.038   113684994.651        -522.570          44.000  
G22  21388006.436   113970078.637        -522.655          33.000  
G14  21243794.269   113212239.141        -522.872          31.000  
> 2019  6 16  1  2 21.0000000  0  8                     
G 5  21333626.964   113684314.180        -522.701          44.000  
G 1  21333864.826   113685607.848        -522.566          39.000  
G 4  21333855.904   113685573.524        -522.439          45.000  
G 2  21333860.580   113685559.765        -522.604          44.000  
G 6  21333631.402   113684349.345        -522.517          44.000  
G 3  21333856.642   113685517.288        -522.649          44.000  
G22  21388105.928   113970601.273        -522.510          33.000  
G14  21243893.854   113212761.773        -522.907          31.000  
> 2019  6 16  1  2 22.0000000  0  8                     
G 5  21333726.384   113684836.763        -522.644          44.000  
G 1  21333964.249   113686130.428        -522.428          39.000  
G 4  21333955.434   113686096.110        -522.571          45.000  
G 2  21333960.033   113686082.363        -522.693          44.000  
G 6  21333731.074   113684871.927        -522.606          44.000  
G 3  21333956.169   113686039.870        -522.607          44.000  
G22  21388205.501   113971123.860        -522.767          32.000  
G14  21243993.310   113213284.354        -523.114          31.000  
> 2019  6 16  1  2 23.0000000  0  8                     
G 5  21333825.979   113685359.325        -522.538          44.000  
G 1  21334063.893   113686652.998        -522.494          39.000  
G 4  21334055.025   113686618.676        -522.531          45.000  
G 2  21334059.601   113686604.924        -522.621          44.000  
G 6  21333830.605   113685394.492        -522.487          44.000  
G 3  21334055.629   113686562.433        -522.567          44.000  
G22  21388305.037   113971646.436        -522.549          32.000  
G14  21244092.773   113213806.919        -523.217          32.000  
> 2019  6 16  1  2 24.0000000  0  8                     
G 5  21333925.497   113685881.842        -522.544          44.000  
G 1  21334163.288   113687175.522        -522.570          39.000  
G 4  21334154.611   113687141.200        -522.616          45.000  
G 2  21334159.131   113687127.445        -522.679          43.000  
G 6  21333930.053   113685917.008        -522.520          44.000  
G 3  21334155.145   113687084.953        -522.572          45.000  
G22  21388404.585   113972168.936        -522.886          32.000  
G14  21244192.257   113214329.434        -523.198          32.000  
> 2019  6 16  1  2 25.0000000  0  8                     
G 5  21334025.036   113686404.466        -522.634          44.000  
G 1  21334262.803   113687698.139        -522.693          39.000  
G 4  21334254.178   113687663.821        -522.726          45.000  
G 2  21334258.652   113687650.070        -522.834          44.000  
G 6  21334029.581   113686439.632        -522.649          44.000  
G 3  21334254.671   113687607.576        -522.642          45.000  
G22  21388504.078   113972691.561        -522.772          32.000  
G14  21244291.758   113214852.048        -523.147          33.000  
> 2019  6 16  1  2 26.0000000  0  8                     
G 5  21334124.525   113686927.072        -522.197          44.000  
G 1  21334362.487   113688220.769        -522.478          39.000  
G 4  21334353.665   113688186.433        -522.448          45.000  
G 2  21334358.231   113688172.692        -522.546          43.000  
G 6  21334129.090   113686962.244        -522.378          44.000  
G 3  21334354.142   113688130.188        -522.277          45.000  
G22  21388603.572   113973214.175        -522.372          32.000  
G14  21244391.295   113215374.700        -522.576          32.000  
> 2019  6 16  1  2 27.0000000  0  8                     
G 5  21334224.054   113687449.638        -522.402          44.000  
G 1  21334462.031   113688743.337        -522.739          39.000  
G 4  21334453.200   113688708.992        -522.495          45.000  
G 2  21334457.718   113688695.248        -522.670          43.000  
G 6  21334228.624   113687484.803        -522.462          45.000  
G 3  21334453.686   113688652.753        -522.421          45.000  
G22  21388703.187   113973736.725        -522.189          31.000  
G14  21244490.897   113215897.258        -522.711          32.000  
> 2019  6 16  1  2 28.0000000  0  8                     
G 5  21334323.673   113687972.346        -522.848          44.000  
G 1  21334561.713   113689266.026        -522.689          39.000  
G 4  21334552.667   113689231.698        -522.859          45.000  
G 2  21334557.268   113689217.947        -522.744          43.000  
G 6  21334328.218   113688007.513        -522.924          44.000  
G 3  21334553.334   113689175.460        -522.869          45.000  
G22  21388802.770   113974259.456        -523.069          32.000  
G14  21244590.522   113216419.956        -522.691          31.000  
> 2019  6 16  1  2 29.0000000  0  8                     
G 5  21334423.140   113688495.004        -522.557          44.000  
G 1  21334661.306   113689788.682        -522.478          39.000  
G 4  21334652.289   113689754.364        -522.675          45.000  
G 2  21334656.806   113689740.612        -522.651          43.000  
G 6  21334427.689   113688530.172        -522.595          44.000  
G 3  21334652.912   113689698.121        -522.668          45.000  
G22  21388902.308   113974782.094        -522.858          32.000  
G14  21244690.093   113216942.626        -523.186          31.000  
> 2019  6 16  1  2 30.0000000  0  8                     
G 5  21334522.740   113689017.648        -522.648          44.000  
G 1  21334760.843   113690311.330        -522.659          39.000  
G 4  21334751.774   113690277.005        -522.736          46.000  
G 2  21334756.285   113690263.253        -522.695          44.000  
G 6  21334527.216   113689052.814        -522.700          44.000  
G 3  21334752.378   113690220.761        -522.760          45.000  
G22  21389001.905   113975304.748        -522.491          32.000  
G14  21244789.550   113217465.261        -522.979          31.000  
> 2019  6 16  1  2 31.0000000  0  8                     
G 5  21334622.462   113689540.364        -522.750          44.000  
G 1  21334860.284   113690834.067        -522.936          39.000  
G 4  21334851.358   113690799.712        -522.720          45.000  
G 2  21334855.835   113690785.976        -522.927          44.000  
G 6  21334626.773   113689575.532        -522.802          44.000  
G 3  21334851.902   113690743.480        -522.816          44.000  
G22  21389101.518   113975827.459        -522.498          32.000  
G14  21244889.104   113217987.967        -522.824          31.000  
> 2019  6 16  1  2 32.0000000  0  8                     
G 5  21334721.978   113690062.994        -522.523          45.000  
G 1  21334959.872   113691356.687        -522.721          39.000  
G 4  21334950.827   113691322.352        -522.629          46.000  
G 2  21334955.444   113691308.604        -522.633          44.000  
G 6  21334726.221   113690098.166        -522.600          44.000  
G 3  21334951.471   113691266.108        -522.642          45.000  
G22  21389201.121   113976350.095        -522.469          32.000  
G14  21244988.553   113218510.582        -522.421          31.000  
> 2019  6 16  1  2 33.0000000  0  8                     
G 5  21334821.512   113690585.553        -522.452          44.000  
G 1  21335059.262   113691879.247        -522.694          39.000  
G 4  21335050.406   113691844.908        -522.491          45.000  
G 2  21335054.953   113691831.160        -522.504          43.000  
G 6  21334825.701   113690620.728        -522.469          44.000  
G 3  21335050.955   113691788.665        -522.385          44.000  
G22  21389300.590   113976872.678        -522.577          31.000  
G14  21245088.028   113219033.155        -522.449          31.000  
> 2019  6 16  1  2 34.0000000  0  8                     
G 5  21334921.102   113691108.084        -522.324          44.000  
G 1  21335158.802   113692401.789        -522.557          39.000  
G 4  21335149.996   113692367.450        -522.472          46.000  
G 2  21335154.391   113692353.688        -522.512          44.000  
G 6  21334925.349   113691143.261        -522.445          44.000  
G 3  21335150.522   113692311.205        -522.404          44.000  
G22  21389400.117   113977395.207        -522.694          32.000  
G14  21245187.673   113219555.690        -522.109          31.000  
> 2019  6 16  1  2 35.0000000  0  8                     
G 5  21335020.629   113691630.690        -522.642          44.000  
G 1  21335258.442   113692924.383        -522.865          39.000  
G 4  21335249.421   113692890.043        -522.662          46.000  
G 2  21335253.873   113692876.288        -522.731          44.000  
G 6  21335024.843   113691665.864        -522.701          44.000  
G 3  21335250.087   113692833.811        -522.736          45.000  
G22  21389499.548   113977917.781        -522.625          32.000  
G14  21245287.198   113220078.310        -522.730          31.000  
> 2019  6 16  1  2 36.0000000  0  8                     
G 5  21335120.051   113692153.361        -522.609          44.000  
G 1  21335358.150   113693447.057        -522.731          39.000  
G 4  21335348.984   113693412.720        -522.675          46.000  
G 2  21335353.335   113693398.955        -522.643          44.000  
G 6  21335124.408   113692188.527        -522.562          45.000  
G 3  21335349.636   113693356.479        -522.615          45.000  
G22  21389599.085   113978440.475        -522.655          31.000  
G14  21245386.717   113220600.963        -522.493          31.000  
> 2019  6 16  1  2 37.0000000  0  8                     
G 5  21335219.631   113692676.044        -522.549          44.000  
G 1  21335457.808   113693969.746        -522.793          39.000  
G 4  21335448.499   113693935.411        -522.745          46.000  
G 2  21335452.875   113693921.653        -522.770          43.000  
G 6  21335223.960   113692711.209        -522.546          45.000  
G 3  21335449.188   113693879.169        -522.750          45.000  
G22  21389698.582   113978963.144        -522.561          31.000  
G14  21245486.397   113221123.658        -522.281          32.000  
> 2019  6 16  1  2 38.0000000  0  8                     
G 5  21335319.252   113693198.707        -522.472          45.000  
G 1  21335557.309   113694492.416        -522.854          38.000  
G 4  21335548.092   113694458.056        -522.520          46.000  
G 2  21335552.394   113694444.300        -522.495          44.000  
G 6  21335323.401   113693233.865        -522.361          45.000  
G 3  21335548.746   113694401.813        -522.646          45.000  
G22  21389798.139   113979485.790        -522.306          32.000  
G14  21245585.938   113221646.296        -522.349          31.000  
> 2019  6 16  1  2 39.0000000  0  8                     
G 5  21335418.868   113693721.379        -522.714          45.000  
G 1  21335657.047   113695015.074        -522.788          39.000  
G 4  21335647.623   113694980.729        -522.692          45.000  
G 2  21335652.001   113694966.975        -522.640          43.000  
G 6  21335422.954   113693756.538        -522.577          45.000  
G 3  21335648.332   113694924.482        -522.754          44.000  
G22  21389897.832   113980008.453        -522.490          33.000  
G14  21245685.496   113222168.967        -522.271          32.000  
> 2019  6 16  1  2 40.0000000  0  8                     
G 5  21335518.541   113694244.059        -522.595          44.000  
G 1  21335756.730   113695537.756        -522.589          39.000  
G 4  21335747.163   113695503.414        -522.448          46.000  
G 2  21335751.587   113695489.647        -522.399          44.000  
G 6  21335522.543   113694279.223        -522.455          45.000  
G 3  21335747.850   113695447.174        -522.512          45.000  
G22  21389997.482   113980531.148        -522.075          33.000  
G14  21245784.938   113222691.625        -522.196          31.000  
> 2019  6 16  1  2 41.0000000  0  8                     
G 5  21335618.198   113694766.679        -522.675          44.000  
G 1  21335856.176   113696060.363        -522.484          39.000  
G 4  21335846.727   113696026.039        -522.587          46.000  
G 2  21335851.158   113696012.276        -522.534          44.000  
G 6  21335622.170   113694801.842        -522.539          45.000  
G 3  21335847.383   113695969.805        -522.709          45.000  
G22  21390097.128   113981053.802        -522.490          33.000  
G14  21245884.494   113223214.285        -522.361          31.000  
> 2019  6 16  1  2 42.0000000  0  8                     
G 5  21335717.723   113695289.351        -522.649          45.000  
G 1  21335955.611   113696583.041        -522.579          39.000  
G 4  21335946.353   113696548.713        -522.628          46.000  
G 2  21335950.702   113696534.948        -522.612          43.000  
G 6  21335721.680   113695324.516        -522.458          45.000  
G 3  21335947.026   113696492.471        -522.615          45.000  
G22  21390196.676   113981576.449        -522.137          32.000  
G14  21245983.964   113223736.954        -522.732          31.000  
> 2019  6 16  1  2 43.0000000  0  8                     
G 5  21335817.329   113695811.988        -522.885          45.000  
G 1  21336055.287   113697105.670        -522.698          39.000  
G 4  21336045.984   113697071.340        -522.795          46.000  
G 2  21336050.187   113697057.583        -522.773          43.000  
G 6  21335821.273   113695847.146        -522.639          45.000  
G 3  21336046.689   113697015.089        -522.817          46.000  
G22  21390296.104   113982099.079        -522.849          33.000  
G14  21246083.563   113224259.566        -522.371          31.000  
> 2019  6 16  1  2 44.0000000  0  8                     
G 5  21335916.942   113696334.579        -522.588          45.000  
G 1  21336154.854   113697628.272        -522.526          39.000  
G 4  21336145.530   113697593.942        -522.715          46.000  
G 2  21336149.617   113697580.171        -522.605          44.000  
G 6  21335920.841   113696369.750        -522.612          45.000  
G 3  21336146.150   113697537.692        -522.615          45.000  
G22  21390395.569   113982621.648        -522.511          32.000  
G14  21246183.193   113224782.145        -521.969          31.000  
> 2019  6 16  1  2 45.0000000  0  8                     
G 5  21336016.445   113696857.175        -522.709          45.000  
G 1  21336254.393   113698150.872        -522.554          39.000  
G 4  21336245.019   113698116.536        -522.721          46.000  
G 2  21336249.102   113698102.767        -522.747          43.000  
G 6  21336020.382   113696892.339        -522.645          45.000  
G 3  21336245.712   113698060.290        -522.787          45.000  
G22  21390495.098   113983144.264        -522.611          32.000  
G14  21246282.708   113225304.779        -522.844          31.000  
> 2019  6 16  1  2 46.0000000  0  8                     
G 5  21336115.918   113697379.817        -522.609          45.000  
G 1  21336353.976   113698673.529        -523.021          39.000  
G 4  21336344.577   113698639.178        -522.739          46.000  
G 2  21336348.634   113698625.418        -522.855          43.000  
G 6  21336119.924   113697414.978        -522.612          44.000  
G 3  21336345.278   113698582.930        -522.666          45.000  
G22  21390594.658   113983666.912        -522.693          31.000  
G14  21246382.324   113225827.386        -522.228          31.000  
> 2019  6 16  1  2 47.0000000  0  8                     
G 5  21336215.429   113697902.386        -522.566          45.000  
G 1  21336453.665   113699196.076        -522.601          39.000  
G 4  21336444.153   113699161.743        -522.672          46.000  
G 2  21336448.131   113699147.976        -522.706          43.000  
G 6  21336219.488   113697937.549        -522.605          45.000  
G 3  21336444.846   113699105.496        -522.618          45.000  
G22  21390694.192   113984189.465        -522.747          32.000  
G14  21246481.815   113226349.931        -521.854          31.000  
> 2019  6 16  1  2 48.0000000  0  8                     
G 5  21336314.925   113698424.910        -522.581          45.000  
G 1  21336553.111   113699718.602        -522.567          39.000  
G 4  21336543.570   113699684.267        -522.631          46.000  
G 2  21336547.656   113699670.513        -522.657          44.000  
G 6  21336319.009   113698460.074        -522.548          44.000  
G 3  21336544.317   113699628.014        -522.511          45.000  
G22  21390793.745   113984711.986        -522.209          32.000  
G14  21246581.401   113226872.488        -522.103          31.000  
> 2019  6 16  1  2 49.0000000  0  8                     
G 5  21336414.387   113698947.560        -522.684          44.000  
G 1  21336652.533   113700241.259        -522.965          39.000  
G 4  21336643.122   113700206.912        -522.760          46.000  
G 2  21336647.291   113700193.148        -522.769          44.000  
G 6  21336418.539   113698982.723        -522.861          45.000  
G 3  21336643.918   113700150.663        -522.692          45.000  
G22  21390893.236   113985234.633        -522.616          32.000  
G14  21246680.876   113227395.103        -521.904          31.000  
> 2019  6 16  1  2 50.0000000  0  8                     
G 5  21336513.871   113699470.183        -522.542          44.000  
G 1  21336752.098   113700763.868        -522.463          39.000  
G 4  21336742.519   113700729.532        -522.529          46.000  
G 2  21336746.892   113700715.771        -522.537          44.000  
G 6  21336518.087   113699505.354        -522.694          44.000  
G 3  21336743.468   113700673.286        -522.474          45.000  
G22  21390992.651   113985757.257        -522.216          32.000  
G14  21246780.435   113227917.736        -522.163          31.000  
> 2019  6 16  1  2 51.0000000  0  8                     
G 5  21336613.430   113699992.690        -522.729          45.000  
G 1  21336851.619   113701286.362        -522.515          39.000  
G 4  21336841.972   113701252.042        -522.671          46.000  
G 2  21336846.490   113701238.281        -522.618          44.000  
G 6  21336617.537   113700027.852        -522.728          45.000  
G 3  21336842.989   113701195.799        -522.635          45.000  
G22  21391092.133   113986279.775        -522.583          32.000  
G14  21246879.892   113228440.274        -522.657          32.000  
> 2019  6 16  1  2 52.0000000  0  8                     
G 5  21336713.013   113700515.253        -522.751          45.000  
G 1  21336951.164   113701808.938        -522.467          39.000  
G 4  21336941.498   113701774.603        -522.764          46.000  
G 2  21336945.995   113701760.842        -522.572          44.000  
G 6  21336717.011   113700550.413        -522.698          46.000  
G 3  21336942.516   113701718.342        -522.448          46.000  
G22  21391191.739   113986802.359        -522.628          32.000  
G14  21246979.351   113228962.800        -522.084          31.000  
> 2019  6 16  1  2 53.0000000  0  8                     
G 5  21336812.517   113701037.772        -522.767          45.000  
G 1  21337050.685   113702331.443        -522.537          39.000  
G 4  21337041.027   113702297.128        -522.742          46.000  
G 2  21337045.504   113702283.360        -522.588          44.000  
G 6  21336816.505   113701072.934        -522.701          45.000  
G 3  21337041.977   113702240.880        -522.651          45.000  
G22  21391291.294   113987324.847        -522.290          32.000  
G14  21247078.829   113229485.346        -522.619          31.000  
> 2019  6 16  1  2 54.0000000  0  8                     
G 5  21336912.018   113701560.341        -522.721          45.000  
G 1  21337150.036   113702854.007        -522.498          39.000  
G 4  21337140.519   113702819.688        -522.681          46.000  
G 2  21337145.065   113702805.931        -522.722          44.000  
G 6  21336916.039   113701595.506        -522.822          45.000  
G 3  21337141.579   113702763.435        -522.625          45.000  
G22  21391390.797   113987847.411        -522.584          32.000  
G14  21247178.345   113230007.913        -522.500          32.000  
> 2019  6 16  1  2 55.0000000  0  8                     
G 5  21337011.568   113702082.931        -522.684          45.000  
G 1  21337249.452   113703376.593        -522.469          39.000  
G 4  21337240.128   113703342.278        -522.559          46.000  
G 2  21337244.542   113703328.511        -522.583          43.000  
G 6  21337015.636   113702118.091        -522.679          45.000  
G 3  21337241.114   113703286.031        -522.599          45.000  
G22  21391490.359   113988370.014        -522.936          32.000  
G14  21247278.018   113230530.513        -522.399          31.000  
> 2019  6 16  1  2 56.0000000  0  8                     
G 5  21337111.112   113702605.532        -522.593          45.000  
G 1  21337348.860   113703899.208        -522.550          39.000  
G 4  21337339.694   113703864.888        -522.559          46.000  
G 2  21337344.077   113703851.126        -522.529          43.000  
G 6  21337115.274   113702640.698        -522.664          45.000  
G 3  21337340.608   113703808.638        -522.494          45.000  
G22  21391589.849   113988892.635        -522.710          32.000  
G14  21247377.600   113231053.129        -522.422          31.000  
> 2019  6 16  1  2 57.0000000  0  8                     
G 5  21337210.642   113703128.163        -522.643          45.000  
G 1  21337448.400   113704421.836        -522.666          39.000  
G 4  21337439.272   113704387.514        -522.686          46.000  
G 2  21337443.686   113704373.753        -522.607          43.000  
G 6  21337214.863   113703163.330        -522.671          45.000  
G 3  21337440.096   113704331.268        -522.626          45.000  
G22  21391689.484   113989415.266        -522.383          32.000  
G14  21247477.229   113231575.790        -523.125          31.000  
> 2019  6 16  1  2 58.0000000  0  8                     
G 5  21337310.202   113703650.709        -522.649          44.000  
G 1  21337547.813   113704944.393        -522.601          39.000  
G 4  21337538.908   113704910.068        -522.736          45.000  
G 2  21337543.267   113704896.308        -522.528          43.000  
G 6  21337314.314   113703685.882        -522.533          45.000  
G 3  21337539.536   113704853.812        -522.463          45.000  
G22  21391789.006   113989937.816        -522.845          32.000  
G14  21247576.802   113232098.311        -523.011          31.000  
> 2019  6 16  1  2 59.0000000  0  8                     
G 5  21337409.792   113704173.270        -522.590          45.000  
G 1  21337647.504   113705466.958        -522.710          39.000  
G 4  21337638.517   113705432.628        -522.513          46.000  
G 2  21337642.747   113705418.872        -522.510          43.000  
G 6  21337413.826   113704208.432        -522.402          45.000  
G 3  21337639.144   113705376.369        -522.578          45.000  
G22  21391888.657   113990460.387        -522.668          33.000  
G14  21247676.294   113232620.858        -523.084          31.000  
> 2019  6 16  1  3  0.0000000  0  8                     
G 5  21337509.318   113704695.804        -522.621          44.000  
G 1  21337746.962   113705989.476        -522.362          39.000  
G 4  21337738.098   113705955.168        -522.716          46.000  
G 2  21337742.271   113705941.392        -522.427          43.000  
G 6  21337513.392   113704730.971        -522.467          45.000  
G 3  21337738.714   113705898.901        -522.422          45.000  
G22  21391988.232   113990982.914        -522.882          33.000  
G14  21247775.890   113233143.394        -523.016          32.000  
> 2019  6 16  1  3  1.0000000  0  8                     
G 5  21337608.844   113705218.300        -522.646          45.000  
G 1  21337846.567   113706511.982        -522.573          39.000  
G 4  21337837.672   113706477.660        -522.646          46.000  
G 2  21337841.775   113706463.888        -522.535          44.000  
G 6  21337612.919   113705253.471        -522.632          45.000  
G 3  21337838.158   113706421.402        -522.642          45.000  
G22  21392087.828   113991505.404        -522.850          32.000  
G14  21247875.317   113233665.881        -523.082          32.000  
> 2019  6 16  1  3  2.0000000  0  8                     
G 5  21337708.325   113705740.799        -522.689          45.000  
G 1  21337945.979   113707034.476        -522.645          39.000  
G 4  21337937.288   113707000.151        -522.572          46.000  
G 2  21337941.285   113706986.382        -522.416          43.000  
G 6  21337712.523   113705775.960        -522.483          45.000  
G 3  21337937.617   113706943.901        -522.595          45.000  
G22  21392187.255   113992027.890        -522.869          32.000  
G14  21247974.814   113234188.396        -523.174          32.000  
> 2019  6 16  1  3  3.0000000  0  8                     
G 5  21337807.858   113706263.339        -522.529          45.000  
G 1  21338045.453   113707557.012        -522.368          39.000  
G 4  21338036.775   113707522.692        -522.504          46.000  
G 2  21338040.851   113707508.926        -522.415          43.000  
G 6  21337812.022   113706298.502        -522.340          45.000  
G 3  21338037.148   113707466.439        -522.397          45.000  
G22  21392286.840   113992550.426        -522.605          32.000  
G14  21248074.278   113234710.932        -522.947          32.000  
> 2019  6 16  1  3  4.0000000  0  8                     
G 5  21337907.408   113706785.856        -522.802          45.000  
G 1  21338145.109   113708079.525        -522.590          39.000  
G 4  21338136.285   113708045.211        -522.762          46.000  
G 2  21338140.362   113708031.442        -522.749          43.000  
G 6  21337911.653   113706821.021        -522.692          45.000  
G 3  21338136.618   113707988.960        -522.705          45.000  
G22  21392386.409   113993072.937        -522.719          32.000  
G14  21248173.680   113235233.454        -523.264          31.000  
> 2019  6 16  1  3  5.0000000  0  8                     
G 5  21338006.933   113707308.453        -522.593          45.000  
G 1  21338244.613   113708602.135        -522.498          39.000  
G 4  21338235.802   113708567.814        -522.716          46.000  
G 2  21338239.960   113708554.048        -522.672          44.000  
G 6  21338011.124   113707343.623        -522.631          45.000  
G 3  21338236.120   113708511.561        -522.617          45.000  
G22  21392486.021   113993595.553        -522.402          32.000  
G14  21248273.248   113235756.069        -522.862          32.000  
> 2019  6 16  1  3  6.0000000  0  8                     
G 5  21338106.482   113707830.993        -522.621          45.000  
G 1  21338344.098   113709124.662        -522.378          39.000  
G 4  21338335.386   113709090.342        -522.460          46.000  
G 2  21338339.448   113709076.573        -522.457          44.000  
G 6  21338110.674   113707866.164        -522.560          44.000  
G 3  21338335.699   113709034.096        -522.487          45.000  
G22  21392585.649   113994118.091        -522.404          32.000  
G14  21248372.862   113236278.589        -523.022          32.000  
> 2019  6 16  1  3  7.0000000  0  8                     
G 5  21338205.969   113708353.435        -522.616          45.000  
G 1  21338443.644   113709647.109        -522.450          39.000  
G 4  21338434.873   113709612.780        -522.405          46.000  
G 2  21338438.935   113709599.014        -522.496          43.000  
G 6  21338210.206   113708388.601        -522.546          45.000  
G 3  21338435.241   113709556.539        -522.549          45.000  
G22  21392685.169   113994640.535        -522.605          32.000  
G14  21248472.355   113236801.025        -522.804          32.000  
> 2019  6 16  1  3  8.0000000  0  8                     
G 5  21338305.527   113708875.968        -522.615          45.000  
G 1  21338543.247   113710169.644        -522.488          39.000  
G 4  21338534.356   113710135.322        -522.489          46.000  
G 2  21338538.451   113710121.561        -522.612          43.000  
G 6  21338309.743   113708911.132        -522.510          45.000  
G 3  21338534.658   113710079.071        -522.559          46.000  
G22  21392784.740   113995163.059        -522.456          32.000  
G14  21248571.916   113237323.561        -522.544          32.000  
> 2019  6 16  1  3  9.0000000  0  8                     
G 5  21338405.189   113709398.568        -522.618          45.000  
G 1  21338642.799   113710692.246        -522.577          39.000  
G 4  21338633.889   113710657.920        -522.473          46.000  
G 2  21338637.942   113710644.159        -522.566          43.000  
G 6  21338409.272   113709433.731        -522.554          45.000  
G 3  21338634.267   113710601.676        -522.532          45.000  
G22  21392884.341   113995685.642        -522.446          32.000  
G14  21248671.395   113237846.172        -522.775          33.000  
> 2019  6 16  1  3 10.0000000  0  8                     
G 5  21338504.690   113709921.168        -522.534          44.000  
G 1  21338742.316   113711214.842        -522.424          39.000  
G 4  21338733.445   113711180.522        -522.430          46.000  
G 2  21338737.488   113711166.756        -522.506          43.000  
G 6  21338508.790   113709956.331        -522.415          45.000  
G 3  21338733.772   113711124.282        -522.534          45.000  
G22  21392983.848   113996208.237        -522.083          31.000  
G14  21248771.003   113238368.756        -522.534          32.000  
> 2019  6 16  1  3 11.0000000  0  8                     
G 5  21338604.161   113710443.739        -522.568          44.000  
G 1  21338841.832   113711737.430        -522.572          39.000  
G 4  21338832.942   113711703.094        -522.402          46.000  
G 2  21338836.992   113711689.342        -522.557          43.000  
G 6  21338608.354   113710478.915        -522.500          45.000  
G 3  21338833.320   113711646.858        -522.480          45.000  
G22  21393083.438   113996730.826        -522.218          32.000  
G14  21248870.608   113238891.346        -522.344          31.000  
> 2019  6 16  1  3 12.0000000  0  8                     
G 5  21338703.675   113710966.312        -522.441          44.000  
G 1  21338941.467   113712259.984        -522.407          39.000  
G 4  21338932.375   113712225.653        -522.313          46.000  
G 2  21338936.608   113712211.905        -522.505          44.000  
G 6  21338707.894   113711001.483        -522.572          45.000  
G 3  21338932.782   113712169.416        -522.405          45.000  
G22  21393182.945   113997253.405        -522.172          32.000  
G14  21248970.215   113239413.899        -522.566          32.000  
> 2019  6 16  1  3 13.0000000  0  8                     
G 5  21338803.240   113711488.849        -522.418          45.000  
G 1  21339040.956   113712782.523        -522.587          39.000  
G 4  21339031.822   113712748.191        -522.264          46.000  
G 2  21339036.237   113712734.451        -522.632          44.000  
G 6  21338807.413   113711524.012        -522.396          45.000  
G 3  21339032.347   113712691.958        -522.548          45.000  
G22  21393282.579   113997775.937        -521.909          32.000  
G14  21249069.811   113239936.448        -522.603          32.000  
> 2019  6 16  1  3 14.0000000  0  8                     
G 5  21338902.752   113712011.290        -522.358          45.000  
G 1  21339140.510   113713304.958        -522.356          39.000  
G 4  21339131.305   113713270.619        -522.220          46.000  
G 2  21339135.772   113713256.892        -522.395          44.000  
G 6  21338906.927   113712046.451        -522.505          45.000  
G 3  21339131.784   113713214.395        -522.434          45.000  
G22  21393382.180   113998298.386        -522.253          32.000  
G14  21249169.280   113240458.893        -522.587          32.000  
> 2019  6 16  1  3 15.0000000  0  8                     
G 5  21339002.287   113712533.644        -522.432          44.000  
G 1  21339240.019   113713827.312        -522.460          39.000  
G 4  21339230.846   113713792.980        -522.413          46.000  
G 2  21339235.328   113713779.240        -522.554          44.000  
G 6  21339006.511   113712568.804        -522.565          45.000  
G 3  21339231.271   113713736.746        -522.496          45.000  
G22  21393481.744   113998820.740        -522.617          32.000  
G14  21249268.695   113240981.220        -522.397          32.000  
> 2019  6 16  1  3 16.0000000  0  8                     
G 5  21339101.843   113713056.020        -522.294          44.000  
G 1  21339339.458   113714349.694        -522.347          39.000  
G 4  21339330.219   113714315.362        -522.257          46.000  
G 2  21339334.822   113714301.621        -522.367          44.000  
G 6  21339105.980   113713091.181        -522.300          45.000  
G 3  21339330.783   113714259.124        -522.327          45.000  
G22  21393581.248   113999343.119        -522.313          32.000  
G14  21249368.188   113241503.618        -522.605          31.000  
> 2019  6 16  1  3 17.0000000  0  8                     
G 5  21339201.298   113713578.433        -522.305          44.000  
G 1  21339438.906   113714872.117        -522.554          39.000  
G 4  21339429.692   113714837.781        -522.307          46.000  
G 2  21339434.247   113714824.038        -522.445          44.000  
G 6  21339205.433   113713613.601        -522.362          45.000  
G 3  21339430.383   113714781.545        -522.399          45.000  
G22  21393680.835   113999865.534        -522.495          32.000  
G14  21249467.559   113242026.037        -522.885          31.000  
> 2019  6 16  1  3 18.0000000  0  8                     
G 5  21339300.808   113714100.986        -522.804          44.000  
G 1  21339538.562   113715394.672        -523.040          39.000  
G 4  21339529.357   113715360.336        -522.853          46.000  
G 2  21339533.794   113715346.588        -522.916          44.000  
G 6  21339305.007   113714136.150        -522.756          45.000  
G 3  21339530.011   113715304.091        -522.836          45.000  
G22  21393780.388   114000388.079        -522.635          32.000  
G14  21249567.086   113242548.580        -522.943          31.000  
> 2019  6 16  1  3 19.0000000  0  8                     
G 5  21339400.386   113714623.579        -522.484          44.000  
G 1  21339638.059   113715917.270        -522.723          39.000  
G 4  21339628.920   113715882.922        -522.507          46.000  
G 2  21339633.360   113715869.177        -522.515          44.000  
G 6  21339404.510   113714658.737        -522.472          45.000  
G 3  21339629.576   113715826.683        -522.485          45.000  
G22  21393879.869   114000910.647        -522.522          32.000  
G14  21249666.683   113243071.191        -522.855          31.000  
> 2019  6 16  1  3 20.0000000  0  8                     
G 5  21339499.900   113715146.086        -522.483          44.000  
G 1  21339737.572   113716439.780        -522.739          38.000  
G 4  21339728.382   113716405.429        -522.469          46.000  
G 2  21339732.828   113716391.696        -522.615          43.000  
G 6  21339503.911   113715181.243        -522.324          45.000  
G 3  21339729.118   113716349.183        -522.494          45.000  
G22  21393979.251   114001433.177        -522.271          32.000  
G14  21249766.222   113243593.692        -522.690          31.000  
> 2019  6 16  1  3 21.0000000  0  8                     
G 5  21339599.362   113715668.587        -522.489          44.000  
G 1  21339837.125   113716962.270        -522.700          38.000  
G 4  21339827.949   113716927.932        -522.524          46.000  
G 2  21339832.327   113716914.186        -522.635          43.000  
G 6  21339603.529   113715703.747        -522.389          45.000  
G 3  21339828.731   113716871.687        -522.518          45.000  
G22  21394078.758   114001955.662        -522.274          32.000  
G14  21249865.636   113244116.179        -522.713          32.000  
> 2019  6 16  1  3 22.0000000  0  8                     
G 5  21339698.938   113716191.047        -522.340          45.000  
G 1  21339936.574   113717484.729        -522.532          39.000  
G 4  21339927.467   113717450.390        -522.451          46.000  
G 2  21339931.758   113717436.641        -522.412          43.000  
G 6  21339703.055   113716226.204        -522.252          45.000  
G 3  21339928.189   113717394.147        -522.417          45.000  
G22  21394178.308   114002478.119        -522.163          32.000  
G14  21249965.249   113244638.636        -522.138          32.000  
> 2019  6 16  1  3 23.0000000  0  8                     
G 5  21339798.479   113716713.592        -522.557          44.000  
G 1  21340036.135   113718007.280        -522.858          39.000  
G 4  21340026.892   113717972.944        -522.792          46.000  
G 2  21340031.270   113717959.190        -522.693          44.000  
G 6  21339802.550   113716748.752        -522.599          45.000  
G 3  21340027.770   113717916.702        -522.676          45.000  
G22  21394277.875   114003000.699        -522.687          32.000  
G14  21250064.845   113245161.202        -522.826          31.000  
> 2019  6 16  1  3 24.0000000  0  8                     
G 5  21339897.900   113717236.211        -522.555          44.000  
G 1  21340135.667   113718529.898        -522.687          39.000  
G 4  21340126.437   113718495.562        -522.843          46.000  
G 2  21340130.824   113718481.808        -522.632          44.000  
G 6  21339902.083   113717271.371        -522.666          45.000  
G 3  21340127.256   113718439.313        -522.646          45.000  
G22  21394377.376   114003523.318        -523.179          32.000  
G14  21250164.455   113245683.817        -522.508          32.000  
> 2019  6 16  1  3 25.0000000  0  8                     
G 5  21339997.485   113717758.793        -522.623          44.000  
G 1  21340235.367   113719052.480        -522.853          39.000  
G 4  21340225.973   113719018.147        -522.878          46.000  
G 2  21340230.325   113719004.397        -522.769          44.000  
G 6  21340001.585   113717793.955        -522.694          45.000  
G 3  21340226.816   113718961.888        -522.593          45.000  
G22  21394476.899   114004045.923        -523.140          31.000  
G14  21250264.058   113246206.363        -522.019          32.000  
> 2019  6 16  1  3 26.0000000  0  8                     
G 5  21340097.024   113718281.381        -522.559          44.000  
G 1  21340334.912   113719575.074        -522.749          39.000  
G 4  21340325.545   113719540.731        -522.781          46.000  
G 2  21340329.793   113719526.984        -522.689          44.000  
G 6  21340101.049   113718316.540        -522.637          45.000  
G 3  21340326.329   113719484.482        -522.600          45.000  
G22  21394576.279   114004568.467        -522.756          32.000  
G14  21250363.548   113246728.923        -521.479          32.000  
> 2019  6 16  1  3 27.0000000  0  8                     
G 5  21340196.506   113718803.983        -522.496          44.000  
G 1  21340434.461   113720097.681        -522.786          39.000  
G 4  21340425.101   113720063.342        -522.769          46.000  
G 2  21340429.305   113720049.585        -522.689          44.000  
G 6  21340200.589   113718839.152        -522.637          45.000  
G 3  21340425.857   113720007.090        -522.678          45.000  
G22  21394675.833   114005091.099        -523.218          32.000  
G14  21250462.962   113247251.543        -521.808          31.000  
> 2019  6 16  1  3 28.0000000  0  8                     
G 5  21340296.083   113719326.564        -522.529          45.000  
G 1  21340534.112   113720620.237        -522.435          38.000  
G 4  21340524.628   113720585.911        -522.706          46.000  
G 2  21340528.917   113720572.157        -522.582          44.000  
G 6  21340300.241   113719361.724        -522.555          45.000  
G 3  21340525.363   113720529.663        -522.588          45.000  
G22  21394775.374   114005613.687        -522.942          32.000  
G14  21250562.474   113247774.148        -522.247          32.000  
> 2019  6 16  1  3 29.0000000  0  8                     
G 5  21340395.637   113719849.099        -522.411          44.000  
G 1  21340633.610   113721142.771        -522.357          39.000  
G 4  21340624.178   113721108.449        -522.544          46.000  
G 2  21340628.408   113721094.690        -522.418          44.000  
G 6  21340399.752   113719884.255        -522.435          45.000  
G 3  21340624.811   113721052.204        -522.454          45.000  
G22  21394875.010   114006136.204        -522.584          32.000  
G14  21250662.099   113248296.694        -522.147          32.000  
> 2019  6 16  1  3 30.0000000  0  8                     
G 5  21340495.161   113720371.689        -522.535          44.000  
G 1  21340733.126   113721665.362        -522.365          39.000  
G 4  21340723.757   113721631.032        -522.546          46.000  
G 2  21340727.991   113721617.268        -522.389          44.000  
G 6  21340499.269   113720406.838        -522.500          45.000  
G 3  21340724.321   113721574.786        -522.635          45.000  
G22  21394974.655   114006658.762        -522.593          33.000  
G14  21250761.683   113248819.259        -522.130          31.000  
> 2019  6 16  1  3 31.0000000  0  8                     
G 5  21340594.663   113720894.189        -522.415          45.000  
G 1  21340832.637   113722187.866        -522.317          38.000  
G 4  21340823.249   113722153.539        -522.510          46.000  
G 2  21340827.456   113722139.784        -522.456          44.000  
G 6  21340598.918   113720929.345        -522.457          45.000  
G 3  21340823.811   113722097.295        -522.606          45.000  
G22  21395074.202   114007181.266        -522.352          33.000  
G14  21250861.185   113249341.756        -521.863          31.000  
> 2019  6 16  1  3 32.0000000  0  8                     
G 5  21340694.170   113721416.659        -522.242          45.000  
G 1  21340932.179   113722710.334        -522.158          38.000  
G 4  21340922.756   113722676.009        -522.358          46.000  
G 2  21340927.033   113722662.254        -522.313          43.000  
G 6  21340698.399   113721451.823        -522.290          45.000  
G 3  21340923.405   113722619.767        -522.461          45.000  
G22  21395173.713   114007703.764        -522.573          32.000  
G14  21250960.741   113249864.236        -522.216          32.000  
> 2019  6 16  1  3 33.0000000  0  8                     
G 5  21340793.803   113721939.140        -522.465          45.000  
G 1  21341031.705   113723232.825        -522.446          38.000  
G 4  21341022.290   113723198.492        -522.473          46.000  
G 2  21341026.574   113723184.745        -522.534          43.000  
G 6  21340797.991   113721974.307        -522.598          45.000  
G 3  21341022.930   113723142.252        -522.562          45.000  
G22  21395273.168   114008226.231        -522.349          32.000  
G14  21251060.243   113250386.687        -521.884          32.000  
> 2019  6 16  1  3 34.0000000  0  8                     
G 5  21340893.340   113722461.687        -522.410          45.000  
G 1  21341131.197   113723755.382        -522.595          38.000  
G 4  21341121.831   113723721.042        -522.461          46.000  
G 2  21341126.063   113723707.290        -522.482          43.000  
G 6  21340897.568   113722496.857        -522.540          45.000  
G 3  21341122.481   113723664.801        -522.578          45.000  
G22  21395372.740   114008748.779        -522.485          32.000  
G14  21251159.740   113250909.254        -522.092          32.000  
> 2019  6 16  1  3 35.0000000  0  8                     
G 5  21340992.867   113722984.164        -522.357          45.000  
G 1  21341230.833   113724277.847        -522.385          38.000  
G 4  21341221.360   113724243.511        -522.291          46.000  
G 2  21341225.533   113724229.760        -522.305          43.000  
G 6  21340997.075   113723019.330        -522.388          45.000  
G 3  21341221.997   113724187.273        -522.400          45.000  
G22  21395472.238   114009271.272        -522.166          32.000  
G14  21251259.182   113251431.715        -521.911          31.000  
> 2019  6 16  1  3 36.0000000  0  8                     
G 5  21341092.475   113723506.537        -522.439          44.000  
G 1  21341330.308   113724800.213        -522.350          38.000  
G 4  21341320.867   113724765.881        -522.329          45.000  
G 2  21341325.016   113724752.121        -522.271          43.000  
G 6  21341096.547   113723541.699        -522.467          45.000  
G 3  21341321.491   113724709.647        -522.491          45.000  
G22  21395571.899   114009793.659        -522.646          32.000  
G14  21251358.672   113251954.095        -522.223          31.000  
> 2019  6 16  1  3 37.0000000  0  8                     
G 5  21341191.996   113724028.923        -522.505          45.000  
G 1  21341429.740   113725322.617        -522.722          38.000  
G 4  21341420.322   113725288.266        -522.365          46.000  
G 2  21341424.493   113725274.524        -522.457          43.000  
G 6  21341195.991   113724064.082        -522.533          45.000  
G 3  21341421.039   113725232.028        -522.509          45.000  
G22  21395671.541   114010316.036        -522.670          33.000  
G14  21251458.211   113252476.498        -522.201          31.000  
> 2019  6 16  1  3 38.0000000  0  8                     
G 5  21341291.431   113724551.445        -522.551          44.000  
G 1  21341529.317   113725845.139        -522.778          38.000  
G 4  21341519.907   113725810.785        -522.334          46.000  
G 2  21341524.017   113725797.033        -522.408          43.000  
G 6  21341295.558   113724586.602        -522.523          45.000  
G 3  21341520.564   113725754.543        -522.522          45.000  
G22  21395771.004   114010838.533        -522.739          33.000  
G14  21251557.843   113252999.015        -522.450          31.000  
> 2019  6 16  1  3 39.0000000  0  8                     
G 5  21341390.876   113725073.997        -522.732          44.000  
G 1  21341628.891   113726367.685        -522.841          38.000  
G 4  21341619.391   113726333.343        -522.592          46.000  
G 2  21341623.529   113726319.591        -522.650          44.000  
G 6  21341395.145   113725109.156        -522.756          45.000  
G 3  21341620.114   113726277.100        -522.738          45.000  
G22  21395870.477   114011361.088        -522.858          33.000  
G14  21251657.350   113253521.577        -522.621          32.000  
> 2019  6 16  1  3 40.0000000  0  8                     
G 5  21341490.467   113725596.471        -522.391          45.000  
G 1  21341728.531   113726890.161        -522.433          39.000  
G 4  21341718.959   113726855.810        -522.241          46.000  
G 2  21341723.094   113726842.061        -522.288          44.000  
G 6  21341494.654   113725631.634        -522.448          45.000  
G 3  21341719.565   113726799.566        -522.235          45.000  
G22  21395969.990   114011883.563        -522.787          32.000  
G14  21251756.854   113254044.019        -521.609          31.000  
> 2019  6 16  1  3 41.0000000  0  8                     
G 5  21341589.925   113726118.935        -522.546          45.000  
G 1  21341827.880   113727412.632        -522.729          39.000  
G 4  21341818.557   113727378.271        -522.347          46.000  
G 2  21341822.652   113727364.526        -522.439          43.000  
G 6  21341594.140   113726154.088        -522.488          44.000  
G 3  21341819.055   113727322.029        -522.389          45.000  
G22  21396069.570   114012406.036        -522.866          32.000  
G14  21251856.413   113254566.535        -522.662          32.000  
> 2019  6 16  1  3 42.0000000  0  8                     
G 5  21341689.383   113726641.396        -522.498          45.000  
G 1  21341927.411   113727935.089        -522.853          39.000  
G 4  21341918.055   113727900.737        -522.373          46.000  
G 2  21341922.136   113727886.990        -522.452          44.000  
G 6  21341693.688   113726676.562        -522.451          45.000  
G 3  21341918.503   113727844.490        -522.391          45.000  
G22  21396169.119   114012928.496        -522.426          32.000  
G14  21251956.080   113255088.982        -522.773          32.000  
> 2019  6 16  1  3 43.0000000  0  8                     
G 5  21341788.970   113727163.869        -522.463          45.000  
G 1  21342026.805   113728457.559        -522.677          39.000  
G 4  21342017.578   113728423.210        -522.325          45.000  
G 2  21342021.719   113728409.469        -522.460          44.000  
G 6  21341793.221   113727199.029        -522.521          45.000  
G 3  21342018.003   113728366.963        -522.467          45.000  
G22  21396268.675   114013450.968        -522.611          32.000  
G14  21252055.525   113255611.456        -522.544          32.000  
> 2019  6 16  1  3 44.0000000  0  8                     
G 5  21341888.572   113727686.228        -522.241          45.000  
G 1  21342126.220   113728979.929        -522.460          39.000  
G 4  21342117.067   113728945.570        -522.118          45.000  
G 2  21342121.204   113728931.823        -522.213          44.000  
G 6  21341892.649   113727721.386        -522.198          44.000  
G 3  21342117.451   113728889.323        -522.124          45.000  
G22  21396368.194   114013973.355        -522.362          33.000  
G14  21252154.902   113256133.809        -522.450          33.000  
> 2019  6 16  1  3 45.0000000  0  8                     
G 5  21341988.044   113728208.611        -522.440          45.000  
G 1  21342225.709   113729502.309        -522.651          39.000  
G 4  21342216.525   113729467.958        -522.388          46.000  
G 2  21342220.646   113729454.208        -522.343          44.000  
G 6  21341992.130   113728243.767        -522.394          44.000  
G 3  21342216.981   113729411.709        -522.395          45.000  
G22  21396467.770   114014495.748        -522.737          33.000  
G14  21252254.473   113256656.211        -522.722          32.000  
> 2019  6 16  1  3 46.0000000  0  8                     
G 5  21342087.522   113728731.087        -522.390          45.000  
G 1  21342325.298   113730024.770        -522.552          39.000  
G 4  21342316.073   113729990.436        -522.335          45.000  
G 2  21342320.206   113729976.676        -522.416          44.000  
G 6  21342091.562   113728766.242        -522.373          44.000  
G 3  21342316.498   113729934.185        -522.340          45.000  
G22  21396567.313   114015018.189        -522.664          33.000  
G14  21252354.016   113257178.673        -522.380          32.000  
> 2019  6 16  1  3 47.0000000  0  8                     
G 5  21342187.099   113729253.615        -522.665          45.000  
G 1  21342424.664   113730547.298        -522.823          39.000  
G 4  21342415.670   113730512.972        -522.704          46.000  
G 2  21342419.731   113730499.212        -522.645          44.000  
G 6  21342191.082   113729288.768        -522.623          45.000  
G 3  21342415.989   113730456.710        -522.651          44.000  
G22  21396666.852   114015540.722        -522.830          32.000  
G14  21252453.509   113257701.203        -523.156          31.000  
> 2019  6 16  1  3 48.0000000  0  8                     
G 5  21342286.689   113729776.041        -522.419          44.000  
G 1  21342523.913   113731069.720        -522.502          39.000  
G 4  21342515.208   113731035.395        -522.455          45.000  
G 2  21342519.227   113731021.630        -522.245          44.000  
G 6  21342290.566   113729811.198        -522.371          44.000  
G 3  21342515.534   113730979.143        -522.368          44.000  
G22  21396766.485   114016063.158        -522.190          32.000  
G14  21252553.037   113258223.625        -522.653          31.000  
> 2019  6 16  1  3 49.0000000  0  8                     
G 5  21342386.122   113730298.485        -522.485          44.000  
G 1  21342623.568   113731592.164        -522.306          38.000  
G 4  21342614.814   113731557.839        -522.512          45.000  
G 2  21342618.798   113731544.080        -522.333          44.000  
G 6  21342390.021   113730333.638        -522.477          45.000  
G 3  21342615.081   113731501.585        -522.505          45.000  
G22  21396866.031   114016585.594        -522.457          33.000  
G14  21252652.520   113258746.075        -522.490          31.000  
> 2019  6 16  1  3 50.0000000  0  8                     
G 5  21342485.585   113730820.991        -522.366          44.000  
G 1  21342723.127   113732114.677        -522.385          38.000  
G 4  21342714.354   113732080.344        -522.432          46.000  
G 2  21342718.402   113732066.586        -522.388          44.000  
G 6  21342489.450   113730856.142        -522.344          45.000  
G 3  21342714.610   113732024.093        -522.316          45.000  
G22  21396965.572   114017108.105        -522.507          32.000  
G14  21252752.096   113259268.596        -522.887          32.000  
> 2019  6 16  1  3 51.0000000  0  8                     
G 5  21342585.166   113731343.544        -522.482          44.000  
G 1  21342822.694   113732637.220        -522.269          38.000  
G 4  21342813.837   113732602.900        -522.621          45.000  
G 2  21342817.959   113732589.133        -522.491          44.000  
G 6  21342589.014   113731378.696        -522.548          45.000  
G 3  21342814.156   113732546.643        -522.504          45.000  
G22  21397065.113   114017630.650        -522.736          32.000  
G14  21252851.648   113259791.138        -522.643          31.000  
> 2019  6 16  1  3 52.0000000  0  8                     
G 5  21342684.761   113731866.043        -522.517          45.000  
G 1  21342922.399   113733159.716        -522.191          38.000  
G 4  21342913.355   113733125.392        -522.566          45.000  
G 2  21342917.514   113733111.622        -522.441          44.000  
G 6  21342688.616   113731901.197        -522.537          45.000  
G 3  21342913.691   113733069.144        -522.488          45.000  
G22  21397164.605   114018153.141        -522.538          32.000  
G14  21252951.249   113260313.625        -522.350          32.000  
> 2019  6 16  1  3 53.0000000  0  8                     
G 5  21342784.169   113732388.565        -522.535          45.000  
G 1  21343021.993   113733682.238        -522.491          38.000  
G 4  21343012.815   113733647.914        -522.588          45.000  
G 2  21343017.038   113733634.145        -522.507          44.000  
G 6  21342788.138   113732423.720        -522.622          45.000  
G 3  21343013.235   113733591.662        -522.435          45.000  
G22  21397264.187   114018675.673        -522.622          33.000  
G14  21253050.775   113260836.148        -522.381          32.000  
> 2019  6 16  1  3 54.0000000  0  8                     
G 5  21342883.702   113732911.069        -522.363          45.000  
G 1  21343121.305   113734204.741        -522.151          38.000  
G 4  21343112.303   113734170.423        -522.355          46.000  
G 2  21343116.530   113734156.659        -522.275          44.000  
G 6  21342887.623   113732946.231        -522.438          45.000  
G 3  21343112.727   113734114.172        -522.297          45.000  
G22  21397363.766   114019198.179        -522.346          33.000  
G14  21253150.263   113261358.664        -522.376          31.000  
> 2019  6 16  1  3 55.0000000  0  8                     
G 5  21342983.308   113733433.633        -522.487          45.000  
G 1  21343220.767   113734727.306        -522.319          38.000  
G 4  21343211.895   113734692.995        -522.578          46.000  
G 2  21343216.082   113734679.235        -522.563          44.000  
G 6  21342987.161   113733468.794        -522.568          44.000  
G 3  21343212.311   113734636.738        -522.449          45.000  
G22  21397463.305   114019720.727        -522.416          32.000  
G14  21253249.794   113261881.242        -522.811          31.000  
> 2019  6 16  1  3 56.0000000  0  8                     
G 5  21343082.796   113733956.144        -522.432          45.000  
G 1  21343320.207   113735249.820        -522.037          38.000  
G 4  21343311.389   113735215.503        -522.524          45.000  
G 2  21343315.583   113735201.745        -522.518          44.000  
G 6  21343086.765   113733991.301        -522.487          45.000  
G 3  21343311.847   113735159.229        -522.136          45.000  
G22  21397562.786   114020243.241        -522.391          33.000  
G14  21253349.297   113262403.717        -522.310          32.000  
> 2019  6 16  1  3 57.0000000  0  8                     
G 5  21343182.358   113734478.699        -522.493          44.000  
G 1  21343419.791   113735772.372        -522.356          38.000  
G 4  21343410.900   113735738.066        -522.727          45.000  
G 2  21343415.150   113735724.299        -522.673          44.000  
G 6  21343186.370   113734513.866        -522.632          44.000  
G 3  21343411.336   113735681.813        -522.605          44.000  
G22  21397662.226   114020765.806        -522.625          33.000  
G14  21253448.841   113262926.271        -522.503          32.000  
> 2019  6 16  1  3 58.0000000  0  8                     
G 5  21343281.892   113735001.248        -522.639          45.000  
G 1  21343519.340   113736294.923        -522.395          38.000  
G 4  21343510.442   113736260.608        -522.714          45.000  
G 2  21343514.697   113736246.856        -522.791          44.000  
G 6  21343285.940   113735036.409        -522.628          45.000  
G 3  21343510.776   113736204.352        -522.754          44.000  
G22  21397761.743   114021288.334        -522.386          33.000  
G14  21253548.486   113263448.848        -522.621          32.000  
> 2019  6 16  1  3 59.0000000  0  8                     
G 5  21343381.418   113735523.867        -522.869          45.000  
G 1  21343618.962   113736817.548        -522.640          38.000  
G 4  21343609.983   113736783.223        -522.996          45.000  
G 2  21343614.262   113736769.465        -522.968          43.000  
G 6  21343385.444   113735559.018        -522.812          45.000  
G 3  21343610.260   113736726.963        -522.880          44.000  
G22  21397861.317   114021810.929        -522.369          33.000  
G14  21253648.073   113263971.460        -522.931          31.000  
> 2019  6 16  1  4  0.0000000  0  8                     
G 5  21343480.905   113736046.464        -522.675          45.000  
G 1  21343718.564   113737340.124        -522.212          38.000  
G 4  21343709.487   113737305.814        -522.634          45.000  
G 2  21343713.795   113737292.056        -522.518          43.000  
G 6  21343484.925   113736081.615        -522.501          45.000  
G 3  21343709.727   113737249.558        -522.495          44.000  
G22  21397960.864   114022333.516        -522.009          33.000  
G14  21253747.679   113264494.050        -522.642          31.000  
> 2019  6 16  1  4  1.0000000  0  8                     
G 5  21343580.558   113736568.993        -522.499          45.000  
G 1  21343818.103   113737862.661        -522.396          38.000  
G 4  21343809.064   113737828.349        -522.704          45.000  
G 2  21343813.400   113737814.585        -522.515          44.000  
G 6  21343584.414   113736604.146        -522.599          45.000  
G 3  21343809.305   113737772.091        -522.645          44.000  
G22  21398060.494   114022856.051        -522.097          33.000  
G14  21253847.250   113265016.583        -522.574          32.000  
> 2019  6 16  1  4  2.0000000  0  8                     
G 5  21343680.112   113737091.462        -522.659          45.000  
G 1  21343917.535   113738385.136        -522.546          38.000  
G 4  21343908.614   113738350.813        -522.622          45.000  
G 2  21343912.892   113738337.050        -522.523          44.000  
G 6  21343683.929   113737126.617        -522.512          45.000  
G 3  21343908.832   113738294.558        -522.573          44.000  
G22  21398159.987   114023378.539        -522.191          32.000  
G14  21253946.774   113265539.051        -522.566          32.000  
> 2019  6 16  1  4  3.0000000  0  8                     
G 5  21343779.562   113737613.962        -522.479          44.000  
G 1  21344016.941   113738907.627        -522.430          38.000  
G 4  21344008.145   113738873.313        -522.389          45.000  
G 2  21344012.285   113738859.558        -522.471          44.000  
G 6  21343783.491   113737649.117        -522.371          45.000  
G 3  21344008.350   113738817.067        -522.549          45.000  
G22  21398259.470   114023901.052        -521.959          32.000  
G14  21254046.290   113266061.552        -522.420          32.000  
> 2019  6 16  1  4  4.0000000  0  8                     
G 5  21343879.146   113738136.472        -522.773          44.000  
G 1  21344116.364   113739430.136        -522.465          38.000  
G 4  21344107.607   113739395.818        -522.441          45.000  
G 2  21344111.848   113739382.061        -522.627          44.000  
G 6  21343883.096   113738171.624        -522.571          45.000  
G 3  21344107.795   113739339.581        -522.783          44.000  
G22  21398359.000   114024423.550        -522.352          32.000  
G14  21254145.799   113266584.063        -523.019          31.000  
> 2019  6 16  1  4  5.0000000  0  8                     
G 5  21343978.704   113738658.991        -522.587          44.000  
G 1  21344215.961   113739952.663        -522.279          38.000  
G 4  21344207.089   113739918.340        -522.393          45.000  
G 2  21344211.376   113739904.580        -522.339          44.000  
G 6  21343982.681   113738694.155        -522.460          44.000  
G 3  21344207.396   113739862.102        -522.648          44.000  
G22  21398458.582   114024946.095        -522.151          33.000  
G14  21254245.372   113267106.579        -522.614          32.000  
> 2019  6 16  1  4  6.0000000  0  8                     
G 5  21344078.183   113739181.394        -522.634          44.000  
G 1  21344315.303   113740475.077        -522.673          38.000  
G 4  21344306.717   113740440.739        -522.448          45.000  
G 2  21344310.855   113740426.988        -522.476          44.000  
G 6  21344082.112   113739216.553        -522.495          45.000  
G 3  21344306.904   113740384.508        -522.830          44.000  
G22  21398558.132   114025468.518        -522.635          33.000  
G14  21254344.862   113267629.010        -523.109          32.000  
> 2019  6 16  1  4  7.0000000  0  8                     
G 5  21344177.638   113739703.795        -522.559          44.000  
G 1  21344414.998   113740997.461        -522.244          38.000  
G 4  21344406.162   113740963.138        -522.263          45.000  
G 2  21344410.343   113740949.374        -522.272          44.000  
G 6  21344181.505   113739738.949        -522.333          45.000  
G 3  21344406.373   113740906.903        -522.551          45.000  
G22  21398657.729   114025990.900        -522.211          33.000  
G14  21254444.369   113268151.395        -522.969          32.000  
> 2019  6 16  1  4  8.0000000  0  8                     
G 5  21344277.206   113740226.224        -522.516          44.000  
G 1  21344514.482   113741519.899        -522.367          38.000  
G 4  21344505.769   113741485.566        -522.245          45.000  
G 2  21344509.803   113741471.823        -522.419          44.000  
G 6  21344280.987   113740261.385        -522.424          45.000  
G 3  21344505.830   113741429.349        -522.679          44.000  
G22  21398757.262   114026513.337        -522.665          33.000  
G14  21254543.783   113268673.827        -522.795          31.000  
> 2019  6 16  1  4  9.0000000  0  8                     
G 5  21344376.733   113740748.600        -522.489          44.000  
G 1  21344614.010   113742042.262        -522.285          38.000  
G 4  21344605.289   113742007.947        -522.290          45.000  
G 2  21344609.325   113741994.191        -522.461          44.000  
G 6  21344380.376   113740783.752        -522.395          45.000  
G 3  21344605.319   113741951.713        -522.528          44.000  
G22  21398856.728   114027035.681        -521.979          32.000  
G14  21254643.169   113269196.168        -522.316          31.000  
> 2019  6 16  1  4 10.0000000  0  8                     
G 5  21344476.231   113741270.909        -522.457          44.000  
G 1  21344713.532   113742564.570        -522.258          38.000  
G 4  21344704.729   113742530.257        -522.341          45.000  
G 2  21344708.825   113742516.508        -522.480          44.000  
G 6  21344480.041   113741306.069        -522.515          44.000  
G 3  21344704.729   113742474.019        -522.550          44.000  
G22  21398956.260   114027557.997        -522.241          32.000  
G14  21254742.507   113269718.511        -522.759          32.000  
> 2019  6 16  1  4 11.0000000  0  8                     
G 5  21344575.793   113741793.395        -522.634          44.000  
G 1  21344812.981   113743087.041        -522.374          38.000  
G 4  21344804.238   113743052.740        -522.582          45.000  
G 2  21344808.397   113743038.989        -522.587          44.000  
G 6  21344579.581   113741828.555        -522.697          45.000  
G 3  21344804.238   113742996.499        -522.753          44.000  
G22  21399055.808   114028080.505        -522.423          32.000  
G14  21254842.017   113270240.968        -522.436          33.000  
> 2019  6 16  1  4 12.0000000  0  8                     
G 5  21344675.331   113742315.844        -522.417          44.000  
G 1  21344912.410   113743609.522        -522.271          38.000  
G 4  21344903.752   113743575.202        -522.517          45.000  
G 2  21344907.881   113743561.444        -522.430          44.000  
G 6  21344679.074   113742351.002        -522.402          44.000  
G 3  21344903.814   113743518.957        -522.445          44.000  
G22  21399155.322   114028602.931        -522.267          32.000  
G14  21254941.578   113270763.421        -521.908          32.000  
> 2019  6 16  1  4 13.0000000  0  8                     
G 5  21344774.732   113742838.233        -522.394          44.000  
G 1  21345012.002   113744131.910        -522.225          38.000  
G 4  21345003.235   113744097.580        -522.360          45.000  
G 2  21345007.347   113744083.827        -522.285          45.000  
G 6  21344778.447   113742873.394        -522.360          45.000  
G 3  21345003.358   113744041.342        -522.396          44.000  
G22  21399254.768   114029125.312        -522.130          33.000  
G14  21255041.137   113271285.840        -522.347          31.000  
> 2019  6 16  1  4 14.0000000  0  8                     
G 5  21344874.265   113743360.592        -522.236          45.000  
G 1  21345111.750   113744654.284        -522.067          38.000  
G 4  21345102.664   113744619.941        -522.369          45.000  
G 2  21345106.846   113744606.196        -522.255          44.000  
G 6  21344877.915   113743395.760        -522.266          44.000  
G 3  21345102.808   113744563.703        -522.277          44.000  
G22  21399354.294   114029647.684        -522.087          33.000  
G14  21255140.470   113271808.169        -522.254          31.000  
> 2019  6 16  1  4 15.0000000  0  8                     
G 5  21344973.829   113743882.962        -522.542          44.000  
G 1  21345211.259   113745176.626        -522.340          38.000  
G 4  21345202.141   113745142.315        -522.611          45.000  
G 2  21345206.375   113745128.558        -522.618          44.000  
G 6  21344977.528   113743918.119        -522.512          44.000  
G 3  21345202.292   113745086.068        -522.498          45.000  
G22  21399453.813   114030170.045        -522.186          34.000  
G14  21255240.039   113272330.530        -522.331          32.000  
> 2019  6 16  1  4 16.0000000  0  8                     
G 5  21345073.295   113744405.431        -522.427          45.000  
G 1  21345310.677   113745699.102        -522.474          39.000  
G 4  21345301.588   113745664.771        -522.449          45.000  
G 2  21345305.863   113745651.027        -522.540          44.000  
G 6  21345077.075   113744440.591        -522.369          44.000  
G 3  21345301.831   113745608.540        -522.458          45.000  
G22  21399553.360   114030692.499        -521.725          33.000  
G14  21255339.480   113272852.977        -521.901          31.000  
> 2019  6 16  1  4 17.0000000  0  8                     
G 5  21345172.735   113744927.866        -522.484          45.000  
G 1  21345410.178   113746221.534        -522.450          38.000  
G 4  21345401.062   113746187.205        -522.518          45.000  
G 2  21345405.477   113746173.474        -522.565          44.000  
G 6  21345176.729   113744963.023        -522.465          44.000  
G 3  21345401.349   113746130.970        -522.419          44.000  
G22  21399652.814   114031214.973        -522.511          32.000  
G14  21255438.776   113273375.452        -522.458          31.000  
> 2019  6 16  1  4 18.0000000  0  8                     
G 5  21345272.214   113745450.296        -522.404          45.000  
G 1  21345509.716   113746743.967        -522.324          38.000  
G 4  21345500.578   113746709.645        -522.498          45.000  
G 2  21345505.003   113746695.904        -522.515          44.000  
G 6  21345276.177   113745485.456        -522.443          44.000  
G 3  21345500.884   113746653.407        -522.401          44.000  
G22  21399752.236   114031737.381        -522.126          32.000  
G14  21255538.258   113273897.886        -522.565          31.000  
> 2019  6 16  1  4 19.0000000  0  8                     
G 5  21345371.801   113745972.850        -522.526          45.000  
G 1  21345609.202   113747266.519        -522.532          38.000  
G 4  21345600.096   113747232.202        -522.708          45.000  
G 2  21345604.567   113747218.463        -522.694          44.000  
G 6  21345375.656   113746008.008        -522.462          44.000  
G 3  21345600.434   113747175.951        -522.476          44.000  
G22  21399851.784   114032259.922        -522.131          32.000  
G14  21255637.760   113274420.401        -521.890          31.000  
> 2019  6 16  1  4 20.0000000  0  8                     
G 5  21345471.335   113746495.357        -522.511          45.000  
G 1  21345708.633   113747789.031        -522.830          38.000  
G 4  21345699.554   113747754.709        -522.666          45.000  
G 2  21345704.118   113747740.977        -522.806          44.000  
G 6  21345475.177   113746530.521        -522.587          44.000  
G 3  21345699.974   113747698.463        -522.585          44.000  
G22  21399951.240   114032782.464        -522.556          32.000  
G14  21255737.109   113274942.923        -522.325          32.000  
> 2019  6 16  1  4 21.0000000  0  8                     
G 5  21345570.792   113747017.883        -522.418          45.000  
G 1  21345808.058   113748311.556        -522.695          38.000  
G 4  21345798.987   113748277.229        -522.493          45.000  
G 2  21345803.656   113748263.499        -522.638          44.000  
G 6  21345574.707   113747053.045        -522.473          44.000  
G 3  21345799.510   113748220.986        -522.439          45.000  
G22  21400050.681   114033304.985        -522.345          32.000  
G14  21255836.693   113275465.447        -522.097          32.000  
> 2019  6 16  1  4 22.0000000  0  8                     
G 5  21345670.338   113747540.451        -522.389          45.000  
G 1  21345907.625   113748834.139        -522.660          38.000  
G 4  21345898.601   113748799.808        -522.571          45.000  
G 2  21345903.136   113748786.073        -522.614          44.000  
G 6  21345674.234   113747575.619        -522.582          44.000  
G 3  21345899.067   113748743.571        -522.527          44.000  
G22  21400150.254   114033827.556        -522.487          32.000  
G14  21255936.352   113275988.058        -522.232          31.000  
> 2019  6 16  1  4 23.0000000  0  8                     
G 5  21345769.890   113748063.033        -522.480          45.000  
G 1  21346007.232   113749356.726        -522.679          38.000  
G 4  21345998.145   113749322.383        -522.457          45.000  
G 2  21346002.654   113749308.649        -522.512          44.000  
G 6  21345773.779   113748098.205        -522.626          44.000  
G 3  21345998.662   113749266.150        -522.511          44.000  
G22  21400249.830   114034350.142        -522.709          32.000  
G14  21256035.825   113276510.612        -522.333          32.000  
> 2019  6 16  1  4 24.0000000  0  8                     
G 5  21345869.225   113748585.504        -522.308          44.000  
G 1  21346106.795   113749879.188        -522.437          38.000  
G 4  21346097.723   113749844.854        -522.286          45.000  
G 2  21346102.182   113749831.119        -522.415          44.000  
G 6  21345873.285   113748620.670        -522.480          45.000  
G 3  21346098.195   113749788.620        -522.380          44.000  
G22  21400349.390   114034872.613        -522.727          32.000  
G14  21256135.398   113277033.102        -522.035          32.000  
> 2019  6 16  1  4 25.0000000  0  8                     
G 5  21345968.694   113749107.983        -522.449          44.000  
G 1  21346206.438   113750401.673        -522.687          38.000  
G 4  21346197.261   113750367.334        -522.408          45.000  
G 2  21346201.720   113750353.593        -522.463          44.000  
G 6  21345972.749   113749143.142        -522.477          45.000  
G 3  21346197.701   113750311.098        -522.515          45.000  
G22  21400448.745   114035395.080        -522.554          32.000  
G14  21256235.069   113277555.565        -522.239          32.000  
> 2019  6 16  1  4 26.0000000  0  8                     
G 5  21346068.179   113749630.458        -522.321          45.000  
G 1  21346305.895   113750924.150        -522.615          38.000  
G 4  21346296.732   113750889.810        -522.394          45.000  
G 2  21346301.196   113750876.066        -522.495          44.000  
G 6  21346072.239   113749665.616        -522.417          44.000  
G 3  21346297.275   113750833.578        -522.479          45.000  
G22  21400548.169   114035917.562        -522.653          32.000  
G14  21256334.678   113278078.051        -522.164          32.000  
> 2019  6 16  1  4 27.0000000  0  8                     
G 5  21346167.642   113750152.846        -522.338          45.000  
G 1  21346405.421   113751446.541        -522.565          38.000  
G 4  21346396.194   113751412.199        -522.375          45.000  
G 2  21346400.841   113751398.472        -522.621          44.000  
G 6  21346171.654   113750188.018        -522.509          44.000  
G 3  21346396.832   113751355.974        -522.371          45.000  
G22  21400647.687   114036439.964        -522.363          32.000  
G14  21256434.210   113278600.444        -522.369          31.000  
> 2019  6 16  1  4 28.0000000  0  8                     
G 5  21346267.066   113750675.214        -522.454          45.000  
G 1  21346504.841   113751968.898        -522.435          38.000  
G 4  21346495.572   113751934.561        -522.345          45.000  
G 2  21346500.323   113751920.814        -522.328          44.000  
G 6  21346271.158   113750710.374        -522.369          44.000  
G 3  21346496.283   113751878.329        -522.402          45.000  
G22  21400747.265   114036962.334        -522.611          32.000  
G14  21256533.632   113279122.786        -522.109          31.000  
> 2019  6 16  1  4 29.0000000  0  8                     
G 5  21346366.536   113751197.482        -522.217          44.000  
G 1  21346604.494   113752491.168        -522.406          38.000  
G 4  21346595.166   113752456.829        -522.222          45.000  
G 2  21346599.843   113752443.088        -522.212          44.000  
G 6  21346370.628   113751232.641        -522.255          44.000  
G 3  21346595.726   113752400.599        -522.301          44.000  
G22  21400846.701   114037484.602        -522.568          32.000  
G14  21256633.037   113279645.066        -521.994          31.000  
> 2019  6 16  1  4 30.0000000  0  8                     
G 5  21346466.008   113751719.754        -522.461          44.000  
G 1  21346703.785   113753013.423        -522.451          38.000  
G 4  21346694.621   113752979.097        -522.400          45.000  
G 2  21346699.251   113752965.348        -522.288          44.000  
G 6  21346470.191   113751754.912        -522.429          44.000  
G 3  21346695.223   113752922.861        -522.458          44.000  
G22  21400946.175   114038006.875        -522.789          32.000  
G14  21256732.492   113280167.329        -522.372          31.000  
