     2.10           OBSERVATION DATA    M (MIXED)           RINEX VERSION / TYPE
RTKCONV 2.4.2                           20200424 140735 UTC PGM / RUN BY / DATE 
log: G:\54\GPS\0424\gps-9                                   COMMENT             
format: u-blox                                              COMMENT             
                                                            MARKER NAME         
                                                            MARKER NUMBER       
                                                            OBSERVER / AGENCY   
                                                            REC # / TYPE / VERS 
                                                            ANT # / TYPE        
        0.0000        0.0000        0.0000                  APPROX POSITION XYZ 
        0.0000        0.0000        0.0000                  ANTENNA: DELTA H/E/N
     1     1                                                WAVELENGTH FACT L1/2
     4    C1    L1    D1    S1                              # / TYPES OF OBSERV 
  2025     8    13    10    20   16.2020000     GPS         TIME OF FIRST OBS   
  2025     8    13    10    23   12.2020000     GPS         TIME OF LAST OBS    
                                                            END OF HEADER       
 25  8 13 10 20 16.2020000  0 30G 1G 2G 3G 4G 5G 7G 6G 8G31G20G25G29
                                G15G30G26G32G16G14G28G13G19G12G21G10
                                G23G17G 9G24G11G22
  22008369.600   115654889.309       -1225.957          44.000  
  22008283.303   115654284.072       -1225.961          49.000  
  22008256.714   115654252.682       -1225.946          49.000  
  22008261.371   115654245.939       -1225.995          49.000  
  22008174.492   115653735.855       -1225.975          49.000  
  22008225.927   115653905.185       -1225.961          41.000  
  22008201.164   115654274.189       -1225.975          45.000  
  22008276.184   115654272.111       -1225.928          46.000  
  22147768.147   116387358.813       -1226.028          38.000  
  22056045.213   115905332.487       -1226.038          37.000  
  21879336.700   114976666.647       -1225.924          37.000  
  22017946.310   115705120.009       -1225.994          38.000  
  22073919.282   115999259.004       -1225.964          39.000  
  22051647.446   115882199.637       -1226.003          39.000  
  22023222.623   115732802.621       -1226.001          38.000  
  21925340.410   115218467.083       -1225.896          39.000  
  22138977.251   116341153.735       -1225.906          38.000  
  21918313.757   115181515.223       -1226.057          39.000  
  22112015.686   116199438.598       -1225.974          40.000  
  22133116.360   116310320.662       -1226.040          38.000  
  21963438.111   115418646.570       -1226.034          38.000  
  21952299.662   115360153.304       -1226.125          38.000  
  21959922.000   115400192.973       -1225.952          40.000  
  22039925.176   115820617.032       -1225.928          37.000  
  22022928.764   115731287.185       -1225.981          39.000  
  21878159.507   114970501.553       -1225.889          40.000  
  21869369.714   114924317.607       -1225.938          37.000  
  21928273.142   115233825.911       -1225.948          40.000  
  21996589.187   115592855.651       -1225.985          34.000  
  22090333.735   116085494.368       -1225.957          37.000  
 25  8 13 10 20 16.4020000  0 30G 1G 2G 3G 4G 5G 7G 6G 8G31G20G25G29
                                G15G30G26G32G16G14G28G13G19G12G21G10
                                G23G17G 9G24G11G22
  22008416.241   115655134.453       -1225.636          44.000  
  22008329.960   115654529.215       -1225.709          49.000  
  22008303.364   115654497.825       -1225.725          49.000  
  22008308.004   115654491.079       -1225.670          49.000  
  22008221.217   115653980.997       -1225.631          49.000  
  22008272.615   115654150.330       -1225.635          41.000  
  22008247.823   115654519.331       -1225.630          44.000  
  22008322.729   115654517.255       -1225.629          46.000  
  22147814.764   116387603.953       -1225.676          38.000  
  22056091.883   115905577.630       -1225.631          37.000  
  21879383.374   114976911.792       -1225.599          37.000  
  22017992.963   115705365.148       -1225.627          38.000  
  22073965.915   115999504.147       -1225.615          39.000  
  22051694.059   115882444.778       -1225.610          38.000  
  22023269.242   115733047.753       -1225.522          38.000  
  21925387.030   115218712.231       -1225.635          39.000  
  22139023.943   116341398.884       -1225.729          38.000  
  21918360.446   115181760.362       -1225.621          39.000  
  22112062.354   116199683.737       -1225.598          40.000  
  22133163.029   116310565.800       -1225.568          38.000  
  21963484.735   115418891.711       -1225.686          38.000  
  21952346.304   115360398.435       -1225.634          38.000  
  21959968.682   115400438.116       -1225.624          40.000  
  22039971.810   115820862.174       -1225.575          37.000  
  22022975.392   115731532.325       -1225.631          39.000  
  21878206.151   114970746.698       -1225.637          40.000  
  21869416.371   114924562.757       -1225.723          37.000  
  21928319.785   115234071.057       -1225.677          40.000  
  21996635.868   115593100.790       -1225.620          34.000  
  22090380.367   116085739.506       -1225.551          36.000  
 25  8 13 10 20 16.6020000  0 30G 1G 2G 3G 4G 5G 7G 6G 8G31G20G25G29
                                G15G30G26G32G16G14G28G13G19G12G21G10
                                G23G17G 9G24G11G22
  22008462.920   115655379.601       -1225.566          44.000  
  22008376.631   115654774.356       -1225.570          49.000  
  22008350.020   115654742.968       -1225.609          49.000  
  22008354.664   115654736.220       -1225.591          49.000  
  22008267.748   115654226.146       -1225.619          49.000  
  22008319.274   115654395.476       -1225.601          41.000  
  22008294.508   115654764.480       -1225.614          45.000  
  22008369.431   115654762.401       -1225.601          46.000  
  22147861.404   116387849.104       -1225.662          38.000  
  22056138.580   115905822.781       -1225.577          37.000  
  21879430.049   114977156.941       -1225.657          37.000  
  22018039.637   115705610.294       -1225.507          38.000  
  22074012.548   115999749.286       -1225.635          39.000  
  22051740.707   115882689.925       -1225.641          38.000  
  22023315.938   115733292.895       -1225.648          38.000  
  21925433.696   115218957.375       -1225.573          39.000  
  22139070.520   116341644.030       -1225.533          38.000  
  21918407.117   115182005.511       -1225.586          39.000  
  22112108.992   116199928.887       -1225.565          40.000  
  22133209.677   116310810.946       -1225.654          38.000  
  21963531.397   115419136.859       -1225.651          38.000  
  21952392.961   115360643.575       -1225.713          38.000  
  21960015.304   115400683.260       -1225.648          40.000  
  22040018.401   115821107.325       -1225.626          37.000  
  22023022.034   115731777.475       -1225.638          39.000  
  21878252.833   114970991.849       -1225.663          40.000  
  21869463.050   114924807.910       -1225.479          37.000  
  21928366.452   115234316.205       -1225.575          40.000  
  21996682.544   115593345.936       -1225.647          34.000  
  22090426.938   116085984.654       -1225.651          36.000  
 25  8 13 10 20 16.8020000  0 30G 1G 2G 3G 4G 5G 7G 6G 8G31G20G25G29
                                G15G30G26G32G16G14G28G13G19G12G21G10
                                G23G17G 9G24G11G22
  22008509.569   115655624.765       -1225.870          45.000  
  22008423.302   115655019.520       -1225.861          49.000  
  22008396.685   115654988.131       -1225.856          49.000  
  22008401.334   115654981.389       -1225.975          49.000  
  22008314.498   115654471.309       -1225.930          49.000  
  22008365.966   115654640.639       -1225.863          41.000  
  22008341.158   115655009.641       -1225.891          45.000  
  22008416.077   115655007.568       -1225.963          46.000  
  22147908.093   116388094.261       -1225.824          38.000  
  22056185.237   115906067.942       -1225.876          37.000  
  21879476.684   114977402.103       -1225.975          37.000  
  22018086.282   115705855.464       -1225.948          38.000  
  22074059.199   115999994.461       -1226.082          39.000  
  22051787.363   115882935.089       -1225.958          38.000  
  22023362.573   115733538.077       -1226.323          38.000  
  21925480.372   115219202.541       -1225.916          39.000  
  22139117.211   116341889.193       -1225.831          38.000  
  21918453.817   115182250.674       -1225.896          39.000  
  22112155.630   116200174.051       -1225.936          40.000  
  22133256.307   116311056.115       -1226.003          38.000  
  21963578.069   115419382.022       -1226.017          38.000  
  21952439.599   115360888.755       -1226.350          38.000  
  21960061.941   115400928.432       -1226.057          40.000  
  22040065.013   115821352.478       -1225.795          37.000  
  22023068.671   115732022.637       -1225.924          39.000  
  21878299.472   114971237.012       -1226.016          40.000  
  21869509.696   114925053.059       -1225.551          37.000  
  21928413.095   115234561.369       -1225.909          40.000  
  21996729.228   115593591.108       -1226.096          34.000  
  22090473.553   116086229.824       -1226.099          36.000  
 25  8 13 10 20 17.0020000  0 30G 1G 2G 3G 4G 5G 7G 6G 8G31G20G25G29
                                G15G30G26G32G16G14G28G13G19G12G21G10
                                G23G17G 9G24G11G22
  22008556.210   115655869.951       -1226.201          45.000  
  22008469.967   115655264.709       -1226.088          49.000  
  22008443.354   115655233.320       -1226.101          49.000  
  22008447.996   115655226.576       -1226.094          49.000  
  22008361.399   115654716.496       -1226.173          49.000  
  22008412.647   115654885.828       -1226.160          41.000  
  22008387.794   115655254.826       -1226.174          44.000  
  22008462.773   115655252.755       -1226.146          46.000  
  22147954.749   116388339.453       -1226.208          38.000  
  22056231.912   115906313.126       -1226.270          37.000  
  21879523.328   114977647.288       -1226.185          37.000  
  22018132.970   115706100.652       -1226.113          38.000  
  22074105.820   116000239.647       -1226.074          39.000  
  22051833.977   115883180.272       -1226.163          39.000  
  22023409.266   115733783.259       -1225.983          38.000  
  21925527.012   115219447.724       -1226.117          39.000  
  22139163.811   116342134.373       -1226.163          38.000  
  21918500.473   115182495.868       -1226.260          39.000  
  22112202.289   116200419.236       -1226.195          40.000  
  22133302.948   116311301.304       -1226.105          38.000  
  21963624.688   115419627.206       -1226.130          38.000  
  21952486.254   115361133.946       -1225.938          38.000  
  21960108.594   115401173.614       -1226.102          40.000  
  22040111.695   115821597.667       -1226.162          37.000  
  22023115.354   115732267.826       -1226.174          39.000  
  21878346.148   114971482.193       -1226.085          40.000  
  21869556.313   114925298.252       -1226.343          37.000  
  21928459.764   115234806.554       -1226.240          40.000  
  21996775.864   115593836.290       -1226.091          34.000  
  22090520.244   116086475.008       -1226.128          37.000  
 25  8 13 10 20 17.2020000  0 30G 1G 2G 3G 4G 5G 7G 6G 8G31G20G25G29
                                G15G30G26G32G16G14G28G13G19G12G21G10
                                G23G17G 9G24G11G22
  22008602.854   115656115.108       -1225.769          45.000  
  22008516.643   115655509.874       -1225.873          49.000  
  22008490.024   115655478.483       -1225.859          49.000  
  22008494.661   115655471.740       -1225.859          49.000  
  22008408.266   115654961.655       -1225.829          49.000  
  22008459.299   115655130.989       -1225.828          41.000  
  22008434.456   115655499.986       -1225.830          44.000  
  22008509.382   115655497.915       -1225.802          46.000  
  22148001.415   116388584.609       -1225.822          38.000  
  22056278.567   115906558.276       -1225.758          37.000  
  21879569.942   114977892.449       -1225.839          37.000  
  22018179.593   115706345.815       -1225.903          38.000  
  22074152.496   116000484.807       -1225.790          39.000  
  22051880.673   115883425.427       -1225.764          39.000  
  22023455.891   115734028.425       -1225.836          38.000  
  21925573.665   115219692.886       -1225.789          40.000  
  22139210.483   116342379.535       -1225.823          38.000  
  21918547.123   115182741.019       -1225.793          39.000  
  22112248.940   116200664.391       -1225.779          40.000  
  22133349.617   116311546.461       -1225.819          38.000  
  21963671.344   115419872.365       -1225.745          38.000  
  21952532.912   115361379.111       -1225.889          38.000  
  21960155.255   115401418.776       -1225.822          39.000  
  22040158.353   115821842.827       -1225.842          37.000  
  22023162.008   115732512.985       -1225.876          39.000  
  21878392.818   114971727.356       -1225.810          40.000  
  21869602.960   114925543.404       -1225.810          37.000  
  21928506.413   115235051.708       -1225.807          40.000  
  21996822.506   115594081.455       -1225.856          34.000  
  22090566.975   116086720.169       -1225.842          37.000  
 25  8 13 10 20 17.4020000  0 30G 1G 2G 3G 4G 5G 7G 6G 8G31G20G25G29
                                G15G30G26G32G16G14G28G13G19G12G21G10
                                G23G17G 9G24G11G22
  22008649.507   115656360.277       -1225.870          45.000  
  22008563.311   115655755.035       -1225.840          49.000  
  22008536.687   115655723.644       -1225.840          49.000  
  22008541.307   115655716.903       -1225.853          49.000  
  22008455.071   115655206.822       -1225.879          49.000  
  22008505.912   115655376.158       -1225.889          41.000  
  22008481.142   115655745.154       -1225.842          44.000  
  22008556.080   115655743.084       -1225.896          46.000  
  22148048.036   116388829.780       -1225.931          38.000  
  22056325.219   115906803.448       -1225.878          37.000  
  21879616.636   114978137.615       -1225.853          37.000  
  22018226.304   115706590.980       -1225.873          38.000  
  22074199.138   116000729.977       -1225.852          39.000  
  22051927.311   115883670.601       -1225.859          39.000  
  22023502.593   115734273.592       -1225.862          38.000  
  21925620.336   115219938.054       -1225.851          40.000  
  22139257.144   116342624.700       -1225.830          38.000  
  21918593.783   115182986.189       -1225.802          39.000  
  22112295.555   116200909.561       -1225.875          40.000  
  22133396.254   116311791.632       -1225.922          38.000  
  21963717.953   115420117.534       -1225.801          38.000  
  21952579.594   115361624.274       -1225.845          38.000  
  21960201.909   115401663.943       -1225.879          39.000  
  22040205.022   115822087.991       -1225.874          37.000  
  22023208.652   115732758.148       -1225.769          39.000  
  21878439.493   114971972.524       -1225.889          39.000  
  21869649.594   114925788.572       -1225.859          37.000  
  21928553.112   115235296.875       -1225.819          40.000  
  21996869.147   115594326.620       -1225.906          34.000  
  22090613.629   116086965.333       -1225.867          37.000  
 25  8 13 10 20 17.6020000  0 30G 1G 2G 3G 4G 5G 7G 6G 8G31G20G25G29
                                G15G30G26G32G16G14G28G13G19G12G21G10
                                G23G17G 9G24G11G22
  22008696.161   115656605.442       -1225.826          45.000  
  22008609.969   115656000.199       -1225.767          49.000  
  22008583.354   115655968.808       -1225.773          49.000  
  22008587.955   115655962.066       -1225.767          49.000  
  22008501.950   115655451.986       -1225.804          49.000  
  22008552.600   115655621.321       -1225.803          41.000  
  22008527.807   115655990.318       -1225.804          44.000  
  22008602.667   115655988.248       -1225.824          46.000  
  22148094.743   116389074.941       -1225.801          39.000  
  22056371.900   115907048.612       -1225.784          37.000  
  21879663.268   114978382.782       -1225.808          37.000  
  22018272.934   115706836.143       -1225.792          38.000  
  22074245.785   116000975.139       -1225.751          39.000  
  22051973.972   115883915.764       -1225.859          39.000  
  22023549.162   115734518.757       -1225.824          38.000  
  21925666.945   115220183.217       -1225.793          40.000  
  22139303.785   116342869.871       -1225.914          38.000  
  21918640.454   115183231.353       -1225.806          39.000  
  22112342.191   116201154.726       -1225.791          40.000  
  22133442.923   116312036.794       -1225.801          38.000  
  21963764.582   115420362.702       -1225.857          38.000  
  21952626.239   115361869.441       -1225.824          38.000  
  21960248.523   115401909.111       -1225.842          39.000  
  22040251.697   115822333.155       -1225.765          37.000  
  22023255.295   115733003.316       -1225.803          39.000  
  21878486.107   114972217.688       -1225.818          39.000  
  21869696.239   114926033.734       -1225.758          37.000  
  21928599.733   115235542.042       -1225.809          40.000  
  21996915.787   115594571.782       -1225.753          34.000  
  22090660.369   116087210.497       -1225.858          37.000  
 25  8 13 10 20 17.8020000  0 30G 1G 2G 3G 4G 5G 7G 6G 8G31G20G25G29
                                G15G30G26G32G16G14G28G13G19G12G21G10
                                G23G17G 9G24G11G22
  22008742.811   115656850.582       -1225.510          45.000  
  22008656.647   115656245.347       -1225.684          49.000  
  22008630.025   115656213.955       -1225.677          49.000  
  22008634.597   115656207.216       -1225.803          49.000  
  22008548.496   115655697.131       -1225.649          49.000  
  22008599.288   115655866.463       -1225.597          41.000  
  22008574.458   115656235.463       -1225.590          44.000  
  22008649.311   115656233.390       -1225.691          46.000  
  22148141.345   116389320.082       -1225.598          39.000  
  22056418.516   115907293.756       -1225.415          37.000  
  21879709.976   114978627.923       -1225.617          37.000  
  22018319.542   115707081.290       -1225.770          38.000  
  22074292.443   116001220.288       -1225.978          39.000  
  22052020.590   115884160.905       -1225.555          39.000  
  22023595.886   115734763.904       -1226.234          38.000  
  21925713.613   115220428.361       -1225.609          40.000  
  22139350.412   116343115.009       -1225.431          38.000  
  21918687.082   115183476.498       -1225.682          39.000  
  22112388.844   116201399.870       -1225.621          40.000  
  22133489.554   116312281.941       -1225.790          38.000  
  21963811.231   115420607.841       -1225.645          38.000  
  21952672.899   115362114.590       -1226.443          38.000  
  21960295.161   115402154.255       -1225.829          39.000  
  22040298.317   115822578.302       -1225.569          37.000  
  22023301.941   115733248.460       -1225.731          39.000  
  21878532.776   114972462.831       -1225.679          39.000  
  21869742.851   114926278.870       -1225.033          37.000  
  21928646.401   115235787.183       -1225.469          40.000  
  21996962.454   115594816.931       -1225.841          34.000  
  22090706.985   116087455.643       -1225.717          37.000  
 25  8 13 10 20 18.0020000  0 30G 1G 2G 3G 4G 5G 7G 6G 8G31G20G25G29
                                G15G30G26G32G16G14G28G13G19G12G21G10
                                G23G17G 9G24G11G22
  22008789.468   115657095.737       -1225.712          45.000  
  22008703.323   115656490.494       -1225.731          49.000  
  22008676.690   115656459.103       -1225.718          49.000  
  22008681.260   115656452.357       -1225.679          49.000  
  22008595.334   115655942.278       -1225.681          49.000  
  22008645.909   115656111.612       -1225.708          41.000  
  22008621.103   115656480.613       -1225.679          44.000  
  22008695.923   115656478.534       -1225.596          46.000  
  22148188.042   116389565.234       -1225.649          38.000  
  22056465.199   115907538.920       -1225.851          37.000  
  21879756.577   114978873.075       -1225.688          37.000  
  22018366.181   115707326.426       -1225.507          38.000  
  22074339.079   116001465.416       -1225.437          39.000  
  22052067.239   115884406.060       -1225.778          39.000  
  22023642.494   115735009.023       -1225.359          38.000  
  21925760.229   115220673.510       -1225.662          40.000  
  22139397.106   116343360.172       -1225.872          38.000  
  21918733.747   115183721.641       -1225.603          39.000  
  22112435.489   116201645.022       -1225.731          40.000  
  22133536.202   116312527.075       -1225.542          38.000  
  21963857.898   115420852.992       -1225.707          38.000  
  21952719.537   115362359.690       -1225.135          38.000  
  21960341.829   115402399.395       -1225.579          39.000  
  22040344.957   115822823.461       -1225.848          37.000  
  22023348.578   115733493.604       -1225.582          39.000  
  21878579.400   114972707.981       -1225.722          39.000  
  21869789.545   114926524.049       -1225.933          37.000  
  21928693.031   115236032.343       -1225.782          40.000  
  21997009.096   115595062.068       -1225.580          34.000  
  22090753.635   116087700.790       -1225.648          37.000  
 25  8 13 10 20 18.2020000  0 30G 1G 2G 3G 4G 5G 7G 6G 8G31G20G25G29
                                G15G30G26G32G16G14G28G13G19G12G21G10
                                G23G17G 9G24G11G22
  22008836.148   115657340.880       -1225.841          45.000  
  22008749.968   115656735.640       -1225.790          49.000  
  22008723.336   115656704.250       -1225.815          49.000  
  22008727.913   115656697.505       -1225.782          49.000  
  22008642.039   115656187.426       -1225.840          49.000  
  22008692.587   115656356.759       -1225.862          41.000  
  22008667.713   115656725.762       -1225.880          44.000  
  22008742.636   115656723.683       -1225.758          46.000  
  22148234.665   116389810.379       -1225.820          38.000  
  22056511.849   115907784.060       -1225.955          37.000  
  21879803.231   114979118.219       -1225.843          37.000  
  22018412.884   115707571.583       -1225.825          38.000  
  22074385.740   116001710.579       -1225.729          39.000  
  22052113.891   115884651.204       -1225.875          39.000  
  22023689.166   115735254.193       -1225.815          38.000  
  21925806.859   115220918.658       -1225.800          40.000  
  22139443.738   116343605.308       -1225.909          38.000  
  21918780.332   115183966.792       -1225.845          39.000  
  22112482.156   116201890.166       -1225.856          40.000  
  22133582.857   116312772.231       -1225.723          38.000  
  21963904.534   115421098.136       -1225.844          38.000  
  21952766.224   115362604.872       -1225.645          38.000  
  21960388.482   115402644.550       -1225.796          39.000  
  22040391.611   115823068.601       -1225.930          37.000  
  22023395.222   115733738.757       -1225.845          39.000  
  21878626.090   114972953.122       -1225.737          39.000  
  21869836.150   114926769.178       -1225.879          37.000  
  21928739.627   115236277.487       -1225.934          40.000  
  21997055.772   115595307.218       -1225.769          34.000  
  22090800.283   116087945.946       -1225.950          37.000  
 25  8 13 10 20 18.4020000  0 30G 1G 2G 3G 4G 5G 7G 6G 8G31G20G25G29
                                G15G30G26G32G16G14G28G13G19G12G21G10
                                G23G17G 9G24G11G22
  22008882.816   115657586.015       -1225.631          45.000  
  22008796.629   115656980.780       -1225.659          49.000  
  22008769.987   115656949.390       -1225.658          49.000  
  22008774.578   115656942.647       -1225.658          49.000  
  22008688.871   115656432.563       -1225.602          49.000  
  22008739.233   115656601.893       -1225.566          41.000  
  22008714.317   115656970.895       -1225.616          44.000  
  22008789.265   115656968.821       -1225.599          46.000  
  22148281.321   116390055.515       -1225.535          38.000  
  22056558.480   115908029.185       -1225.535          37.000  
  21879849.862   114979363.353       -1225.552          37.000  
  22018459.508   115707816.722       -1225.673          38.000  
  22074432.404   116001955.721       -1225.605          39.000  
  22052160.523   115884896.339       -1225.576          39.000  
  22023735.751   115735499.335       -1225.624          38.000  
  21925853.480   115221163.796       -1225.674          40.000  
  22139490.403   116343850.439       -1225.546          38.000  
  21918826.950   115184211.929       -1225.553          39.000  
  22112528.783   116202135.299       -1225.563          40.000  
  22133629.504   116313017.378       -1225.707          38.000  
  21963951.195   115421343.269       -1225.538          38.000  
  21952812.848   115362850.025       -1225.657          38.000  
  21960435.122   115402889.690       -1225.684          39.000  
  22040438.299   115823313.728       -1225.579          37.000  
  22023441.900   115733983.892       -1225.599          39.000  
  21878672.727   114973198.262       -1225.579          39.000  
  21869882.808   114927014.308       -1225.611          37.000  
  21928786.296   115236522.617       -1225.571          40.000  
  21997102.419   115595552.363       -1225.562          34.000  
  22090846.961   116088191.078       -1225.573          37.000  
 25  8 13 10 20 18.6020000  0 30G 1G 2G 3G 4G 5G 7G 6G 8G31G20G25G29
                                G15G30G26G32G16G14G28G13G19G12G21G10
                                G23G17G 9G24G11G22
  22008929.494   115657831.158       -1225.884          45.000  
  22008843.291   115657225.919       -1225.818          49.000  
  22008816.629   115657194.530       -1225.845          49.000  
  22008821.234   115657187.781       -1225.732          49.000  
  22008735.658   115656677.705       -1225.844          49.000  
  22008785.872   115656847.039       -1225.936          41.000  
  22008760.950   115657216.039       -1225.883          44.000  
  22008836.010   115657213.961       -1225.824          46.000  
  22148327.939   116390300.658       -1225.858          39.000  
  22056605.190   115908274.340       -1225.968          37.000  
  21879896.538   114979608.500       -1225.868          37.000  
  22018506.165   115708061.856       -1225.764          38.000  
  22074479.053   116002200.851       -1225.720          39.000  
  22052207.168   115885141.486       -1225.923          39.000  
  22023782.421   115735744.460       -1225.558          38.000  
  21925900.166   115221408.937       -1225.905          40.000  
  22139537.083   116344095.592       -1225.975          38.000  
  21918873.580   115184457.072       -1225.814          39.000  
  22112575.435   116202380.447       -1225.951          40.000  
  22133676.171   116313262.509       -1225.833          38.000  
  21963997.868   115421588.415       -1225.780          38.000  
  21952859.525   115363095.138       -1225.507          38.000  
  21960481.785   115403134.826       -1225.768          39.000  
  22040484.968   115823558.880       -1225.984          37.000  
  22023488.598   115734229.032       -1225.791          39.000  
  21878719.416   114973443.405       -1225.838          39.000  
  21869929.469   114927259.465       -1226.071          37.000  
  21928832.969   115236767.763       -1225.857          40.000  
  21997149.058   115595797.494       -1225.630          34.000  
  22090893.646   116088436.221       -1225.836          37.000  
 25  8 13 10 20 18.8020000  0 30G 1G 2G 3G 4G 5G 7G 6G 8G31G20G25G29
                                G15G30G26G32G16G14G28G13G19G12G21G10
                                G23G17G 9G24G11G22
  22008976.193   115658076.309       -1225.758          45.000  
  22008889.962   115657471.073       -1225.803          49.000  
  22008863.306   115657439.679       -1225.752          49.000  
  22008867.882   115657432.936       -1225.823          49.000  
  22008782.170   115656922.858       -1225.803          49.000  
  22008832.483   115657092.188       -1225.764          41.000  
  22008807.586   115657461.187       -1225.765          44.000  
  22008882.553   115657459.116       -1225.817          46.000  
  22148374.612   116390545.808       -1225.675          39.000  
  22056651.861   115908519.480       -1225.624          37.000  
  21879943.171   114979853.646       -1225.708          37.000  
  22018552.805   115708307.011       -1225.833          38.000  
  22074525.666   116002446.011       -1225.896          39.000  
  22052253.820   115885386.637       -1225.852          39.000  
  22023829.033   115735989.633       -1226.122          38.000  
  21925946.795   115221654.088       -1225.818          40.000  
  22139583.714   116344340.738       -1225.698          38.000  
  21918920.221   115184702.225       -1225.854          39.000  
  22112622.092   116202625.593       -1225.748          40.000  
  22133722.803   116313507.665       -1225.906          38.000  
  21964044.524   115421833.569       -1225.851          38.000  
  21952906.160   115363340.312       -1226.108          38.000  
  21960528.466   115403379.980       -1225.823          39.000  
  22040531.609   115823804.025       -1225.681          37.000  
  22023535.195   115734474.187       -1225.796          38.000  
  21878766.035   114973688.559       -1225.810          39.000  
  21869976.098   114927504.602       -1225.545          37.000  
  21928879.576   115237012.911       -1225.670          40.000  
  21997195.734   115596042.660       -1226.008          34.000  
  22090940.317   116088681.374       -1225.789          37.000  
 25  8 13 10 20 19.0020000  0 30G 1G 2G 3G 4G 5G 7G 6G 8G31G20G25G29
                                G15G30G26G32G16G14G28G13G19G12G21G10
                                G23G17G 9G24G11G22
  22009022.827   115658321.461       -1225.762          45.000  
  22008936.618   115657716.224       -1225.819          49.000  
  22008909.956   115657684.834       -1225.851          49.000  
  22008914.564   115657678.090       -1225.967          49.000  
  22008828.657   115657168.007       -1225.801          49.000  
  22008879.134   115657337.343       -1225.757          41.000  
  22008854.259   115657706.346       -1225.828          44.000  
  22008929.253   115657704.265       -1225.807          46.000  
  22148421.231   116390790.961       -1225.775          39.000  
  22056698.524   115908764.646       -1225.762          37.000  
  21879989.859   114980098.805       -1225.891          37.000  
  22018599.431   115708552.159       -1225.808          38.000  
  22074572.262   116002691.154       -1225.983          39.000  
  22052300.466   115885631.791       -1225.847          39.000  
  22023875.739   115736234.769       -1226.176          38.000  
  21925993.444   115221899.239       -1225.859          40.000  
  22139630.376   116344585.896       -1225.690          38.000  
  21918966.894   115184947.373       -1225.848          39.000  
  22112668.736   116202870.748       -1225.741          40.000  
  22133769.410   116313752.812       -1225.878          38.000  
  21964091.231   115422078.716       -1225.759          38.000  
  21952952.800   115363585.451       -1226.394          38.000  
  21960575.131   115403625.130       -1225.913          39.000  
  22040578.248   115824049.183       -1225.787          37.000  
  22023581.880   115734719.339       -1225.868          38.000  
  21878812.726   114973933.709       -1225.834          39.000  
  21870022.720   114927749.762       -1225.427          37.000  
  21928926.235   115237258.067       -1225.719          40.000  
  21997242.358   115596287.801       -1225.931          34.000  
  22090986.964   116088926.520       -1225.985          37.000  
 25  8 13 10 20 19.2020000  0 30G 1G 2G 3G 4G 5G 7G 6G 8G31G20G25G29
                                G15G30G26G32G16G14G28G13G19G12G21G10
                                G23G17G 9G24G11G22
  22009069.518   115658566.612       -1225.763          45.000  
  22008983.278   115657961.374       -1225.864          49.000  
  22008956.588   115657929.989       -1225.903          49.000  
  22008961.199   115657923.237       -1225.776          49.000  
  22008875.138   115657413.155       -1225.712          49.000  
  22008925.792   115657582.491       -1225.837          41.000  
  22008900.916   115657951.489       -1225.767          44.000  
  22008975.921   115657949.415       -1225.696          46.000  
  22148467.914   116391036.113       -1225.787          39.000  
  22056745.183   115909009.791       -1225.924          37.000  
  21880036.489   114980343.946       -1225.700          37.000  
  22018646.087   115708797.310       -1225.730          38.000  
  22074618.928   116002936.291       -1225.404          39.000  
  22052347.112   115885876.934       -1225.740          39.000  
  22023922.371   115736479.894       -1225.140          38.000  
  21926040.089   115222144.384       -1225.686          40.000  
  22139677.000   116344831.051       -1225.963          38.000  
  21919013.505   115185192.522       -1225.745          39.000  
  22112715.385   116203115.891       -1225.739          40.000  
  22133816.090   116313997.953       -1225.553          38.000  
  21964137.906   115422323.859       -1225.593          38.000  
  21952999.417   115363830.570       -1224.918          38.000  
  21960621.798   115403870.270       -1225.553          39.000  
  22040624.940   115824294.335       -1225.900          37.000  
  22023628.496   115734964.487       -1225.721          38.000  
  21878859.324   114974178.854       -1225.701          39.000  
  21870069.424   114927994.932       -1226.269          37.000  
  21928972.869   115237503.222       -1225.927          40.000  
  21997288.971   115596532.938       -1225.397          34.000  
  22091033.597   116089171.668       -1225.645          37.000  
 25  8 13 10 20 19.4020000  0 30G 1G 2G 3G 4G 5G 7G 6G 8G31G20G25G29
                                G15G30G26G32G16G14G28G13G19G12G21G10
                                G23G17G 9G24G11G22
  22009116.184   115658811.769       -1225.817          44.000  
  22009029.940   115658206.525       -1225.726          49.000  
  22009003.260   115658175.140       -1225.791          49.000  
  22009007.862   115658168.398       -1225.837          49.000  
  22008921.527   115657658.314       -1225.729          49.000  
  22008972.442   115657827.642       -1225.566          41.000  
  22008947.558   115658196.649       -1225.695          44.000  
  22009022.643   115658194.576       -1225.784          46.000  
  22148514.547   116391281.267       -1225.691          38.000  
  22056791.819   115909254.938       -1225.614          37.000  
  21880083.159   114980589.108       -1225.679          37.000  
  22018692.775   115709042.471       -1225.723          38.000  
  22074665.569   116003181.467       -1225.731          39.000  
  22052393.784   115886122.091       -1225.656          39.000  
  22023969.048   115736725.089       -1225.905          38.000  
  21926086.775   115222389.549       -1225.734          40.000  
  22139723.635   116345076.197       -1225.652          38.000  
  21919060.167   115185437.682       -1225.815          39.000  
  22112762.023   116203361.053       -1225.762          40.000  
  22133862.736   116314243.120       -1225.768          38.000  
  21964184.565   115422569.025       -1225.699          38.000  
  21953046.075   115364075.769       -1225.820          38.000  
  21960668.455   115404115.441       -1225.800          39.000  
  22040671.558   115824539.482       -1225.635          37.000  
  22023675.201   115735209.647       -1225.762          38.000  
  21878905.978   114974424.018       -1225.726          39.000  
  21870116.071   114928240.055       -1225.632          37.000  
  21929019.514   115237748.370       -1225.742          40.000  
  21997335.584   115596778.115       -1225.729          34.000  
  22091080.180   116089416.833       -1225.782          37.000  
 25  8 13 10 20 19.6020000  0 30G 1G 2G 3G 4G 5G 7G 6G 8G31G20G25G29
                                G15G30G26G32G16G14G28G13G19G12G21G10
                                G23G17G 9G24G11G22
  22009162.864   115659056.914       -1225.621          44.000  
  22009076.615   115658451.672       -1225.677          49.000  
  22009049.900   115658420.282       -1225.620          49.000  
  22009054.484   115658413.537       -1225.608          49.000  
  22008968.109   115657903.459       -1225.726          49.000  
  22009019.093   115658072.793       -1225.792          41.000  
  22008994.186   115658441.793       -1225.742          44.000  
  22009069.300   115658439.721       -1225.734          46.000  
  22148561.222   116391526.412       -1225.647          39.000  
  22056838.451   115909500.085       -1225.654          37.000  
  21880129.763   114980834.253       -1225.714          37.000  
  22018739.416   115709287.622       -1225.803          38.000  
  22074712.205   116003426.620       -1225.872          39.000  
  22052440.468   115886367.243       -1225.801          39.000  
  22024015.661   115736970.239       -1225.895          38.000  
  21926133.414   115222634.692       -1225.771          40.000  
  22139770.250   116345321.344       -1225.675          38.000  
  21919106.811   115185682.828       -1225.724          39.000  
  22112808.635   116203606.197       -1225.743          40.000  
  22133909.396   116314488.271       -1225.829          38.000  
  21964231.200   115422814.177       -1225.870          38.000  
  21953092.722   115364320.923       -1225.886          38.000  
  21960715.114   115404360.585       -1225.778          39.000  
  22040718.226   115824784.633       -1225.692          37.000  
  22023721.798   115735454.795       -1225.764          38.000  
  21878952.628   114974669.164       -1225.794          39.000  
  21870162.762   114928485.204       -1225.570          37.000  
  21929066.124   115237993.511       -1225.598          40.000  
  21997382.273   115597023.266       -1225.854          34.000  
  22091126.857   116089661.976       -1225.779          37.000  
 25  8 13 10 20 19.8020000  0 30G 1G 2G 3G 4G 5G 7G 6G 8G31G20G25G29
                                G15G30G26G32G16G14G28G13G19G12G21G10
                                G23G17G 9G24G11G22
  22009209.497   115659302.061       -1225.834          44.000  
  22009123.266   115658696.819       -1225.774          49.000  
  22009096.525   115658665.430       -1225.795          49.000  
  22009101.135   115658658.687       -1225.880          49.000  
  22009014.514   115658148.608       -1225.885          49.000  
  22009065.746   115658317.935       -1225.790          41.000  
  22009040.830   115658686.937       -1225.808          44.000  
  22009116.023   115658684.871       -1226.011          46.000  
  22148607.883   116391771.560       -1225.868          38.000  
  22056885.142   115909745.230       -1225.709          37.000  
  21880176.430   114981079.396       -1225.726          37.000  
  22018786.041   115709532.769       -1226.012          38.000  
  22074758.877   116003671.764       -1226.017          39.000  
  22052487.107   115886612.386       -1225.795          39.000  
  22024062.319   115737215.385       -1226.232          38.000  
  21926180.025   115222879.837       -1225.800          40.000  
  22139816.949   116345566.489       -1225.770          38.000  
  21919153.456   115185927.976       -1226.000          39.000  
  22112855.302   116203851.343       -1225.834          40.000  
  22133956.058   116314733.411       -1225.941          38.000  
  21964277.887   115423059.324       -1225.905          38.000  
  21953139.372   115364566.069       -1226.395          38.000  
  21960761.767   115404605.733       -1225.945          39.000  
  22040764.898   115825029.780       -1225.775          37.000  
  22023768.499   115735699.941       -1225.956          38.000  
  21878999.268   114974914.308       -1225.835          39.000  
  21870209.434   114928730.347       -1225.563          37.000  
  21929112.774   115238238.659       -1225.773          40.000  
  21997428.916   115597268.413       -1225.986          34.000  
  22091173.523   116089907.125       -1225.961          37.000  
 25  8 13 10 20 20.0020000  0 30G 1G 2G 3G 4G 5G 7G 6G 8G31G20G25G29
                                G15G30G26G32G16G14G28G13G19G12G21G10
                                G23G17G 9G24G11G22
  22009256.124   115659547.219       -1226.050          44.000  
  22009169.940   115658941.971       -1225.909          49.000  
  22009143.171   115658910.578       -1225.920          49.000  
  22009147.763   115658903.841       -1225.903          49.000  
  22009061.254   115658393.754       -1225.958          49.000  
  22009112.353   115658563.070       -1225.812          41.000  
  22009087.496   115658932.086       -1226.017          44.000  
  22009162.661   115658930.032       -1225.967          46.000  
  22148654.575   116392016.724       -1225.861          38.000  
  22056931.800   115909990.380       -1225.891          37.000  
  21880223.026   114981324.527       -1226.081          37.000  
  22018832.679   115709777.924       -1225.911          38.000  
  22074805.520   116003916.941       -1225.873          39.000  
  22052533.758   115886857.519       -1226.050          39.000  
  22024108.952   115737460.512       -1226.064          38.000  
  21926226.656   115223124.989       -1225.968          40.000  
  22139863.555   116345811.599       -1226.085          38.000  
  21919200.127   115186173.135       -1225.774          39.000  
  22112901.933   116204096.484       -1226.021          40.000  
  22134002.691   116314978.565       -1225.825          38.000  
  21964324.486   115423304.488       -1225.878          38.000  
  21953186.007   115364811.248       -1225.664          38.000  
  21960808.439   115404850.879       -1225.935          39.000  
  22040811.555   115825274.947       -1225.793          37.000  
  22023815.108   115735945.092       -1225.925          39.000  
  21879045.869   114975159.472       -1225.862          39.000  
  21870256.127   114928975.516       -1225.737          37.000  
  21929159.427   115238483.820       -1225.992          40.000  
  21997475.546   115597513.558       -1225.923          35.000  
  22091220.196   116090152.323       -1225.719          36.000  
 25  8 13 10 20 20.2020000  0 30G 1G 2G 3G 4G 5G 7G 6G 8G31G20G25G29
                                G15G30G26G32G16G14G28G13G19G12G21G10
                                G23G17G 9G24G11G22
  22009302.766   115659792.376       -1225.850          44.000  
  22009216.613   115659187.133       -1225.841          49.000  
  22009189.823   115659155.745       -1225.905          49.000  
  22009194.425   115659149.004       -1225.854          49.000  
  22009107.874   115658638.915       -1225.750          49.000  
  22009159.007   115658808.226       -1225.653          40.000  
  22009134.114   115659177.244       -1225.784          44.000  
  22009209.305   115659175.185       -1225.872          46.000  
  22148701.227   116392261.893       -1225.940          39.000  
  22056978.457   115910235.541       -1225.737          37.000  
  21880269.629   114981569.689       -1225.682          37.000  
  22018879.298   115710023.085       -1225.801          38.000  
  22074852.215   116004162.099       -1225.887          39.000  
  22052580.379   115887102.681       -1225.753          39.000  
  22024155.625   115737705.671       -1225.750          37.000  
  21926273.299   115223370.149       -1225.769          40.000  
  22139910.210   116346056.763       -1225.687          39.000  
  21919246.766   115186418.301       -1225.797          39.000  
  22112948.599   116204341.644       -1225.784          40.000  
  22134049.351   116315223.729       -1225.862          38.000  
  21964371.127   115423549.642       -1225.809          38.000  
  21953232.695   115365056.411       -1225.919          38.000  
  21960855.064   115405096.038       -1225.757          39.000  
  22040858.201   115825520.112       -1225.830          36.000  
  22023861.799   115736190.256       -1225.823          39.000  
  21879092.523   114975404.635       -1225.857          40.000  
  21870302.763   114929220.682       -1225.753          37.000  
  21929206.098   115238728.977       -1225.781          40.000  
  21997522.219   115597758.719       -1225.830          35.000  
  22091266.899   116090397.479       -1225.922          36.000  
 25  8 13 10 20 20.4020000  0 30G 1G 2G 3G 4G 5G 7G 6G 8G31G20G25G29
                                G15G30G26G32G16G14G28G13G19G12G21G10
                                G23G17G 9G24G11G22
  22009349.413   115660037.534       -1225.809          44.000  
  22009263.285   115659432.294       -1225.847          49.000  
  22009236.462   115659400.899       -1225.825          49.000  
  22009241.063   115659394.161       -1225.848          49.000  
  22009154.604   115658884.084       -1225.897          49.000  
  22009205.660   115659053.394       -1225.870          40.000  
  22009180.759   115659422.403       -1225.842          44.000  
  22009255.940   115659420.331       -1225.757          46.000  
  22148747.898   116392507.048       -1225.916          39.000  
  22057025.063   115910480.708       -1225.823          37.000  
  21880316.263   114981814.850       -1225.751          37.000  
  22018925.965   115710268.244       -1225.839          37.000  
  22074898.877   116004407.249       -1225.764          39.000  
  22052626.994   115887347.842       -1225.903          39.000  
  22024202.252   115737950.824       -1225.764          37.000  
  21926319.949   115223615.307       -1225.748          40.000  
  22139956.878   116346301.930       -1225.892          39.000  
  21919293.415   115186663.458       -1225.935          39.000  
  22112995.251   116204586.803       -1225.757          40.000  
  22134095.993   116315468.887       -1225.756          38.000  
  21964417.783   115423794.804       -1225.830          39.000  
  21953279.334   115365301.555       -1225.873          39.000  
  21960901.728   115405341.200       -1225.854          40.000  
  22040904.869   115825765.285       -1225.884          36.000  
  22023908.415   115736435.418       -1225.875          39.000  
  21879139.151   114975649.796       -1225.807          40.000  
  21870349.444   114929465.852       -1225.965          37.000  
  21929252.753   115238974.143       -1225.872          40.000  
  21997568.872   115598003.872       -1225.710          35.000  
  22091313.650   116090642.635       -1225.798          36.000  
 25  8 13 10 20 20.6020000  0 30G 1G 2G 3G 4G 5G 7G 6G 8G31G20G25G29
                                G15G30G26G32G16G14G28G13G19G12G21G10
                                G23G17G 9G24G11G22
  22009396.043   115660282.717       -1226.005          44.000  
  22009309.943   115659677.464       -1225.800          49.000  
  22009283.107   115659646.077       -1225.886          49.000  
  22009287.718   115659639.336       -1225.870          49.000  
  22009201.062   115659129.250       -1225.800          49.000  
  22009252.316   115659298.577       -1225.990          40.000  
  22009227.416   115659667.582       -1225.861          44.000  
  22009302.632   115659665.511       -1225.712          46.000  
  22148794.528   116392752.222       -1225.753          39.000  
  22057071.706   115910725.880       -1225.933          37.000  
  21880362.885   114982060.026       -1225.812          37.000  
  22018972.622   115710513.422       -1225.813          38.000  
  22074945.580   116004652.431       -1225.817          39.000  
  22052673.643   115887593.014       -1225.856          39.000  
  22024248.935   115738196.011       -1225.852          37.000  
  21926366.643   115223860.485       -1225.839          40.000  
  22140003.571   116346547.101       -1225.878          39.000  
  21919340.042   115186908.640       -1225.842          39.000  
  22113041.931   116204831.981       -1225.853          40.000  
  22134142.638   116315714.059       -1225.817          38.000  
  21964464.474   115424039.977       -1225.841          39.000  
  21953326.038   115365546.747       -1225.863          39.000  
  21960948.356   115405586.373       -1225.796          40.000  
  22040951.538   115826010.450       -1225.912          36.000  
  22023955.121   115736680.588       -1225.852          39.000  
  21879185.807   114975894.970       -1225.898          40.000  
  21870396.104   114929711.015       -1225.896          38.000  
  21929299.402   115239219.318       -1225.891          40.000  
  21997615.513   115598249.060       -1225.962          35.000  
  22091360.380   116090887.808       -1225.872          36.000  
 25  8 13 10 20 20.8020000  0 30G 1G 2G 3G 4G 5G 7G 6G 8G31G20G25G29
                                G15G30G26G32G16G14G28G13G19G12G21G10
                                G23G17G 9G24G11G22
  22009442.672   115660527.851       -1225.651          44.000  
  22009356.634   115659922.629       -1225.867          49.000  
  22009329.736   115659891.241       -1225.927          49.000  
  22009334.370   115659884.493       -1225.804          49.000  
  22009247.975   115659374.422       -1225.964          49.000  
  22009298.942   115659543.747       -1226.154          42.000  
  22009274.093   115659912.730       -1225.803          44.000  
  22009349.348   115659910.694       -1226.072          46.000  
  22148841.170   116392997.379       -1225.826          39.000  
  22057118.342   115910971.044       -1225.928          37.000  
  21880409.505   114982305.211       -1226.280          37.000  
  22019019.274   115710758.570       -1225.775          38.000  
  22074992.210   116004897.580       -1225.710          39.000  
  22052720.312   115887838.196       -1226.179          39.000  
  22024295.547   115738441.179       -1226.068          37.000  
  21926413.318   115224105.655       -1226.051          40.000  
  22140050.174   116346792.297       -1226.416          39.000  
  21919386.707   115187153.761       -1225.382          39.000  
  22113088.570   116205077.138       -1225.823          40.000  
  22134189.283   116315959.233       -1225.966          38.000  
  21964511.123   115424285.108       -1225.415          39.000  
  21953372.705   115365791.894       -1225.834          38.000  
  21960995.026   115405831.546       -1226.057          40.000  
  22040998.153   115826255.584       -1225.513          36.000  
  22024001.737   115736925.756       -1225.988          39.000  
  21879232.463   114976140.137       -1225.979          40.000  
  21870442.800   114929956.163       -1225.647          38.000  
  21929346.068   115239464.470       -1225.786          40.000  
  21997662.176   115598494.215       -1225.916          35.000  
  22091407.090   116091132.931       -1225.415          36.000  
 25  8 13 10 20 21.0020000  0 30G 1G 2G 3G 4G 5G 7G 6G 8G31G20G25G29
                                G15G30G26G32G16G14G28G13G19G12G21G10
                                G23G17G 9G24G11G22
  22009489.310   115660773.019       -1225.695          44.000  
  22009403.294   115660167.782       -1225.819          49.000  
  22009376.396   115660136.397       -1225.872          49.000  
  22009381.055   115660129.647       -1225.795          49.000  
  22009294.945   115659619.576       -1225.846          49.000  
  22009345.616   115659788.908       -1225.791          42.000  
  22009320.764   115660157.895       -1225.762          44.000  
  22009395.968   115660155.828       -1225.657          46.000  
  22148887.812   116393242.542       -1225.842          39.000  
  22057165.008   115911216.205       -1225.884          37.000  
  21880456.136   114982550.360       -1225.819          37.000  
  22019065.950   115711003.714       -1225.526          38.000  
  22075038.875   116005142.717       -1225.483          39.000  
  22052766.940   115888083.346       -1225.815          39.000  
  22024342.226   115738686.299       -1225.387          37.000  
  21926459.994   115224350.805       -1225.703          40.000  
  22140096.872   116347037.443       -1225.785          39.000  
  21919433.372   115187398.920       -1225.779          39.000  
  22113135.255   116205322.297       -1225.927          40.000  
  22134235.961   116316204.379       -1225.696          38.000  
  21964557.750   115424530.272       -1225.707          39.000  
  21953419.400   115366037.022       -1225.334          38.000  
  21961041.673   115406076.680       -1225.535          39.000  
  22041044.816   115826500.760       -1225.895          36.000  
  22024048.419   115737170.907       -1225.774          38.000  
  21879279.129   114976385.285       -1225.644          40.000  
  21870489.461   114930201.341       -1226.094          38.000  
  21929392.724   115239709.639       -1225.936          40.000  
  21997708.832   115598739.361       -1225.598          34.000  
  22091453.746   116091378.111       -1225.939          36.000  
 25  8 13 10 20 21.2020000  0 30G 1G 2G 3G 4G 5G 7G 6G 8G31G20G25G29
                                G15G30G26G32G16G14G28G13G19G12G21G10
                                G23G17G 9G24G11G22
  22009535.972   115661018.186       -1226.071          44.000  
  22009449.949   115660412.961       -1226.080          49.000  
  22009423.034   115660381.568       -1226.050          49.000  
  22009427.711   115660374.836       -1226.107          49.000  
  22009342.023   115659864.751       -1226.028          49.000  
  22009392.247   115660034.088       -1226.245          42.000  
  22009367.431   115660403.080       -1226.095          44.000  
  22009442.652   115660401.016       -1225.975          46.000  
  22148934.507   116393487.712       -1226.056          38.000  
  22057211.649   115911461.377       -1226.124          37.000  
  21880502.803   114982795.533       -1226.114          37.000  
  22019112.601   115711248.906       -1225.974          38.000  
  22075085.554   116005387.912       -1225.925          39.000  
  22052813.639   115888328.524       -1226.094          39.000  
  22024388.823   115738931.507       -1226.034          37.000  
  21926506.630   115224595.987       -1226.034          40.000  
  22140143.540   116347282.620       -1226.023          38.000  
  21919480.031   115187644.104       -1226.104          39.000  
  22113181.897   116205567.472       -1226.028          40.000  
  22134282.634   116316449.558       -1226.024          38.000  
  21964604.406   115424775.456       -1226.116          39.000  
  21953466.050   115366282.229       -1225.972          38.000  
  21961088.325   115406321.873       -1226.007          39.000  
  22041091.464   115826745.937       -1226.079          36.000  
  22024095.036   115737416.081       -1226.038          38.000  
  21879325.758   114976630.474       -1226.077          40.000  
  21870536.140   114930446.496       -1226.097          38.000  
  21929439.397   115239954.805       -1226.105          40.000  
  21997755.544   115598984.554       -1226.152          34.000  
  22091500.407   116091623.277       -1226.110          36.000  
 25  8 13 10 20 21.4020000  0 30G 1G 2G 3G 4G 5G 7G 6G 8G31G20G25G29
                                G15G30G26G32G16G14G28G13G19G12G21G10
                                G23G17G 9G24G11G22
  22009582.658   115661263.343       -1225.604          44.000  
  22009496.620   115660658.115       -1225.791          49.000  
  22009469.712   115660626.724       -1225.845          49.000  
  22009474.363   115660619.985       -1225.789          49.000  
  22009388.622   115660109.907       -1225.725          49.000  
  22009438.906   115660279.238       -1225.684          42.000  
  22009414.087   115660648.214       -1225.779          44.000  
  22009489.256   115660646.179       -1225.779          46.000  
  22148981.177   116393732.861       -1225.663          38.000  
  22057258.335   115911706.523       -1225.447          38.000  
  21880549.373   114983040.677       -1225.542          37.000  
  22019159.244   115711494.062       -1225.872          38.000  
  22075132.210   116005633.071       -1225.894          39.000  
  22052860.273   115888573.669       -1225.599          39.000  
  22024435.479   115739176.658       -1225.898          37.000  
  21926553.253   115224841.133       -1225.625          40.000  
  22140190.214   116347527.771       -1225.695          38.000  
  21919526.658   115187889.259       -1225.865          39.000  
  22113228.546   116205812.619       -1225.604          40.000  
  22134329.265   116316694.714       -1225.740          38.000  
  21964651.072   115425020.602       -1225.734          39.000  
  21953512.698   115366527.385       -1226.069          38.000  
  21961134.939   115406567.028       -1225.839          39.000  
  22041138.129   115826991.083       -1225.692          36.000  
  22024141.728   115737661.231       -1225.698          38.000  
  21879372.433   114976875.626       -1225.818          39.000  
  21870582.741   114930691.647       -1225.629          37.000  
  21929486.038   115240199.954       -1225.619          40.000  
  21997802.200   115599229.697       -1225.778          34.000  
  22091547.070   116091868.426       -1225.630          37.000  
 25  8 13 10 20 21.6020000  0 30G 1G 2G 3G 4G 5G 7G 6G 8G31G20G25G29
                                G15G30G26G32G16G14G28G13G19G12G21G10
                                G23G17G 9G24G11G22
  22009629.337   115661508.504       -1226.031          44.000  
  22009543.299   115660903.274       -1225.944          49.000  
  22009516.345   115660871.888       -1225.986          49.000  
  22009521.036   115660865.140       -1225.870          49.000  
  22009435.393   115660355.070       -1225.942          49.000  
  22009485.573   115660524.404       -1225.857          42.000  
  22009460.732   115660893.386       -1225.818          44.000  
  22009535.914   115660891.329       -1225.913          46.000  
  22149027.857   116393978.028       -1226.029          38.000  
  22057304.988   115911951.700       -1225.956          38.000  
  21880596.009   114983285.857       -1226.013          37.000  
  22019205.871   115711739.213       -1225.837          38.000  
  22075178.894   116005878.215       -1225.786          38.000  
  22052906.920   115888818.845       -1225.957          39.000  
  22024482.058   115739421.802       -1225.791          37.000  
  21926599.905   115225086.303       -1225.878          40.000  
  22140236.844   116347772.939       -1226.010          38.000  
  21919573.328   115188134.412       -1226.058          39.000  
  22113275.184   116206057.793       -1225.938          40.000  
  22134375.930   116316939.873       -1225.935          38.000  
  21964697.703   115425265.762       -1225.789          39.000  
  21953559.306   115366772.512       -1225.723          38.000  
  21961181.603   115406812.179       -1225.879          39.000  
  22041184.790   115827236.252       -1225.966          36.000  
  22024188.340   115737906.397       -1225.872          38.000  
  21879419.093   114977120.785       -1225.884          39.000  
  21870629.441   114930936.830       -1226.164          37.000  
  21929532.711   115240445.128       -1226.060          40.000  
  21997848.855   115599474.854       -1225.830          34.000  
  22091593.733   116092113.587       -1225.851          37.000  
 25  8 13 10 20 21.8020000  0 30G 1G 2G 3G 4G 5G 7G 6G 8G31G20G25G29
                                G15G30G26G32G16G14G28G13G19G12G21G10
                                G23G17G 9G24G11G22
  22009676.015   115661753.694       -1226.062          44.000  
  22009589.953   115661148.464       -1226.072          49.000  
  22009563.039   115661117.076       -1226.058          49.000  
  22009567.692   115661110.332       -1226.119          49.000  
  22009481.658   115660600.254       -1226.143          49.000  
  22009532.211   115660769.591       -1226.208          41.000  
  22009507.399   115661138.587       -1226.047          44.000  
  22009582.577   115661136.517       -1226.149          46.000  
  22149074.546   116394223.204       -1226.187          38.000  
  22057351.665   115912196.888       -1226.124          37.000  
  21880642.659   114983531.044       -1226.198          37.000  
  22019252.540   115711984.406       -1226.034          38.000  
  22075225.518   116006123.393       -1226.163          39.000  
  22052953.605   115889064.035       -1226.091          39.000  
  22024528.762   115739666.994       -1225.984          38.000  
  21926646.605   115225331.486       -1226.238          40.000  
  22140283.528   116348018.142       -1226.064          38.000  
  21919619.997   115188379.617       -1226.066          39.000  
  22113321.838   116206302.992       -1226.086          40.000  
  22134422.592   116317185.049       -1226.207          38.000  
  21964744.385   115425510.966       -1226.096          38.000  
  21953605.953   115367017.674       -1226.272          38.000  
  21961228.220   115407057.367       -1226.104          39.000  
  22041231.425   115827481.433       -1226.217          37.000  
  22024235.060   115738151.578       -1226.115          38.000  
  21879465.745   114977365.953       -1226.224          40.000  
  21870676.049   114931182.020       -1226.115          37.000  
  21929579.393   115240690.311       -1226.188          40.000  
  21997895.554   115599720.046       -1226.128          34.000  
  22091640.331   116092358.755       -1226.241          37.000  
 25  8 13 10 20 22.0020000  0 30G 1G 2G 3G 4G 5G 7G 6G 8G31G20G25G29
                                G15G30G26G32G16G14G28G13G19G12G21G10
                                G23G17G 9G24G11G22
  22009722.682   115661998.860       -1225.833          44.000  
  22009636.633   115661393.623       -1225.820          49.000  
  22009609.700   115661362.231       -1225.775          49.000  
  22009614.338   115661355.491       -1225.792          49.000  
  22009527.537   115660845.414       -1225.841          49.000  
  22009578.819   115661014.746       -1225.829          41.000  
  22009554.042   115661383.743       -1225.896          44.000  
  22009629.276   115661381.671       -1225.825          46.000  
  22149121.245   116394468.359       -1225.759          38.000  
  22057398.282   115912442.045       -1225.803          37.000  
  21880689.350   114983776.195       -1225.799          37.000  
  22019299.201   115712229.566       -1225.828          37.000  
  22075272.186   116006368.552       -1225.815          39.000  
  22053000.290   115889309.192       -1225.830          39.000  
  22024575.406   115739912.157       -1225.822          38.000  
  21926693.284   115225576.638       -1225.833          40.000  
  22140330.111   116348263.295       -1225.830          38.000  
  21919666.682   115188624.773       -1225.841          39.000  
  22113368.463   116206548.147       -1225.823          40.000  
  22134469.189   116317430.204       -1225.837          38.000  
  21964791.001   115425756.118       -1225.852          38.000  
  21953652.563   115367262.829       -1225.669          38.000  
  21961274.885   115407302.526       -1225.881          40.000  
  22041278.081   115827726.588       -1225.806          37.000  
  22024281.676   115738396.737       -1225.774          38.000  
  21879512.372   114977611.109       -1225.724          40.000  
  21870722.717   114931427.181       -1225.917          37.000  
  21929626.051   115240935.468       -1225.836          40.000  
  21997942.240   115599965.204       -1225.848          34.000  
  22091686.878   116092603.906       -1225.728          37.000  
 25  8 13 10 20 22.2020000  0 30G 1G 2G 3G 4G 5G 7G 6G 8G31G20G25G29
                                G15G30G26G32G16G14G28G13G19G12G21G10
                                G23G17G 9G24G11G22
  22009769.334   115662243.996       -1225.685          44.000  
  22009683.286   115661638.761       -1225.685          49.000  
  22009656.353   115661607.373       -1225.717          49.000  
  22009660.986   115661600.634       -1225.732          49.000  
  22009573.574   115661090.554       -1225.698          49.000  
  22009625.507   115661259.882       -1225.714          41.000  
  22009600.693   115661628.877       -1225.648          44.000  
  22009675.865   115661626.810       -1225.657          46.000  
  22149167.867   116394713.499       -1225.673          38.000  
  22057444.910   115912687.178       -1225.634          37.000  
  21880736.044   114984021.343       -1225.741          37.000  
  22019345.861   115712474.708       -1225.718          37.000  
  22075318.795   116006613.701       -1225.754          39.000  
  22053046.942   115889554.329       -1225.619          39.000  
  22024622.059   115740157.314       -1225.785          38.000  
  21926739.900   115225821.780       -1225.651          40.000  
  22140376.815   116348508.431       -1225.702          38.000  
  21919713.348   115188869.912       -1225.718          39.000  
  22113415.147   116206793.286       -1225.659          40.000  
  22134515.811   116317675.346       -1225.690          38.000  
  21964837.664   115426001.258       -1225.713          38.000  
  21953699.209   115367507.993       -1225.812          38.000  
  21961321.499   115407547.669       -1225.756          40.000  
  22041324.736   115827971.724       -1225.652          37.000  
  22024328.375   115738641.879       -1225.707          38.000  
  21879559.050   114977856.254       -1225.703          40.000  
  21870769.352   114931672.298       -1225.654          37.000  
  21929672.687   115241180.601       -1225.688          40.000  
  21997988.913   115600210.347       -1225.742          34.000  
  22091733.432   116092849.056       -1225.663          37.000  
 25  8 13 10 20 22.4020000  0 30G 1G 2G 3G 4G 5G 7G 6G 8G31G20G25G29
                                G15G30G26G32G16G14G28G13G19G12G21G10
                                G23G17G 9G24G11G22
  22009816.010   115662489.148       -1225.813          44.000  
  22009729.946   115661883.907       -1225.754          49.000  
  22009703.010   115661852.521       -1225.768          49.000  
  22009707.612   115661845.777       -1225.736          49.000  
  22009619.802   115661335.703       -1225.786          49.000  
  22009672.130   115661505.032       -1225.820          41.000  
  22009647.348   115661874.023       -1225.774          44.000  
  22009722.484   115661871.959       -1225.801          46.000  
  22149214.516   116394958.650       -1225.867          38.000  
  22057491.532   115912932.332       -1225.834          37.000  
  21880782.651   114984266.490       -1225.814          37.000  
  22019392.463   115712719.857       -1225.841          37.000  
  22075365.447   116006858.845       -1225.726          39.000  
  22053093.623   115889799.481       -1225.752          38.000  
  22024668.712   115740402.451       -1225.709          38.000  
  21926786.583   115226066.928       -1225.775          39.000  
  22140423.372   116348753.582       -1225.856          38.000  
  21919759.996   115189115.059       -1225.820          39.000  
  22113461.816   116207038.436       -1225.779          40.000  
  22134562.414   116317920.494       -1225.819          38.000  
  21964884.288   115426246.405       -1225.734          38.000  
  21953745.829   115367753.130       -1225.667          38.000  
  21961368.154   115407792.813       -1225.768          40.000  
  22041371.331   115828216.873       -1225.840          37.000  
  22024374.947   115738887.026       -1225.726          38.000  
  21879605.703   114978101.402       -1225.817          39.000  
  21870815.999   114931917.459       -1225.963          37.000  
  21929719.340   115241425.750       -1225.767          40.000  
  21998035.573   115600455.495       -1225.818          34.000  
  22091780.098   116093094.206       -1225.730          37.000  
 25  8 13 10 20 22.6020000  0 30G 1G 2G 3G 4G 5G 7G 6G 8G31G20G25G29
                                G15G30G26G32G16G14G28G13G19G12G21G10
                                G23G17G 9G24G11G22
  22009862.657   115662734.319       -1225.941          44.000  
  22009776.611   115662129.080       -1225.948          49.000  
  22009749.687   115662097.693       -1225.935          49.000  
  22009754.251   115662090.951       -1225.961          49.000  
  22009665.911   115661580.876       -1225.959          49.000  
  22009718.808   115661750.207       -1226.029          41.000  
  22009694.023   115662119.198       -1225.961          44.000  
  22009769.151   115662117.131       -1225.980          46.000  
  22149261.174   116395203.823       -1225.941          38.000  
  22057538.170   115913177.505       -1225.892          37.000  
  21880829.271   114984511.662       -1226.069          37.000  
  22019439.139   115712965.029       -1226.041          37.000  
  22075412.082   116007104.016       -1226.053          39.000  
  22053140.294   115890044.655       -1225.980          38.000  
  22024715.404   115740647.620       -1226.019          38.000  
  21926833.234   115226312.102       -1226.016          39.000  
  22140470.086   116348998.755       -1225.857          38.000  
  21919806.659   115189360.232       -1225.920          39.000  
  22113508.492   116207283.610       -1225.989          40.000  
  22134609.090   116318165.666       -1225.947          38.000  
  21964930.973   115426491.582       -1226.094          37.000  
  21953792.506   115367998.301       -1226.115          38.000  
  21961414.801   115408037.986       -1225.959          40.000  
  22041417.962   115828462.050       -1226.013          37.000  
  22024421.580   115739132.202       -1226.040          38.000  
  21879652.361   114978346.574       -1225.995          40.000  
  21870862.606   114932162.635       -1225.841          37.000  
  21929765.992   115241670.926       -1225.914          40.000  
  21998082.236   115600700.662       -1226.018          34.000  
  22091826.678   116093339.376       -1226.062          37.000  
 25  8 13 10 20 22.8020000  0 30G 1G 2G 3G 4G 5G 7G 6G 8G31G20G25G29
                                G15G30G26G32G16G14G28G13G19G12G21G10
                                G23G17G 9G24G11G22
  22009909.289   115662979.472       -1225.751          44.000  
  22009823.269   115662374.237       -1225.857          49.000  
  22009796.338   115662342.851       -1225.841          49.000  
  22009800.900   115662336.110       -1225.902          49.000  
  22009711.882   115661826.031       -1225.837          49.000  
  22009765.473   115661995.357       -1225.806          41.000  
  22009740.663   115662364.351       -1225.798          44.000  
  22009815.821   115662362.288       -1225.876          46.000  
  22149307.872   116395448.974       -1225.771          38.000  
  22057584.819   115913422.653       -1225.674          37.000  
  21880875.929   114984756.812       -1225.853          37.000  
  22019485.778   115713210.183       -1225.868          37.000  
  22075458.710   116007349.180       -1226.077          39.000  
  22053186.921   115890289.809       -1225.817          38.000  
  22024762.072   115740892.788       -1226.177          38.000  
  21926879.887   115226557.257       -1225.863          39.000  
  22140516.635   116349243.904       -1225.646          38.000  
  21919853.317   115189605.390       -1225.844          39.000  
  22113555.121   116207528.763       -1225.803          40.000  
  22134655.734   116318410.824       -1225.945          38.000  
  21964977.603   115426736.737       -1225.897          37.000  
  21953839.137   115368243.471       -1226.252          38.000  
  21961461.474   115408283.143       -1225.912          40.000  
  22041464.580   115828707.200       -1225.764          37.000  
  22024468.189   115739377.355       -1225.851          38.000  
  21879698.967   114978591.728       -1225.823          40.000  
  21870909.283   114932407.779       -1225.509          37.000  
  21929812.645   115241916.076       -1225.739          40.000  
  21998128.905   115600945.822       -1225.881          34.000  
  22091873.302   116093584.535       -1225.977          37.000  
 25  8 13 10 20 23.0020000  0 30G 1G 2G 3G 4G 5G 7G 6G 8G31G20G25G29
                                G15G30G26G32G16G14G28G13G19G12G21G10
                                G23G17G 9G24G11G22
  22009955.956   115663224.626       -1225.776          44.000  
  22009869.933   115662619.385       -1225.713          49.000  
  22009842.994   115662588.002       -1225.732          49.000  
  22009847.537   115662581.258       -1225.692          49.000  
  22009758.704   115662071.179       -1225.719          49.000  
  22009812.138   115662240.508       -1225.775          41.000  
  22009787.327   115662609.504       -1225.771          44.000  
  22009862.432   115662607.440       -1225.712          46.000  
  22149354.534   116395694.128       -1225.791          38.000  
  22057631.499   115913667.803       -1225.813          37.000  
  21880922.558   114985001.969       -1225.815          37.000  
  22019532.428   115713455.336       -1225.731          37.000  
  22075505.372   116007594.331       -1225.663          39.000  
  22053233.578   115890534.958       -1225.751          38.000  
  22024808.703   115741137.941       -1225.549          38.000  
  21926926.517   115226802.406       -1225.747          39.000  
  22140563.350   116349489.059       -1225.826          38.000  
  21919899.995   115189850.541       -1225.631          39.000  
  22113601.784   116207773.916       -1225.784          40.000  
  22134702.363   116318655.976       -1225.636          38.000  
  21965024.235   115426981.885       -1225.671          37.000  
  21953885.784   115368488.622       -1225.511          38.000  
  21961508.114   115408528.292       -1225.632          40.000  
  22041511.244   115828952.348       -1225.786          37.000  
  22024514.858   115739622.506       -1225.657          38.000  
  21879745.589   114978836.883       -1225.784          39.000  
  21870955.895   114932652.930       -1225.870          37.000  
  21929859.305   115242161.228       -1225.758          40.000  
  21998175.584   115601190.975       -1225.748          34.000  
  22091919.978   116093829.688       -1225.664          37.000  
 25  8 13 10 20 23.2020000  0 30G 1G 2G 3G 4G 5G 7G 6G 8G31G20G25G29
                                G15G30G26G32G16G14G28G13G19G12G21G10
                                G23G17G 9G24G11G22
  22010002.620   115663469.777       -1225.852          44.000  
  22009916.594   115662864.536       -1225.792          49.000  
  22009889.626   115662833.152       -1225.793          49.000  
  22009894.201   115662826.408       -1225.779          49.000  
  22009805.743   115662316.328       -1225.834          49.000  
  22009858.771   115662485.656       -1225.764          41.000  
  22009833.991   115662854.652       -1225.800          44.000  
  22009909.083   115662852.592       -1225.837          46.000  
  22149401.164   116395939.279       -1225.880          38.000  
  22057678.118   115913912.947       -1225.754          37.000  
  21880969.254   114985247.112       -1225.808          37.000  
  22019579.117   115713700.490       -1225.938          37.000  
  22075552.022   116007839.483       -1225.804          39.000  
  22053280.258   115890780.105       -1225.800          39.000  
  22024855.335   115741383.094       -1225.800          38.000  
  21926973.162   115227047.557       -1225.790          40.000  
  22140609.956   116349734.207       -1225.856          38.000  
  21919946.607   115190095.695       -1225.817          39.000  
  22113648.409   116208019.062       -1225.787          40.000  
  22134748.955   116318901.134       -1225.889          38.000  
  21965070.876   115427227.039       -1225.840          38.000  
  21953932.431   115368733.779       -1225.789          38.000  
  21961554.764   115408773.443       -1225.773          39.000  
  22041557.890   115829197.497       -1225.786          37.000  
  22024561.506   115739867.657       -1225.818          38.000  
  21879792.260   114979082.030       -1225.825          39.000  
  21871002.540   114932898.076       -1225.882          37.000  
  21929905.969   115242406.376       -1225.812          40.000  
  21998222.229   115601436.128       -1225.916          34.000  
  22091966.675   116094074.838       -1225.825          37.000  
 25  8 13 10 20 23.4020000  0 30G 1G 2G 3G 4G 5G 7G 6G 8G31G20G25G29
                                G15G30G26G32G16G14G28G13G19G12G21G10
                                G23G17G 9G24G11G22
  22010049.270   115663714.901       -1225.664          44.000  
  22009963.257   115663109.666       -1225.724          49.000  
  22009936.284   115663078.283       -1225.742          49.000  
  22009940.836   115663071.538       -1225.725          49.000  
  22009852.876   115662561.455       -1225.685          49.000  
  22009905.440   115662730.786       -1225.704          41.000  
  22009880.654   115663099.779       -1225.637          44.000  
  22009955.706   115663097.719       -1225.690          46.000  
  22149447.809   116396184.406       -1225.729          38.000  
  22057724.746   115914158.073       -1225.619          37.000  
  21881015.862   114985492.238       -1225.644          37.000  
  22019625.745   115713945.614       -1225.773          37.000  
  22075598.712   116008084.612       -1225.752          39.000  
  22053326.914   115891025.231       -1225.616          39.000  
  22024901.970   115741628.219       -1225.638          38.000  
  21927019.779   115227292.687       -1225.735          40.000  
  22140656.643   116349979.336       -1225.710          38.000  
  21919993.260   115190340.821       -1225.680          39.000  
  22113695.060   116208264.192       -1225.712          40.000  
  22134795.633   116319146.256       -1225.638          38.000  
  21965117.538   115427472.166       -1225.737          38.000  
  21953979.073   115368978.906       -1225.712          38.000  
  21961601.374   115409018.572       -1225.677          39.000  
  22041604.565   115829442.624       -1225.714          37.000  
  22024608.167   115740112.782       -1225.703          38.000  
  21879838.902   114979327.156       -1225.701          39.000  
  21871049.167   114933143.203       -1225.737          37.000  
  21929952.621   115242651.503       -1225.687          40.000  
  21998268.836   115601681.251       -1225.782          34.000  
  22092013.351   116094319.962       -1225.668          37.000  
 25  8 13 10 20 23.6020000  0 30G 1G 2G 3G 4G 5G 7G 6G 8G31G20G25G29
                                G15G30G26G32G16G14G28G13G19G12G21G10
                                G23G17G 9G24G11G22
  22010095.913   115663960.059       -1225.829          44.000  
  22010009.927   115663354.821       -1225.872          49.000  
  22009982.934   115663323.436       -1225.880          49.000  
  22009987.492   115663316.692       -1225.878          49.000  
  22009899.987   115662806.610       -1225.837          49.000  
  22009952.046   115662975.943       -1225.835          41.000  
  22009927.303   115663344.937       -1225.829          44.000  
  22010002.351   115663342.875       -1225.831          46.000  
  22149494.424   116396429.558       -1225.852          38.000  
  22057771.388   115914403.237       -1225.881          38.000  
  21881062.506   114985737.401       -1225.862          37.000  
  22019672.384   115714190.767       -1225.853          37.000  
  22075645.289   116008329.764       -1225.806          39.000  
  22053373.543   115891270.390       -1225.869          39.000  
  22024948.609   115741873.381       -1225.902          37.000  
  21927066.415   115227537.841       -1225.872          40.000  
  22140703.255   116350224.492       -1225.857          38.000  
  21920039.873   115190585.979       -1225.911          39.000  
  22113741.698   116208509.347       -1225.789          40.000  
  22134842.286   116319391.417       -1225.885          38.000  
  21965164.149   115427717.322       -1225.848          38.000  
  21954025.724   115369224.059       -1225.804          38.000  
  21961648.032   115409263.727       -1225.812          39.000  
  22041651.218   115829687.783       -1225.834          37.000  
  22024654.785   115740357.943       -1225.929          38.000  
  21879885.552   114979572.312       -1225.851          39.000  
  21871095.864   114933388.356       -1225.861          37.000  
  21929999.284   115242896.662       -1225.890          40.000  
  21998315.472   115601926.404       -1225.780          34.000  
  22092060.059   116094565.117       -1225.824          37.000  
 25  8 13 10 20 23.8020000  0 30G 1G 2G 3G 4G 5G 7G 6G 8G31G20G25G29
                                G15G30G26G32G16G14G28G13G19G12G21G10
                                G23G17G 9G24G11G22
  22010142.547   115664205.202       -1225.577          44.000  
  22010056.590   115663599.972       -1225.829          49.000  
  22010029.591   115663568.586       -1225.789          49.000  
  22010034.154   115663561.845       -1225.955          49.000  
  22009946.803   115663051.755       -1225.696          49.000  
  22009998.706   115663221.090       -1225.695          41.000  
  22009973.948   115663590.083       -1225.663          44.000  
  22010048.970   115663588.022       -1225.776          46.000  
  22149541.085   116396674.706       -1225.559          38.000  
  22057818.063   115914648.379       -1225.433          37.000  
  21881109.158   114985982.545       -1225.682          37.000  
  22019719.027   115714435.916       -1225.876          37.000  
  22075692.002   116008574.916       -1226.100          39.000  
  22053420.193   115891515.533       -1225.677          39.000  
  22024995.229   115742118.532       -1226.348          38.000  
  21927113.070   115227782.987       -1225.737          40.000  
  22140749.932   116350469.637       -1225.453          38.000  
  21920086.568   115190831.123       -1225.764          39.000  
  22113788.377   116208754.495       -1225.709          40.000  
  22134888.989   116319636.563       -1225.905          38.000  
  21965210.837   115427962.471       -1225.803          38.000  
  21954072.392   115369469.215       -1226.439          38.000  
  21961694.649   115409508.873       -1225.797          39.000  
  22041697.909   115829932.929       -1225.587          37.000  
  22024701.460   115740603.087       -1225.780          38.000  
  21879932.179   114979817.458       -1225.729          39.000  
  21871142.503   114933633.493       -1225.020          37.000  
  21930045.895   115243141.806       -1225.536          40.000  
  21998362.147   115602171.554       -1225.809          34.000  
  22092106.683   116094810.267       -1225.897          37.000  
 25  8 13 10 20 24.0020000  0 30G 1G 2G 3G 4G 5G 7G 6G 8G31G20G25G29
                                G15G30G26G32G16G14G28G13G19G12G21G10
                                G23G17G 9G24G11G22
  22010189.230   115664450.390       -1226.085          44.000  
  22010103.264   115663845.141       -1225.879          49.000  
  22010076.265   115663813.758       -1225.894          49.000  
  22010080.798   115663807.010       -1225.875          49.000  
  22009993.582   115663296.934       -1225.989          49.000  
  22010045.349   115663466.270       -1226.002          41.000  
  22010020.576   115663835.269       -1226.061          44.000  
  22010095.615   115663833.199       -1225.959          46.000  
  22149587.739   116396919.894       -1226.112          38.000  
  22057864.674   115914893.582       -1226.312          37.000  
  21881155.833   114986227.732       -1226.088          37.000  
  22019765.669   115714681.085       -1225.902          38.000  
  22075738.617   116008820.074       -1225.756          39.000  
  22053466.868   115891760.716       -1226.008          39.000  
  22025041.862   115742363.677       -1225.664          38.000  
  21927159.763   115228028.168       -1225.977          40.000  
  22140796.593   116350714.833       -1226.161          38.000  
  21920133.183   115191076.298       -1225.947          39.000  
  22113835.064   116208999.677       -1226.014          40.000  
  22134935.598   116319881.737       -1225.959          38.000  
  21965257.470   115428207.647       -1225.992          38.000  
  21954119.020   115369714.351       -1225.520          38.000  
  21961741.297   115409754.046       -1225.840          39.000  
  22041744.535   115830178.117       -1226.085          37.000  
  22024748.112   115740848.265       -1226.031          39.000  
  21879978.842   114980062.637       -1225.956          39.000  
  21871189.184   114933878.708       -1226.331          37.000  
  21930092.565   115243386.997       -1226.156          40.000  
  21998408.761   115602416.730       -1225.930          34.000  
  22092153.339   116095055.437       -1225.881          37.000  
 25  8 13 10 20 24.2020000  0 30G 1G 2G 3G 4G 5G 7G 6G 8G31G20G25G29
                                G15G30G26G32G16G14G28G13G19G12G21G10
                                G23G17G 9G24G11G22
  22010235.878   115664695.558       -1225.875          44.000  
  22010149.945   115664090.325       -1225.913          49.000  
  22010122.929   115664058.939       -1225.914          49.000  
  22010127.457   115664052.192       -1225.881          49.000  
  22010040.260   115663542.109       -1225.883          49.000  
  22010091.994   115663711.442       -1225.842          41.000  
  22010067.215   115664080.442       -1225.902          44.000  
  22010142.278   115664078.376       -1225.856          46.000  
  22149634.399   116397165.058       -1225.790          38.000  
  22057911.283   115915138.736       -1225.942          37.000  
  21881202.462   114986472.904       -1225.917          37.000  
  22019812.305   115714926.268       -1225.854          38.000  
  22075785.305   116009065.262       -1225.806          39.000  
  22053513.522   115892005.891       -1225.906          39.000  
  22025088.485   115742608.874       -1225.701          38.000  
  21927206.424   115228273.344       -1225.913          40.000  
  22140843.358   116350959.997       -1225.938          38.000  
  21920179.862   115191321.472       -1225.824          39.000  
  22113881.746   116209244.851       -1225.895          40.000  
  22134982.234   116320126.913       -1225.861          38.000  
  21965304.133   115428452.826       -1225.900          38.000  
  21954165.658   115369959.556       -1225.715          38.000  
  21961787.949   115409999.228       -1225.840          39.000  
  22041791.237   115830423.286       -1225.840          37.000  
  22024794.783   115741093.442       -1225.913          38.000  
  21880025.484   114980307.813       -1225.882          39.000  
  21871235.789   114934123.862       -1225.981          37.000  
  21930139.247   115243632.167       -1225.990          40.000  
  21998455.411   115602661.907       -1225.780          34.000  
  22092199.973   116095300.621       -1225.881          37.000  
 25  8 13 10 20 24.4020000  0 30G 1G 2G 3G 4G 5G 7G 6G 8G31G20G25G29
                                G15G30G26G32G16G14G28G13G19G12G21G10
                                G23G17G 9G24G11G22
  22010282.543   115664940.722       -1225.880          44.000  
  22010196.604   115664335.486       -1225.806          49.000  
  22010169.597   115664304.099       -1225.786          49.000  
  22010174.102   115664297.355       -1225.790          49.000  
  22010086.859   115663787.273       -1225.878          49.000  
  22010138.680   115663956.607       -1225.898          41.000  
  22010113.878   115664325.607       -1225.885          44.000  
  22010188.954   115664323.543       -1225.908          46.000  
  22149681.079   116397410.231       -1225.930          38.000  
  22057957.898   115915383.896       -1225.898          37.000  
  21881249.166   114986718.064       -1225.857          37.000  
  22019858.977   115715171.437       -1225.941          38.000  
  22075831.972   116009310.431       -1225.878          39.000  
  22053560.155   115892251.053       -1225.887          39.000  
  22025135.169   115742854.044       -1225.780          38.000  
  21927253.092   115228518.507       -1225.901          40.000  
  22140889.962   116351205.156       -1225.872          38.000  
  21920226.498   115191566.641       -1225.837          39.000  
  22113928.387   116209490.017       -1225.900          40.000  
  22135028.852   116320372.080       -1225.896          38.000  
  21965350.793   115428697.988       -1225.865          38.000  
  21954212.298   115370204.733       -1225.814          38.000  
  21961834.612   115410244.398       -1225.913          39.000  
  22041837.854   115830668.450       -1225.880          37.000  
  22024841.463   115741338.606       -1225.905          38.000  
  21880072.163   114980552.979       -1225.864          39.000  
  21871282.470   114934369.019       -1225.828          37.000  
  21930185.894   115243877.326       -1225.862          40.000  
  21998502.041   115602907.072       -1225.913          34.000  
  22092246.610   116095545.788       -1225.895          37.000  
 25  8 13 10 20 24.6020000  0 30G 1G 2G 3G 4G 5G 7G 6G 8G31G20G25G29
                                G15G30G26G32G16G14G28G13G19G12G21G10
                                G23G17G 9G24G11G22
  22010329.190   115665185.899       -1225.968          44.000  
  22010243.257   115664580.665       -1225.940          49.000  
  22010216.232   115664549.277       -1225.948          49.000  
  22010220.738   115664542.528       -1225.835          49.000  
  22010133.482   115664032.449       -1225.967          49.000  
  22010185.346   115664201.783       -1225.999          41.000  
  22010160.525   115664570.786       -1225.999          44.000  
  22010235.595   115664568.710       -1225.890          46.000  
  22149727.727   116397655.401       -1225.875          38.000  
  22058004.558   115915629.082       -1226.104          37.000  
  21881295.808   114986963.248       -1226.021          37.000  
  22019905.624   115715416.604       -1225.842          38.000  
  22075878.624   116009555.599       -1225.875          39.000  
  22053606.834   115892496.235       -1226.005          39.000  
  22025181.790   115743099.208       -1225.750          38.000  
  21927299.691   115228763.684       -1225.959          40.000  
  22140936.646   116351450.344       -1226.108          38.000  
  21920273.148   115191811.814       -1225.892          39.000  
  22113975.046   116209735.194       -1226.014          40.000  
  22135075.521   116320617.250       -1225.867          38.000  
  21965397.458   115428943.163       -1225.927          38.000  
  21954258.979   115370449.887       -1225.656          38.000  
  21961881.266   115410489.568       -1225.983          39.000  
  22041884.532   115830913.630       -1226.055          37.000  
  22024888.115   115741583.780       -1225.890          39.000  
  21880118.813   114980798.154       -1225.944          39.000  
  21871329.099   114934614.210       -1226.115          37.000  
  21930232.560   115244122.509       -1226.067          40.000  
  21998548.703   115603152.247       -1225.864          34.000  
  22092293.328   116095790.964       -1226.012          37.000  
 25  8 13 10 20 24.8020000  0 30G 1G 2G 3G 4G 5G 7G 6G 8G31G20G25G29
                                G15G30G26G32G16G14G28G13G19G12G21G10
                                G23G17G 9G24G11G22
  22010375.851   115665431.062       -1225.917          44.000  
  22010289.938   115664825.831       -1225.862          49.000  
  22010262.894   115664794.438       -1225.852          49.000  
  22010267.403   115664787.698       -1225.886          49.000  
  22010179.621   115664277.615       -1225.962          49.000  
  22010231.999   115664446.947       -1225.956          41.000  
  22010207.172   115664815.950       -1225.923          44.000  
  22010282.294   115664813.875       -1225.972          45.000  
  22149774.375   116397900.576       -1225.988          38.000  
  22058051.179   115915874.235       -1225.826          37.000  
  21881342.486   114987208.411       -1225.939          37.000  
  22019952.240   115715661.775       -1225.955          38.000  
  22075925.298   116009800.767       -1226.018          39.000  
  22053653.487   115892741.398       -1225.936          39.000  
  22025228.461   115743344.390       -1226.204          38.000  
  21927346.329   115229008.843       -1225.865          40.000  
  22140983.286   116351695.496       -1225.792          38.000  
  21920319.785   115192056.985       -1226.029          39.000  
  22114021.678   116209980.356       -1225.930          40.000  
  22135122.119   116320862.423       -1226.075          38.000  
  21965444.099   115429188.330       -1225.970          38.000  
  21954305.643   115370695.076       -1226.320          38.000  
  21961927.945   115410734.734       -1225.985          39.000  
  22041931.153   115831158.794       -1225.875          37.000  
  22024934.798   115741828.951       -1226.049          39.000  
  21880165.510   114981043.318       -1225.903          39.000  
  21871375.757   114934859.364       -1225.823          37.000  
  21930279.239   115244367.667       -1225.844          40.000  
  21998595.350   115603397.416       -1225.986          34.000  
  22092339.993   116096036.123       -1225.933          37.000  
 25  8 13 10 20 25.0020000  0 30G 1G 2G 3G 4G 5G 7G 6G 8G31G20G25G29
                                G15G30G26G32G16G14G28G13G19G12G21G10
                                G23G17G 9G24G11G22
  22010422.500   115665676.224       -1225.743          45.000  
  22010336.596   115665070.983       -1225.669          49.000  
  22010309.558   115665039.594       -1225.696          49.000  
  22010314.039   115665032.854       -1225.790          49.000  
  22010225.468   115664522.776       -1225.786          49.000  
  22010278.666   115664692.104       -1225.699          41.000  
  22010253.804   115665061.097       -1225.645          44.000  
  22010328.936   115665059.030       -1225.793          46.000  
  22149821.053   116398145.728       -1225.712          38.000  
  22058097.830   115916119.399       -1225.607          37.000  
  21881389.166   114987453.568       -1225.779          37.000  
  22019998.855   115715906.925       -1225.812          38.000  
  22075971.971   116010045.920       -1225.903          39.000  
  22053700.103   115892986.553       -1225.708          39.000  
  22025275.090   115743589.538       -1226.111          38.000  
  21927392.944   115229254.002       -1225.742          40.000  
  22141029.956   116351940.661       -1225.660          38.000  
  21920366.466   115192302.143       -1225.819          39.000  
  22114068.301   116210225.511       -1225.702          40.000  
  22135168.794   116321107.574       -1225.844          38.000  
  21965490.752   115429433.480       -1225.725          38.000  
  21954352.273   115370940.215       -1226.198          38.000  
  21961974.596   115410979.889       -1225.804          39.000  
  22041977.769   115831403.946       -1225.599          37.000  
  22024981.413   115742074.099       -1225.684          39.000  
  21880212.134   114981288.477       -1225.825          39.000  
  21871422.420   114935104.528       -1225.375          37.000  
  21930325.904   115244612.830       -1225.654          40.000  
  21998642.020   115603642.562       -1225.743          34.000  
  22092386.596   116096281.282       -1225.913          37.000  
 25  8 13 10 20 25.2020000  0 30G 1G 2G 3G 4G 5G 7G 6G 8G31G20G25G29
                                G15G30G26G32G16G14G28G13G19G12G21G10
                                G23G17G 9G24G11G22
  22010469.144   115665921.394       -1225.997          45.000  
  22010383.272   115665316.141       -1225.809          49.000  
  22010356.229   115665284.758       -1225.825          49.000  
  22010360.712   115665278.010       -1225.801          49.000  
  22010271.846   115664767.938       -1225.900          49.000  
  22010325.340   115664937.264       -1225.900          41.000  
  22010300.457   115665306.257       -1225.959          44.000  
  22010375.648   115665304.193       -1225.869          46.000  
  22149867.692   116398390.896       -1226.017          38.000  
  22058144.519   115916364.571       -1226.080          37.000  
  21881435.831   114987698.730       -1225.942          37.000  
  22020045.531   115716152.082       -1225.807          38.000  
  22076018.652   116010291.073       -1225.696          39.000  
  22053746.738   115893231.713       -1225.867          39.000  
  22025321.760   115743834.679       -1225.596          38.000  
  21927439.605   115229499.161       -1225.862          39.000  
  22141076.554   116352185.826       -1226.069          38.000  
  21920413.068   115192547.298       -1225.896          39.000  
  22114114.966   116210470.676       -1225.946          40.000  
  22135215.446   116321352.734       -1225.913          38.000  
  21965537.363   115429678.636       -1225.793          38.000  
  21954398.935   115371185.360       -1225.532          38.000  
  21962021.263   115411225.048       -1225.826          39.000  
  22042024.407   115831649.112       -1225.957          37.000  
  22025028.073   115742319.260       -1225.920          39.000  
  21880258.800   114981533.633       -1225.863          39.000  
  21871469.113   114935349.706       -1226.201          37.000  
  21930372.538   115244857.997       -1226.041          40.000  
  21998688.675   115603887.719       -1225.768          34.000  
  22092433.197   116096526.445       -1225.847          37.000  
 25  8 13 10 20 25.4020000  0 30G 1G 2G 3G 4G 5G 7G 6G 8G31G20G25G29
                                G15G30G26G32G16G14G28G13G19G12G21G10
                                G23G17G 9G24G11G22
  22010515.811   115666166.557       -1225.948          44.000  
  22010429.945   115665561.312       -1225.963          49.000  
  22010402.882   115665529.925       -1225.925          49.000  
  22010407.375   115665523.186       -1226.008          49.000  
  22010318.706   115665013.101       -1225.958          49.000  
  22010371.949   115665182.425       -1225.920          41.000  
  22010347.104   115665551.423       -1226.030          44.000  
  22010422.356   115665549.361       -1226.006          46.000  
  22149914.321   116398636.059       -1225.955          38.000  
  22058191.188   115916609.725       -1225.991          37.000  
  21881482.432   114987943.893       -1225.945          37.000  
  22020092.168   115716397.255       -1226.024          38.000  
  22076065.296   116010536.255       -1226.008          39.000  
  22053793.377   115893476.879       -1225.999          39.000  
  22025368.406   115744079.868       -1226.038          38.000  
  21927486.251   115229744.329       -1225.969          40.000  
  22141123.223   116352430.981       -1225.980          38.000  
  21920459.733   115192792.464       -1225.940          39.000  
  22114161.601   116210715.841       -1225.977          40.000  
  22135262.142   116321597.900       -1225.946          38.000  
  21965584.001   115429923.810       -1225.983          38.000  
  21954445.585   115371430.554       -1226.084          38.000  
  21962067.936   115411470.221       -1226.002          39.000  
  22042071.074   115831894.277       -1225.967          37.000  
  22025074.697   115742564.425       -1225.945          38.000  
  21880305.428   114981778.801       -1225.960          39.000  
  21871515.773   114935594.843       -1225.870          37.000  
  21930419.186   115245103.159       -1226.010          40.000  
  21998735.383   115604132.893       -1226.006          34.000  
  22092479.856   116096771.619       -1226.049          37.000  
 25  8 13 10 20 25.6020000  0 30G 1G 2G 3G 4G 5G 7G 6G 8G31G20G25G29
                                G15G30G26G32G16G14G28G13G19G12G21G10
                                G23G17G 9G24G11G22
  22010562.450   115666411.739       -1226.049          44.000  
  22010476.629   115665806.513       -1226.077          49.000  
  22010449.548   115665775.125       -1226.172          49.000  
  22010454.028   115665768.384       -1226.089          49.000  
  22010364.716   115665258.299       -1226.160          49.000  
  22010418.623   115665427.631       -1226.223          41.000  
  22010393.784   115665796.631       -1226.154          44.000  
  22010469.029   115665794.556       -1226.173          46.000  
  22149960.973   116398881.253       -1226.149          38.000  
  22058237.872   115916854.916       -1226.055          37.000  
  21881529.131   114988189.094       -1226.167          37.000  
  22020138.849   115716642.455       -1226.078          38.000  
  22076111.925   116010781.457       -1226.184          39.000  
  22053840.033   115893722.077       -1226.067          39.000  
  22025415.110   115744325.076       -1226.305          38.000  
  21927532.899   115229989.530       -1226.124          40.000  
  22141169.821   116352676.173       -1226.050          38.000  
  21920506.355   115193037.671       -1226.176          39.000  
  22114208.246   116210961.039       -1226.143          40.000  
  22135308.777   116321843.104       -1226.193          38.000  
  21965630.634   115430169.014       -1226.229          38.000  
  21954492.249   115371675.761       -1226.295          38.000  
  21962114.575   115411715.419       -1226.176          39.000  
  22042117.749   115832139.475       -1226.138          37.000  
  22025121.357   115742809.630       -1226.168          38.000  
  21880352.082   114982024.000       -1226.096          39.000  
  21871562.378   114935840.045       -1226.053          37.000  
  21930465.833   115245348.346       -1226.017          40.000  
  21998781.994   115604378.092       -1226.010          34.000  
  22092526.553   116097016.808       -1226.161          37.000  
 25  8 13 10 20 25.8020000  0 30G 1G 2G 3G 4G 5G 7G 6G 8G31G20G25G29
                                G15G30G26G32G16G14G28G13G19G12G21G10
                                G23G17G 9G24G11G22
  22010609.098   115666656.942       -1225.913          44.000  
  22010523.286   115666051.705       -1225.872          49.000  
  22010496.235   115666020.321       -1225.902          49.000  
  22010500.656   115666013.580       -1226.002          49.000  
  22010411.156   115665503.492       -1225.939          49.000  
  22010465.287   115665672.816       -1225.746          41.000  
  22010440.441   115666041.822       -1225.792          44.000  
  22010515.601   115666039.754       -1225.952          46.000  
  22150007.628   116399126.441       -1225.746          38.000  
  22058284.571   115917100.114       -1225.691          37.000  
  21881575.827   114988434.291       -1225.927          37.000  
  22020185.508   115716887.654       -1225.956          38.000  
  22076158.566   116011026.652       -1226.047          39.000  
  22053886.687   115893967.273       -1225.825          39.000  
  22025461.738   115744570.276       -1226.323          38.000  
  21927579.523   115230234.725       -1225.857          40.000  
  22141216.491   116352921.374       -1225.785          38.000  
  21920553.006   115193282.863       -1226.071          39.000  
  22114254.921   116211206.237       -1225.922          40.000  
  22135355.447   116322088.302       -1226.045          38.000  
  21965677.279   115430414.207       -1225.938          38.000  
  21954538.923   115371920.959       -1226.520          38.000  
  21962161.251   115411960.616       -1226.016          39.000  
  22042164.414   115832384.665       -1225.774          37.000  
  22025168.007   115743054.822       -1225.903          38.000  
  21880398.692   114982269.198       -1225.964          39.000  
  21871609.022   114936085.240       -1225.785          37.000  
  21930512.485   115245593.546       -1225.840          40.000  
  21998828.640   115604623.296       -1226.133          34.000  
  22092573.223   116097262.010       -1225.922          37.000  
 25  8 13 10 20 26.0020000  0 30G 1G 2G 3G 4G 5G 7G 6G 8G31G20G25G29
                                G15G30G26G32G16G14G28G13G19G12G21G10
                                G23G17G 9G24G11G22
  22010655.740   115666902.108       -1225.938          44.000  
  22010569.949   115666296.883       -1225.913          49.000  
  22010542.898   115666265.493       -1225.869          49.000  
  22010547.323   115666258.754       -1225.918          49.000  
  22010458.059   115665748.668       -1225.939          49.000  
  22010511.915   115665918.012       -1226.007          41.000  
  22010487.086   115666287.005       -1226.001          44.000  
  22010562.310   115666284.931       -1225.962          46.000  
  22150054.288   116399371.625       -1225.955          38.000  
  22058331.263   115917345.291       -1225.948          37.000  
  21881622.461   114988679.462       -1225.992          37.000  
  22020232.178   115717132.829       -1226.007          38.000  
  22076205.234   116011271.825       -1225.944          39.000  
  22053933.349   115894212.443       -1225.879          39.000  
  22025508.429   115744815.442       -1225.974          38.000  
  21927626.183   115230479.903       -1226.038          40.000  
  22141263.140   116353166.547       -1225.941          38.000  
  21920599.663   115193528.033       -1225.905          39.000  
  22114301.566   116211451.407       -1225.961          40.000  
  22135402.084   116322333.474       -1225.990          38.000  
  21965723.882   115430659.382       -1225.989          38.000  
  21954585.577   115372166.127       -1225.983          38.000  
  21962207.929   115412205.789       -1226.010          39.000  
  22042211.106   115832629.846       -1225.984          37.000  
  22025214.663   115743300.001       -1226.047          38.000  
  21880445.392   114982514.371       -1225.935          39.000  
  21871655.708   114936330.412       -1225.875          37.000  
  21930559.153   115245838.720       -1225.892          40.000  
  21998875.316   115604868.468       -1226.018          34.000  
  22092619.858   116097507.185       -1226.033          37.000  
 25  8 13 10 20 26.2020000  0 30G 1G 2G 3G 4G 5G 7G 6G 8G31G20G25G29
                                G15G30G26G32G16G14G28G13G19G12G21G10
                                G23G17G 9G24G11G22
  22010702.402   115667147.271       -1225.822          44.000  
  22010616.612   115666542.049       -1225.886          49.000  
  22010589.548   115666510.658       -1225.907          49.000  
  22010593.968   115666503.915       -1225.902          49.000  
  22010505.324   115665993.827       -1225.809          49.000  
  22010558.577   115666163.173       -1225.817          41.000  
  22010533.726   115666532.165       -1225.869          44.000  
  22010608.960   115666530.103       -1225.923          46.000  
  22150100.953   116399616.786       -1225.847          38.000  
  22058377.914   115917590.457       -1225.743          37.000  
  21881669.106   114988924.624       -1225.883          37.000  
  22020278.802   115717377.992       -1225.874          38.000  
  22076251.907   116011516.986       -1225.895          39.000  
  22053980.021   115894457.606       -1225.875          39.000  
  22025555.060   115745060.603       -1225.983          38.000  
  21927672.835   115230725.063       -1225.883          40.000  
  22141309.822   116353411.712       -1225.834          38.000  
  21920646.268   115193773.195       -1225.862          39.000  
  22114348.212   116211696.569       -1225.813          40.000  
  22135448.751   116322578.640       -1225.891          38.000  
  21965770.532   115430904.540       -1225.817          38.000  
  21954632.208   115372411.287       -1225.935          38.000  
  21962254.600   115412450.950       -1225.800          39.000  
  22042257.807   115832875.002       -1225.814          37.000  
  22025261.277   115743545.158       -1225.862          38.000  
  21880492.020   114982759.532       -1225.855          39.000  
  21871702.385   114936575.582       -1225.854          37.000  
  21930605.814   115246083.885       -1225.732          40.000  
  21998921.962   115605113.624       -1225.830          34.000  
  22092666.565   116097752.348       -1225.859          37.000  
 25  8 13 10 20 26.4020000  0 30G 1G 2G 3G 4G 5G 7G 6G 8G31G20G25G29
                                G15G30G26G32G16G14G28G13G19G12G21G10
                                G23G17G 9G24G11G22
  22010749.090   115667392.454       -1225.851          44.000  
  22010663.288   115666787.227       -1225.898          49.000  
  22010636.227   115666755.833       -1225.869          49.000  
  22010640.608   115666749.088       -1225.820          49.000  
  22010552.028   115666239.011       -1225.936          49.000  
  22010605.268   115666408.338       -1225.824          41.000  
  22010580.346   115666777.348       -1225.875          44.000  
  22010655.650   115666775.274       -1225.856          46.000  
  22150147.597   116399861.967       -1225.884          38.000  
  22058424.583   115917835.647       -1225.975          37.000  
  21881715.760   114989169.805       -1225.902          37.000  
  22020325.489   115717623.169       -1225.900          38.000  
  22076298.583   116011762.152       -1225.736          39.000  
  22054026.677   115894702.792       -1225.913          39.000  
  22025601.753   115745305.761       -1225.679          38.000  
  21927719.484   115230970.244       -1225.883          40.000  
  22141356.454   116353656.895       -1225.822          38.000  
  21920692.894   115194018.374       -1225.927          39.000  
  22114394.845   116211941.749       -1225.818          40.000  
  22135495.420   116322823.811       -1225.889          38.000  
  21965817.194   115431149.725       -1225.881          38.000  
  21954678.855   115372656.447       -1225.792          38.000  
  21962301.249   115412696.128       -1225.831          39.000  
  22042304.438   115833120.190       -1225.896          37.000  
  22025307.969   115743790.340       -1225.876          38.000  
  21880538.674   114983004.711       -1225.810          39.000  
  21871749.024   114936820.771       -1226.041          37.000  
  21930652.479   115246329.074       -1225.922          40.000  
  21998968.635   115605358.799       -1225.828          34.000  
  22092713.240   116097997.524       -1225.771          37.000  
 25  8 13 10 20 26.6020000  0 30G 1G 2G 3G 4G 5G 7G 6G 8G31G20G25G29
                                G15G30G26G32G16G14G28G13G19G12G21G10
                                G23G17G 9G24G11G22
  22010795.757   115667637.582       -1225.654          44.000  
  22010709.949   115667032.367       -1225.760          49.000  
  22010682.859   115667000.976       -1225.779          49.000  
  22010687.286   115666994.237       -1225.836          49.000  
  22010598.453   115666484.145       -1225.743          49.000  
  22010651.932   115666653.480       -1225.895          41.000  
  22010626.998   115667022.474       -1225.748          44.000  
  22010702.340   115667020.414       -1225.846          46.000  
  22150194.259   116400107.099       -1225.696          38.000  
  22058471.278   115918080.773       -1225.848          38.000  
  21881762.396   114989414.939       -1225.778          37.000  
  22020372.154   115717868.307       -1225.680          38.000  
  22076345.256   116012007.304       -1225.774          39.000  
  22054073.327   115894947.923       -1225.771          39.000  
  22025648.386   115745550.918       -1225.724          38.000  
  21927766.100   115231215.378       -1225.745          40.000  
  22141403.138   116353902.028       -1225.786          38.000  
  21920739.553   115194263.514       -1225.685          39.000  
  22114441.484   116212186.890       -1225.826          40.000  
  22135542.092   116323068.953       -1225.758          38.000  
  21965863.851   115431394.855       -1225.731          38.000  
  21954725.508   115372901.602       -1225.608          38.000  
  21962347.911   115412941.270       -1225.830          39.000  
  22042351.093   115833365.320       -1225.752          37.000  
  22025354.588   115744035.478       -1225.748          38.000  
  21880585.298   114983249.850       -1225.780          39.000  
  21871795.703   114937065.894       -1225.765          37.000  
  21930699.102   115246574.201       -1225.699          40.000  
  21999015.298   115605603.938       -1225.654          34.000  
  22092759.898   116098242.665       -1225.807          37.000  
 25  8 13 10 20 26.8020000  0 30G 1G 2G 3G 4G 5G 7G 6G 8G31G20G25G29
                                G15G30G26G32G16G14G28G13G19G12G21G10
                                G23G17G 9G24G11G22
  22010842.396   115667882.740       -1225.770          44.000  
  22010756.620   115667277.520       -1225.811          49.000  
  22010729.515   115667246.125       -1225.800          49.000  
  22010733.908   115667239.385       -1225.752          49.000  
  22010644.999   115666729.299       -1225.780          49.000  
  22010698.610   115666898.657       -1225.865          41.000  
  22010673.639   115667267.625       -1225.714          44.000  
  22010748.930   115667265.561       -1225.587          46.000  
  22150240.861   116400352.254       -1225.734          38.000  
  22058517.909   115918325.924       -1225.692          38.000  
  21881809.075   114989660.091       -1225.741          37.000  
  22020418.829   115718113.464       -1225.740          38.000  
  22076391.900   116012252.460       -1225.853          39.000  
  22054119.941   115895193.075       -1225.775          39.000  
  22025695.046   115745796.073       -1225.851          38.000  
  21927812.727   115231460.533       -1225.753          40.000  
  22141449.753   116354147.176       -1225.649          38.000  
  21920786.186   115194508.671       -1225.903          39.000  
  22114488.161   116212432.031       -1225.652          40.000  
  22135588.733   116323314.111       -1225.812          38.000  
  21965910.492   115431640.019       -1225.786          38.000  
  21954772.165   115373146.755       -1225.819          38.000  
  21962394.541   115413186.418       -1225.739          39.000  
  22042397.712   115833610.474       -1225.708          37.000  
  22025401.269   115744280.632       -1225.833          39.000  
  21880631.978   114983495.006       -1225.778          39.000  
  21871842.354   114937311.053       -1225.745          37.000  
  21930745.751   115246819.352       -1225.659          40.000  
  21999061.963   115605849.103       -1225.829          34.000  
  22092806.545   116098487.815       -1225.784          37.000  
 25  8 13 10 20 27.0020000  0 30G 1G 2G 3G 4G 5G 7G 6G 8G31G20G25G29
                                G15G30G26G32G16G14G28G13G19G12G21G10
                                G23G17G 9G24G11G22
  22010889.058   115668127.914       -1226.110          44.000  
  22010803.303   115667522.680       -1226.016          49.000  
  22010776.155   115667491.292       -1225.979          49.000  
  22010780.552   115667484.542       -1225.870          49.000  
  22010691.763   115666974.460       -1225.989          49.000  
  22010745.255   115667143.801       -1225.917          41.000  
  22010720.314   115667512.795       -1226.012          44.000  
  22010795.601   115667510.732       -1226.088          46.000  
  22150287.574   116400597.421       -1226.005          38.000  
  22058564.530   115918571.103       -1226.202          38.000  
  21881855.717   114989905.261       -1226.056          37.000  
  22020465.489   115718358.621       -1226.024          38.000  
  22076438.501   116012497.607       -1225.806          39.000  
  22054166.594   115895438.244       -1226.061          39.000  
  22025741.646   115746041.210       -1225.629          38.000  
  21927859.385   115231705.695       -1225.955          40.000  
  22141496.505   116354392.356       -1226.177          38.000  
  21920832.799   115194753.825       -1225.935          39.000  
  22114534.804   116212677.206       -1226.030          40.000  
  22135635.359   116323559.265       -1225.883          38.000  
  21965957.153   115431885.176       -1225.968          38.000  
  21954818.816   115373391.885       -1225.536          38.000  
  21962441.187   115413431.578       -1225.902          39.000  
  22042444.386   115833855.643       -1226.140          37.000  
  22025447.904   115744525.790       -1225.901          39.000  
  21880678.597   114983740.168       -1226.031          39.000  
  21871889.013   114937556.235       -1226.312          37.000  
  21930792.422   115247064.529       -1226.149          40.000  
  21999108.601   115606094.254       -1225.973          34.000  
  22092853.221   116098732.976       -1226.029          37.000  
 25  8 13 10 20 27.2020000  0 30G 1G 2G 3G 4G 5G 7G 6G 8G31G20G25G29
                                G15G30G26G32G16G14G28G13G19G12G21G10
                                G23G17G 9G24G11G22
  22010935.709   115668373.076       -1225.900          44.000  
  22010849.968   115667767.847       -1225.885          49.000  
  22010822.806   115667736.461       -1225.930          49.000  
  22010827.191   115667729.719       -1225.935          49.000  
  22010738.122   115667219.631       -1225.817          49.000  
  22010791.909   115667388.960       -1225.597          41.000  
  22010766.947   115667757.962       -1225.885          44.000  
  22010842.345   115667755.898       -1226.005          46.000  
  22150334.211   116400842.587       -1225.873          38.000  
  22058611.205   115918816.258       -1225.905          38.000  
  21881902.390   114990150.424       -1225.878          37.000  
  22020512.138   115718603.789       -1225.846          38.000  
  22076485.126   116012742.786       -1225.869          39.000  
  22054213.205   115895683.405       -1225.817          39.000  
  22025788.381   115746286.401       -1225.811          38.000  
  21927906.045   115231950.862       -1225.847          40.000  
  22141543.169   116354637.508       -1225.847          38.000  
  21920879.428   115194998.999       -1225.874          39.000  
  22114581.442   116212922.373       -1225.959          40.000  
  22135682.015   116323804.437       -1225.878          38.000  
  21966003.767   115432130.345       -1225.840          38.000  
  21954865.468   115373637.092       -1225.854          38.000  
  21962487.838   115413676.755       -1225.923          39.000  
  22042491.003   115834100.802       -1225.933          37.000  
  22025494.585   115744770.963       -1225.847          39.000  
  21880725.279   114983985.335       -1225.928          39.000  
  21871935.671   114937801.380       -1225.881          37.000  
  21930839.079   115247309.688       -1225.854          40.000  
  21999155.261   115606339.432       -1225.847          34.000  
  22092899.860   116098978.141       -1225.765          37.000  
 25  8 13 10 20 27.4020000  0 30G 1G 2G 3G 4G 5G 7G 6G 8G31G20G25G29
                                G15G30G26G32G16G14G28G13G19G12G21G10
                                G23G17G 9G24G11G22
  22010982.342   115668618.248       -1225.919          44.000  
  22010896.633   115668013.014       -1225.878          49.000  
  22010869.454   115667981.625       -1225.823          49.000  
  22010873.828   115667974.880       -1225.824          49.000  
  22010784.970   115667464.799       -1225.878          49.000  
  22010838.570   115667634.136       -1225.762          41.000  
  22010813.596   115668003.127       -1225.801          44.000  
  22010888.990   115668001.054       -1225.784          46.000  
  22150380.859   116401087.753       -1225.870          38.000  
  22058657.842   115919061.423       -1225.739          38.000  
  21881949.020   114990395.594       -1225.839          37.000  
  22020558.745   115718848.960       -1225.945          38.000  
  22076531.781   116012987.958       -1225.995          39.000  
  22054259.846   115895928.575       -1225.819          39.000  
  22025834.992   115746531.576       -1226.077          38.000  
  21927952.672   115232196.028       -1225.780          40.000  
  22141589.856   116354882.673       -1225.648          38.000  
  21920926.078   115195244.166       -1225.984          39.000  
  22114628.087   116213167.535       -1225.815          40.000  
  22135728.697   116324049.604       -1225.869          38.000  
  21966050.429   115432375.512       -1225.839          38.000  
  21954912.103   115373882.263       -1226.276          38.000  
  21962534.538   115413921.918       -1225.913          39.000  
  22042537.672   115834345.959       -1225.618          37.000  
  22025541.198   115745016.130       -1225.859          39.000  
  21880771.876   114984230.501       -1225.853          39.000  
  21871982.313   114938046.547       -1225.735          37.000  
  21930885.726   115247554.855       -1225.865          40.000  
  21999201.919   115606584.598       -1225.961          34.000  
  22092946.538   116099223.313       -1225.942          37.000  
 25  8 13 10 20 27.6020000  0 30G 1G 2G 3G 4G 5G 7G 6G 8G31G20G25G29
                                G15G30G26G32G16G14G28G13G19G12G21G10
                                G23G17G 9G24G11G22
  22011029.005   115668863.436       -1226.011          44.000  
  22010943.311   115668258.205       -1226.002          49.000  
  22010916.119   115668226.817       -1226.023          49.000  
  22010920.471   115668220.065       -1225.923          49.000  
  22010831.589   115667709.987       -1225.968          49.000  
  22010885.226   115667879.325       -1226.078          41.000  
  22010860.248   115668248.319       -1226.021          44.000  
  22010935.666   115668246.247       -1225.920          46.000  
  22150427.494   116401332.945       -1226.056          38.000  
  22058704.532   115919306.626       -1226.073          38.000  
  21881995.683   114990640.783       -1225.938          37.000  
  22020605.437   115719094.145       -1225.953          38.000  
  22076578.409   116013233.137       -1225.936          39.000  
  22054306.497   115896173.765       -1225.956          39.000  
  22025881.667   115746776.741       -1225.800          38.000  
  21927999.351   115232441.221       -1225.952          40.000  
  22141636.466   116355127.876       -1226.018          38.000  
  21920972.701   115195489.354       -1226.041          39.000  
  22114674.751   116213412.730       -1225.966          40.000  
  22135775.335   116324294.793       -1226.001          38.000  
  21966097.088   115432620.700       -1225.916          38.000  
  21954958.760   115374127.411       -1225.649          38.000  
  21962581.223   115414167.103       -1225.868          39.000  
  22042584.335   115834591.164       -1226.028          37.000  
  22025587.882   115745261.321       -1225.994          39.000  
  21880818.552   114984475.690       -1225.955          39.000  
  21872029.004   114938291.755       -1226.230          37.000  
  21930932.386   115247800.049       -1226.028          40.000  
  21999248.583   115606829.775       -1225.859          34.000  
  22092993.136   116099468.494       -1225.830          37.000  
 25  8 13 10 20 27.8020000  0 30G 1G 2G 3G 4G 5G 7G 6G 8G31G20G25G29
                                G15G30G26G32G16G14G28G13G19G12G21G10
                                G23G17G 9G24G11G22
  22011075.655   115669108.612       -1225.872          44.000  
  22010989.963   115668503.371       -1225.798          49.000  
  22010962.796   115668471.987       -1225.850          49.000  
  22010967.102   115668465.234       -1225.776          49.000  
  22010878.247   115667955.154       -1225.823          49.000  
  22010931.898   115668124.488       -1225.790          41.000  
  22010906.914   115668493.492       -1225.880          44.000  
  22010982.295   115668491.416       -1225.896          46.000  
  22150474.148   116401578.114       -1225.813          38.000  
  22058751.197   115919551.798       -1225.940          37.000  
  21882042.364   114990885.956       -1225.840          37.000  
  22020652.086   115719339.312       -1225.872          38.000  
  22076625.082   116013478.299       -1225.796          39.000  
  22054353.150   115896418.931       -1225.809          39.000  
  22025928.308   115747021.904       -1225.831          38.000  
  21928045.993   115232686.390       -1225.850          40.000  
  22141683.131   116355373.048       -1225.906          38.000  
  21921019.365   115195734.521       -1225.809          39.000  
  22114721.411   116213657.898       -1225.903          40.000  
  22135821.978   116324539.963       -1225.881          38.000  
  21966143.739   115432865.868       -1225.802          38.000  
  21955005.431   115374372.577       -1225.739          38.000  
  21962627.879   115414412.272       -1225.824          39.000  
  22042630.998   115834836.333       -1225.786          37.000  
  22025634.551   115745506.487       -1225.844          39.000  
  21880865.189   114984720.857       -1225.870          39.000  
  21872075.686   114938536.929       -1225.863          37.000  
  21930979.050   115248045.222       -1225.859          40.000  
  21999295.233   115607074.948       -1225.837          34.000  
  22093039.747   116099713.664       -1225.863          37.000  
 25  8 13 10 20 28.0020000  0 30G 1G 2G 3G 4G 5G 7G 6G 8G31G20G25G29
                                G15G30G26G32G16G14G28G13G19G12G21G10
                                G23G17G 9G24G11G22
  22011122.280   115669353.753       -1225.717          44.000  
  22011036.625   115668748.514       -1225.664          49.000  
  22011009.461   115668717.127       -1225.684          49.000  
  22011013.744   115668710.376       -1225.663          49.000  
  22010925.137   115668200.298       -1225.680          49.000  
  22010978.546   115668369.637       -1225.740          41.000  
  22010953.521   115668738.633       -1225.669          44.000  
  22011028.903   115668736.557       -1225.656          46.000  
  22150520.813   116401823.256       -1225.751          38.000  
  22058797.820   115919796.936       -1225.751          37.000  
  21882089.057   114991131.099       -1225.797          37.000  
  22020698.772   115719584.453       -1225.649          38.000  
  22076671.700   116013723.441       -1225.654          39.000  
  22054399.781   115896664.077       -1225.706          38.000  
  22025974.995   115747267.049       -1225.698          38.000  
  21928092.689   115232931.532       -1225.709          40.000  
  22141729.745   116355618.188       -1225.675          38.000  
  21921066.034   115195979.665       -1225.714          39.000  
  22114768.083   116213903.038       -1225.629          40.000  
  22135868.623   116324785.103       -1225.690          38.000  
  21966190.411   115433111.014       -1225.713          38.000  
  21955052.093   115374617.721       -1225.601          38.000  
  21962674.557   115414657.414       -1225.662          40.000  
  22042677.610   115835081.477       -1225.701          37.000  
  22025681.236   115745751.632       -1225.741          39.000  
  21880911.884   114984966.000       -1225.738          40.000  
  21872122.305   114938782.075       -1225.849          37.000  
  21931025.679   115248290.363       -1225.728          40.000  
  21999341.907   115607320.088       -1225.671          34.000  
  22093086.300   116099958.804       -1225.709          37.000  
 25  8 13 10 20 28.2020000  0 30G 1G 2G 3G 4G 5G 7G 6G 8G31G20G25G29
                                G15G30G26G32G16G14G28G13G19G12G21G10
                                G23G17G 9G24G11G22
  22011168.957   115669598.910       -1225.875          44.000  
  22011083.307   115668993.675       -1225.886          49.000  
  22011056.108   115668962.286       -1225.867          49.000  
  22011060.420   115668955.543       -1225.947          49.000  
  22010971.766   115668445.459       -1225.925          49.000  
  22011025.203   115668614.798       -1225.967          41.000  
  22011000.163   115668983.798       -1225.970          44.000  
  22011075.558   115668981.725       -1225.957          46.000  
  22150567.444   116402068.415       -1225.907          38.000  
  22058844.486   115920042.091       -1225.895          37.000  
  21882135.724   114991376.259       -1225.918          37.000  
  22020745.369   115719829.621       -1225.970          38.000  
  22076718.366   116013968.618       -1226.040          39.000  
  22054446.418   115896909.240       -1225.931          38.000  
  22026021.641   115747512.225       -1226.044          38.000  
  21928139.310   115233176.694       -1225.900          40.000  
  22141776.417   116355863.349       -1225.970          38.000  
  21921112.725   115196224.822       -1225.962          39.000  
  22114814.740   116214148.204       -1225.938          40.000  
  22135915.289   116325030.262       -1225.840          38.000  
  21966237.053   115433356.178       -1225.972          38.000  
  21955098.726   115374862.902       -1226.053          38.000  
  21962721.218   115414902.582       -1225.957          40.000  
  22042724.245   115835326.634       -1225.878          37.000  
  22025727.890   115745996.794       -1225.944          39.000  
  21880958.519   114985211.165       -1225.939          40.000  
  21872168.996   114939027.218       -1225.936          37.000  
  21931072.311   115248535.519       -1225.942          40.000  
  21999388.557   115607565.258       -1225.981          34.000  
  22093132.919   116100203.967       -1225.742          37.000  
 25  8 13 10 20 28.4020000  0 30G 1G 2G 3G 4G 5G 7G 6G 8G31G20G25G29
                                G15G30G26G32G16G14G28G13G19G12G21G10
                                G23G17G 9G24G11G22
  22011215.584   115669844.073       -1225.879          44.000  
  22011129.963   115669238.836       -1225.835          49.000  
  22011102.779   115669207.449       -1225.853          49.000  
  22011107.084   115669200.705       -1225.861          49.000  
  22011018.385   115668690.620       -1225.848          49.000  
  22011071.848   115668859.962       -1225.765          41.000  
  22011046.777   115669228.952       -1225.826          44.000  
  22011122.236   115669226.886       -1225.813          46.000  
  22150614.078   116402313.581       -1225.906          38.000  
  22058891.122   115920287.253       -1225.879          37.000  
  21882182.375   114991621.421       -1225.868          37.000  
  22020792.011   115720074.779       -1225.842          38.000  
  22076765.007   116014213.767       -1225.753          39.000  
  22054493.055   115897154.399       -1225.841          38.000  
  22026068.344   115747757.374       -1225.759          38.000  
  21928185.937   115233421.853       -1225.796          40.000  
  22141823.079   116356108.510       -1225.930          38.000  
  21921159.356   115196469.981       -1225.823          39.000  
  22114861.370   116214393.363       -1225.868          40.000  
  22135961.992   116325275.426       -1225.874          38.000  
  21966283.710   115433601.334       -1225.825          38.000  
  21955145.385   115375108.052       -1225.775          38.000  
  21962767.894   115415147.740       -1225.789          40.000  
  22042770.880   115835571.796       -1225.848          37.000  
  22025774.570   115746241.952       -1225.837          39.000  
  21881005.208   114985456.323       -1225.822          40.000  
  21872215.644   114939272.382       -1225.884          37.000  
  21931118.989   115248780.683       -1225.892          40.000  
  21999435.174   115607810.407       -1225.693          34.000  
  22093179.536   116100449.137       -1225.870          37.000  
 25  8 13 10 20 28.6020000  0 30G 1G 2G 3G 4G 5G 7G 6G 8G31G20G25G29
                                G15G30G26G32G16G14G28G13G19G12G21G10
                                G23G17G 9G24G11G22
  22011262.249   115670089.253       -1225.850          44.000  
  22011176.632   115669484.009       -1225.781          49.000  
  22011149.454   115669452.624       -1225.820          49.000  
  22011153.730   115669445.879       -1225.813          49.000  
  22011064.823   115668935.801       -1225.842          49.000  
  22011118.493   115669105.135       -1225.706          41.000  
  22011093.427   115669474.136       -1225.847          44.000  
  22011168.900   115669472.061       -1225.859          46.000  
  22150660.746   116402558.756       -1225.819          38.000  
  22058937.750   115920532.432       -1225.703          37.000  
  21882229.065   114991866.598       -1225.864          37.000  
  22020838.648   115720319.952       -1225.792          38.000  
  22076811.663   116014458.947       -1225.881          39.000  
  22054539.735   115897399.578       -1225.823          38.000  
  22026114.980   115748002.554       -1225.992          38.000  
  21928232.584   115233667.035       -1225.907          40.000  
  22141869.732   116356353.691       -1225.791          38.000  
  21921206.016   115196715.163       -1225.781          39.000  
  22114908.040   116214638.545       -1225.869          40.000  
  22136008.644   116325520.602       -1225.898          38.000  
  21966330.374   115433846.515       -1225.887          38.000  
  21955192.024   115375353.225       -1225.929          38.000  
  21962814.576   115415392.921       -1225.930          40.000  
  22042817.509   115835816.975       -1225.770          37.000  
  22025821.216   115746487.131       -1225.801          39.000  
  21881051.847   114985701.504       -1225.866          40.000  
  21872262.306   114939517.564       -1225.662          37.000  
  21931165.653   115249025.862       -1225.818          40.000  
  21999481.811   115608055.593       -1225.900          34.000  
  22093226.126   116100694.307       -1225.873          37.000  
 25  8 13 10 20 28.8020000  0 30G 1G 2G 3G 4G 5G 7G 6G 8G31G20G25G29
                                G15G30G26G32G16G14G28G13G19G12G21G10
                                G23G17G 9G24G11G22
  22011308.872   115670334.402       -1225.784          44.000  
  22011223.308   115669729.161       -1225.779          49.000  
  22011196.135   115669697.778       -1225.771          49.000  
  22011200.378   115669691.035       -1225.870          49.000  
  22011111.526   115669180.949       -1225.852          49.000  
  22011165.147   115669350.287       -1225.870          41.000  
  22011140.080   115669719.283       -1225.833          44.000  
  22011215.652   115669717.212       -1225.850          46.000  
  22150707.401   116402803.905       -1225.743          38.000  
  22058984.413   115920777.580       -1225.693          37.000  
  21882275.722   114992111.745       -1225.793          37.000  
  22020885.343   115720565.108       -1225.931          38.000  
  22076858.278   116014704.106       -1226.056          39.000  
  22054586.386   115897644.730       -1225.872          38.000  
  22026161.668   115748247.718       -1226.222          38.000  
  21928279.299   115233912.184       -1225.920          39.000  
  22141916.394   116356598.838       -1225.771          38.000  
  21921252.658   115196960.313       -1225.784          39.000  
  22114954.697   116214883.692       -1225.846          40.000  
  22136055.286   116325765.749       -1225.807          38.000  
  21966377.069   115434091.664       -1225.884          37.000  
  21955238.717   115375598.393       -1226.217          38.000  
  21962861.206   115415638.072       -1225.912          40.000  
  22042864.153   115836062.125       -1225.800          37.000  
  22025867.871   115746732.283       -1225.879          39.000  
  21881098.561   114985946.655       -1225.908          40.000  
  21872308.887   114939762.699       -1225.443          37.000  
  21931212.306   115249271.009       -1225.786          40.000  
  21999528.482   115608300.747       -1226.014          34.000  
  22093272.680   116100939.467       -1226.044          37.000  
 25  8 13 10 20 29.0020000  0 30G 1G 2G 3G 4G 5G 7G 6G 8G31G20G25G29
                                G15G30G26G32G16G14G28G13G19G12G21G10
                                G23G17G 9G24G11G22
  22011355.536   115670579.554       -1225.891          44.000  
  22011269.992   115669974.318       -1225.808          49.000  
  22011242.774   115669942.936       -1225.815          49.000  
  22011247.008   115669936.193       -1225.795          49.000  
  22011158.296   115669426.107       -1225.829          49.000  
  22011211.781   115669595.444       -1225.883          41.000  
  22011186.732   115669964.435       -1225.911          44.000  
  22011262.264   115669962.372       -1225.786          46.000  
  22150754.083   116403049.075       -1225.793          39.000  
  22059031.062   115921022.730       -1225.939          37.000  
  21882322.348   114992356.891       -1225.954          37.000  
  22020931.968   115720810.265       -1225.889          38.000  
  22076904.944   116014949.282       -1225.569          39.000  
  22054633.085   115897889.876       -1225.887          38.000  
  22026208.281   115748492.872       -1225.688          38.000  
  21928325.950   115234157.341       -1225.820          40.000  
  22141963.056   116356843.973       -1226.010          38.000  
  21921299.325   115197205.478       -1225.758          39.000  
  22115001.325   116215128.835       -1225.972          40.000  
  22136101.918   116326010.915       -1225.758          38.000  
  21966423.748   115434336.824       -1225.826          38.000  
  21955285.378   115375843.572       -1225.399          38.000  
  21962907.851   115415883.238       -1225.745          40.000  
  22042910.819   115836307.282       -1225.752          37.000  
  22025914.521   115746977.443       -1225.732          39.000  
  21881145.192   114986191.802       -1225.909          40.000  
  21872355.548   114940007.870       -1225.893          37.000  
  21931258.961   115249516.173       -1225.804          40.000  
  21999575.116   115608545.902       -1225.823          34.000  
  22093319.368   116101184.638       -1225.707          37.000  
 25  8 13 10 20 29.2020000  0 30G 1G 2G 3G 4G 5G 7G 6G 8G31G20G25G29
                                G15G30G26G32G16G14G28G13G19G12G21G10
                                G23G17G 9G24G11G22
  22011402.193   115670824.713       -1225.868          44.000  
  22011316.662   115670219.484       -1225.905          49.000  
  22011289.404   115670188.101       -1225.906          49.000  
  22011293.677   115670181.360       -1225.919          49.000  
  22011205.011   115669671.273       -1225.966          49.000  
  22011258.403   115669840.606       -1225.913          41.000  
  22011233.411   115670209.598       -1225.907          44.000  
  22011308.946   115670207.535       -1225.906          46.000  
  22150800.739   116403294.238       -1225.952          39.000  
  22059077.687   115921267.891       -1225.853          37.000  
  21882368.977   114992602.050       -1225.795          37.000  
  22020978.626   115721055.424       -1225.873          38.000  
  22076951.619   116015194.452       -1226.016          39.000  
  22054679.748   115898135.040       -1225.929          39.000  
  22026255.002   115748738.042       -1225.969          38.000  
  21928372.615   115234402.504       -1225.947          40.000  
  22142009.704   116357089.133       -1225.836          38.000  
  21921345.981   115197450.648       -1226.024          39.000  
  22115047.980   116215373.995       -1225.902          40.000  
  22136148.613   116326256.080       -1225.934          38.000  
  21966470.407   115434581.989       -1225.953          38.000  
  21955332.092   115376088.749       -1226.041          38.000  
  21962954.508   115416128.403       -1225.975          39.000  
  22042957.510   115836552.450       -1225.911          37.000  
  22025961.189   115747222.611       -1225.946          39.000  
  21881191.875   114986436.966       -1225.920          40.000  
  21872402.205   114940253.029       -1225.996          37.000  
  21931305.628   115249761.337       -1225.966          40.000  
  21999621.763   115608791.065       -1225.912          34.000  
  22093366.099   116101429.803       -1225.994          37.000  
 25  8 13 10 20 29.4020000  0 30G 1G 2G 3G 4G 5G 7G 6G 8G31G20G25G29
                                G15G30G26G32G16G14G28G13G19G12G21G10
                                G23G17G 9G24G11G22
  22011448.872   115671069.883       -1225.851          44.000  
  22011363.335   115670464.650       -1225.804          49.000  
  22011336.059   115670433.264       -1225.785          49.000  
  22011340.307   115670426.525       -1225.797          49.000  
  22011251.725   115669916.439       -1225.830          49.000  
  22011305.071   115670085.775       -1225.824          41.000  
  22011280.059   115670454.766       -1225.817          44.000  
  22011355.556   115670452.704       -1225.848          46.000  
  22150847.416   116403539.403       -1225.824          39.000  
  22059124.310   115921513.059       -1225.795          38.000  
  21882415.626   114992847.221       -1225.808          37.000  
  22021025.270   115721300.592       -1225.782          38.000  
  22076998.248   116015439.619       -1225.857          39.000  
  22054726.392   115898380.208       -1225.822          39.000  
  22026301.644   115748983.206       -1225.764          38.000  
  21928419.234   115234647.671       -1225.797          40.000  
  22142056.345   116357334.304       -1225.803          38.000  
  21921392.616   115197695.812       -1225.872          39.000  
  22115094.597   116215619.164       -1225.809          40.000  
  22136195.299   116326501.250       -1225.884          38.000  
  21966517.043   115434827.156       -1225.865          38.000  
  21955378.771   115376333.909       -1225.865          38.000  
  21963001.171   115416373.571       -1225.836          39.000  
  22043004.191   115836797.616       -1225.782          37.000  
  22026007.806   115747467.777       -1225.797          39.000  
  21881238.496   114986682.135       -1225.892          40.000  
  21872448.865   114940498.196       -1225.771          37.000  
  21931352.264   115250006.501       -1225.798          40.000  
  21999668.424   115609036.234       -1225.842          34.000  
  22093412.829   116101674.967       -1225.811          37.000  
 25  8 13 10 20 29.6020000  0 30G 1G 2G 3G 4G 5G 7G 6G 8G31G20G25G29
                                G15G30G26G32G16G14G28G13G19G12G21G10
                                G23G17G 9G24G11G22
  22011495.521   115671315.041       -1225.880          44.000  
  22011410.009   115670709.809       -1225.780          49.000  
  22011382.704   115670678.423       -1225.793          49.000  
  22011386.952   115670671.684       -1225.785          49.000  
  22011298.369   115670161.600       -1225.879          49.000  
  22011351.720   115670330.941       -1225.923          41.000  
  22011326.704   115670699.929       -1225.925          44.000  
  22011402.257   115670697.865       -1225.884          46.000  
  22150894.032   116403784.564       -1225.880          39.000  
  22059170.979   115921758.219       -1225.818          38.000  
  21882462.305   114993092.381       -1225.881          37.000  
  22021071.923   115721545.752       -1225.852          38.000  
  22077044.928   116015684.776       -1225.861          39.000  
  22054773.041   115898625.370       -1225.885          39.000  
  22026348.351   115749228.368       -1225.845          37.000  
  21928465.922   115234892.834       -1225.939          40.000  
  22142103.051   116357579.466       -1225.873          38.000  
  21921439.286   115197940.976       -1225.957          39.000  
  22115141.264   116215864.324       -1225.886          40.000  
  22136241.966   116326746.407       -1225.813          38.000  
  21966563.685   115435072.316       -1225.906          39.000  
  21955425.445   115376579.072       -1225.896          38.000  
  21963047.820   115416618.732       -1225.925          39.000  
  22043050.871   115837042.782       -1225.945          37.000  
  22026054.478   115747712.940       -1225.853          39.000  
  21881285.131   114986927.294       -1225.881          40.000  
  21872495.523   114940743.358       -1225.836          37.000  
  21931398.943   115250251.661       -1225.878          40.000  
  21999715.078   115609281.402       -1225.922          34.000  
  22093459.529   116101920.130       -1225.916          37.000  
 25  8 13 10 20 29.8020000  0 30G 1G 2G 3G 4G 5G 7G 6G 8G31G20G25G29
                                G15G30G26G32G16G14G28G13G19G12G21G10
                                G23G17G 9G24G11G22
  22011542.185   115671560.215       -1225.813          44.000  
  22011456.676   115670954.984       -1225.903          49.000  
  22011429.359   115670923.594       -1225.845          49.000  
  22011433.625   115670916.856       -1225.945          49.000  
  22011344.913   115670406.769       -1225.841          49.000  
  22011398.368   115670576.107       -1225.763          41.000  
  22011373.346   115670945.105       -1225.905          44.000  
  22011448.855   115670943.032       -1225.844          46.000  
  22150940.716   116404029.719       -1225.568          39.000  
  22059217.664   115922003.396       -1225.629          38.000  
  21882508.967   114993337.569       -1226.061          37.000  
  22021118.593   115721790.932       -1226.085          38.000  
  22077091.545   116015929.919       -1225.785          39.000  
  22054819.666   115898870.551       -1225.981          39.000  
  22026395.007   115749473.543       -1226.406          37.000  
  21928512.553   115235137.996       -1225.791          40.000  
  22142149.653   116357824.661       -1226.040          38.000  
  21921485.937   115198186.132       -1225.789          39.000  
  22115187.927   116216109.516       -1226.073          40.000  
  22136288.580   116326991.568       -1225.625          38.000  
  21966610.314   115435317.482       -1225.872          38.000  
  21955472.080   115376824.220       -1226.300          38.000  
  21963094.504   115416863.889       -1225.817          39.000  
  22043097.524   115837287.938       -1225.503          37.000  
  22026101.119   115747958.101       -1225.806          39.000  
  21881331.737   114987172.481       -1226.111          40.000  
  21872542.207   114940988.515       -1225.278          37.000  
  21931445.563   115250496.819       -1225.510          40.000  
  21999761.708   115609526.578       -1226.266          34.000  
  22093506.153   116102165.278       -1225.734          36.000  
 25  8 13 10 20 30.0020000  0 30G 1G 2G 3G 4G 5G 7G 6G 8G31G20G25G29
                                G15G30G26G32G16G14G28G13G19G12G21G10
                                G23G17G 9G24G11G22
  22011588.842   115671805.389       -1225.933          44.000  
  22011503.335   115671200.152       -1225.829          49.000  
  22011476.034   115671168.762       -1225.801          49.000  
  22011480.278   115671162.021       -1225.839          49.000  
  22011391.452   115670651.941       -1225.914          49.000  
  22011445.075   115670821.285       -1225.918          41.000  
  22011419.976   115671190.276       -1225.941          44.000  
  22011495.517   115671188.201       -1225.856          46.000  
  22150987.363   116404274.904       -1226.035          39.000  
  22059264.345   115922248.585       -1226.150          38.000  
  21882555.644   114993582.734       -1225.857          37.000  
  22021165.263   115722036.100       -1225.924          38.000  
  22077138.201   116016175.082       -1225.693          39.000  
  22054866.336   115899115.722       -1225.968          39.000  
  22026441.695   115749718.680       -1225.505          38.000  
  21928559.208   115235383.172       -1225.940          40.000  
  22142196.344   116358069.835       -1226.000          38.000  
  21921532.576   115198431.307       -1225.935          39.000  
  22115234.614   116216354.681       -1225.942          40.000  
  22136335.217   116327236.742       -1225.901          38.000  
  21966656.982   115435562.654       -1225.856          38.000  
  21955518.730   115377069.358       -1225.516          38.000  
  21963141.170   115417109.060       -1225.842          39.000  
  22043144.182   115837533.121       -1225.950          37.000  
  22026147.797   115748203.275       -1225.928          39.000  
  21881378.412   114987417.645       -1225.946          40.000  
  21872588.859   114941233.711       -1226.108          37.000  
  21931492.238   115250742.004       -1226.049          40.000  
  21999808.336   115609771.727       -1225.668          34.000  
  22093552.798   116102410.453       -1225.819          37.000  
 25  8 13 10 20 30.2020000  0 30G 1G 2G 3G 4G 5G 7G 6G 8G31G20G25G29
                                G15G30G26G32G16G14G28G13G19G12G21G10
                                G23G17G 9G24G11G22
  22011635.505   115672050.542       -1225.837          44.000  
  22011550.004   115671445.310       -1225.803          49.000  
  22011522.694   115671413.922       -1225.824          49.000  
  22011526.927   115671407.180       -1225.798          49.000  
  22011437.991   115670897.095       -1225.817          49.000  
  22011491.698   115671066.437       -1225.831          41.000  
  22011466.611   115671435.428       -1225.785          44.000  
  22011542.190   115671433.358       -1225.791          46.000  
  22151034.081   116404520.049       -1225.813          39.000  
  22059311.026   115922493.724       -1225.896          38.000  
  21882602.280   114993827.891       -1225.810          37.000  
  22021211.873   115722281.257       -1225.787          38.000  
  22077184.883   116016420.250       -1225.808          39.000  
  22054912.995   115899360.874       -1225.790          39.000  
  22026488.333   115749963.863       -1225.743          38.000  
  21928605.885   115235628.326       -1225.797          40.000  
  22142242.996   116358314.978       -1225.740          38.000  
  21921579.206   115198676.458       -1225.797          39.000  
  22115281.275   116216599.833       -1225.774          40.000  
  22136381.896   116327481.893       -1225.726          38.000  
  21966703.632   115435807.810       -1225.743          38.000  
  21955565.382   115377314.535       -1225.571          38.000  
  21963187.854   115417354.216       -1225.784          39.000  
  22043190.849   115837778.275       -1225.835          37.000  
  22026194.396   115748448.427       -1225.764          39.000  
  21881425.087   114987662.799       -1225.764          39.000  
  21872635.517   114941478.850       -1225.917          37.000  
  21931538.884   115250987.149       -1225.822          40.000  
  21999854.981   115610016.896       -1225.693          34.000  
  22093599.462   116102655.615       -1225.896          37.000  
 25  8 13 10 20 30.4020000  0 30G 1G 2G 3G 4G 5G 7G 6G 8G31G20G25G29
                                G15G30G26G32G16G14G28G13G19G12G21G10
                                G23G17G 9G24G11G22
  22011682.159   115672295.696       -1225.768          44.000  
  22011596.661   115671690.468       -1225.804          49.000  
  22011569.355   115671659.081       -1225.845          49.000  
  22011573.570   115671652.340       -1225.824          49.000  
  22011484.676   115671142.251       -1225.757          49.000  
  22011538.391   115671311.592       -1225.793          41.000  
  22011513.250   115671680.586       -1225.729          44.000  
  22011588.821   115671678.516       -1225.764          46.000  
  22151080.726   116404765.207       -1225.764          39.000  
  22059357.731   115922738.874       -1225.746          37.000  
  21882648.977   114994073.045       -1225.815          37.000  
  22021258.572   115722526.418       -1225.834          38.000  
  22077231.520   116016665.411       -1225.798          39.000  
  22054959.621   115899606.030       -1225.751          39.000  
  22026535.021   115750209.029       -1225.803          38.000  
  21928652.541   115235873.481       -1225.750          40.000  
  22142289.646   116358560.137       -1225.760          38.000  
  21921625.843   115198921.621       -1225.779          39.000  
  22115327.941   116216844.990       -1225.703          40.000  
  22136428.578   116327727.057       -1225.746          38.000  
  21966750.276   115436052.970       -1225.795          38.000  
  21955612.030   115377559.713       -1225.848          38.000  
  21963234.519   115417599.378       -1225.814          39.000  
  22043237.491   115838023.427       -1225.795          37.000  
  22026241.065   115748693.585       -1225.758          39.000  
  21881471.776   114987907.961       -1225.821          39.000  
  21872682.153   114941724.000       -1225.807          37.000  
  21931585.532   115251232.305       -1225.753          40.000  
  21999901.638   115610262.059       -1225.826          34.000  
  22093646.125   116102900.770       -1225.835          37.000  
 25  8 13 10 20 30.6020000  0 30G 1G 2G 3G 4G 5G 7G 6G 8G31G20G25G29
                                G15G30G26G32G16G14G28G13G19G12G21G10
                                G23G17G 9G24G11G22
  22011728.827   115672540.857       -1225.762          44.000  
  22011643.323   115671935.624       -1225.746          49.000  
  22011616.017   115671904.235       -1225.753          49.000  
  22011620.206   115671897.490       -1225.640          49.000  
  22011531.379   115671387.410       -1225.736          49.000  
  22011585.021   115671556.749       -1225.682          41.000  
  22011559.888   115671925.747       -1225.768          44.000  
  22011635.456   115671923.672       -1225.710          46.000  
  22151127.434   116405010.370       -1225.780          39.000  
  22059404.328   115922984.045       -1225.880          37.000  
  21882695.642   114994318.203       -1225.737          37.000  
  22021305.209   115722771.567       -1225.638          38.000  
  22077278.160   116016910.559       -1225.562          39.000  
  22055006.303   115899851.193       -1225.793          39.000  
  22026581.628   115750454.169       -1225.499          38.000  
  21928699.172   115236118.640       -1225.763          40.000  
  22142336.301   116358805.301       -1225.840          38.000  
  21921672.454   115199166.776       -1225.763          39.000  
  22115374.565   116217090.150       -1225.763          40.000  
  22136475.213   116327972.208       -1225.623          38.000  
  21966796.942   115436298.125       -1225.702          38.000  
  21955658.681   115377804.845       -1225.425          38.000  
  21963281.163   115417844.529       -1225.684          39.000  
  22043284.129   115838268.589       -1225.791          37.000  
  22026287.699   115748938.743       -1225.729          38.000  
  21881518.399   114988153.115       -1225.736          39.000  
  21872728.820   114941969.176       -1226.083          37.000  
  21931632.192   115251477.468       -1225.801          40.000  
  21999948.282   115610507.207       -1225.620          34.000  
  22093692.781   116103145.922       -1225.635          37.000  
 25  8 13 10 20 30.8020000  0 30G 1G 2G 3G 4G 5G 7G 6G 8G31G20G25G29
                                G15G30G26G32G16G14G28G13G19G12G21G10
                                G23G17G 9G24G11G22
  22011775.480   115672786.008       -1225.697          44.000  
  22011690.006   115672180.766       -1225.769          49.000  
  22011662.663   115672149.374       -1225.784          49.000  
  22011666.888   115672142.642       -1225.867          49.000  
  22011578.340   115671632.551       -1225.863          49.000  
  22011631.656   115671801.886       -1225.881          40.000  
  22011606.557   115672170.889       -1225.808          44.000  
  22011682.143   115672168.821       -1225.854          46.000  
  22151174.112   116405255.513       -1225.833          38.000  
  22059450.966   115923229.184       -1225.627          37.000  
  21882742.260   114994563.336       -1225.845          37.000  
  22021351.879   115723016.733       -1225.725          37.000  
  22077324.881   116017155.712       -1226.135          39.000  
  22055052.997   115900096.327       -1225.935          39.000  
  22026628.272   115750699.318       -1226.227          38.000  
  21928745.841   115236363.786       -1225.851          40.000  
  22142382.975   116359050.421       -1225.920          38.000  
  21921719.098   115199411.925       -1225.948          39.000  
  22115421.235   116217335.301       -1225.765          40.000  
  22136521.904   116328217.355       -1225.765          38.000  
  21966843.587   115436543.286       -1225.643          38.000  
  21955705.389   115378050.026       -1225.890          38.000  
  21963327.764   115418089.665       -1225.889          39.000  
  22043330.801   115838513.753       -1225.555          36.000  
  22026334.356   115749183.886       -1225.842          39.000  
  21881565.067   114988398.279       -1225.540          39.000  
  21872775.481   114942214.304       -1225.559          37.000  
  21931678.850   115251722.612       -1225.786          40.000  
  21999994.944   115610752.371       -1225.990          35.000  
  22093739.438   116103391.089       -1225.596          36.000  
 25  8 13 10 20 31.0020000  0 30G 1G 2G 3G 4G 5G 7G 6G 8G31G20G25G29
                                G15G30G26G32G16G14G28G13G19G12G21G10
                                G23G17G 9G24G11G22
  22011822.138   115673031.176       -1226.025          44.000  
  22011736.698   115672425.930       -1226.002          49.000  
  22011709.309   115672394.538       -1225.980          49.000  
  22011713.548   115672387.800       -1226.001          49.000  
  22011624.973   115671877.713       -1225.981          49.000  
  22011678.306   115672047.050       -1225.900          40.000  
  22011653.170   115672416.049       -1225.975          44.000  
  22011728.792   115672413.977       -1225.972          46.000  
  22151220.780   116405500.675       -1225.900          38.000  
  22059497.591   115923474.360       -1226.013          37.000  
  21882788.956   114994808.501       -1225.887          37.000  
  22021398.599   115723261.895       -1225.986          37.000  
  22077371.506   116017400.844       -1226.029          39.000  
  22055099.625   115900341.484       -1225.979          39.000  
  22026674.928   115750944.442       -1225.959          38.000  
  21928792.512   115236608.943       -1226.012          39.000  
  22142429.589   116359295.587       -1225.845          39.000  
  21921765.777   115199657.080       -1226.013          39.000  
  22115467.885   116217580.458       -1226.019          40.000  
  22136568.504   116328462.517       -1225.958          37.000  
  21966890.263   115436788.446       -1226.038          38.000  
  21955752.016   115378295.165       -1226.085          38.000  
  21963374.423   115418334.826       -1225.950          41.000  
  22043377.460   115838758.926       -1226.069          36.000  
  22026380.975   115749429.045       -1225.956          39.000  
  21881611.748   114988643.452       -1226.085          40.000  
  21872822.137   114942459.500       -1225.959          37.000  
  21931725.490   115251967.783       -1225.947          40.000  
  22000041.578   115610997.510       -1226.013          35.000  
  22093786.104   116103636.252       -1226.116          36.000  
 25  8 13 10 20 31.2020000  0 30G 1G 2G 3G 4G 5G 7G 6G 8G31G20G25G29
                                G15G30G26G32G16G14G28G13G19G12G21G10
                                G23G17G 9G24G11G22
  22011868.803   115673276.333       -1225.948          44.000  
  22011783.366   115672671.087       -1225.862          49.000  
  22011755.942   115672639.697       -1225.896          49.000  
  22011760.194   115672632.957       -1225.844          49.000  
  22011671.701   115672122.870       -1225.851          49.000  
  22011724.977   115672292.214       -1225.942          40.000  
  22011699.817   115672661.207       -1225.856          44.000  
  22011775.417   115672659.137       -1225.811          46.000  
  22151267.437   116405745.837       -1225.934          38.000  
  22059544.286   115923719.523       -1226.104          37.000  
  21882835.592   114995053.661       -1225.862          37.000  
  22021445.261   115723507.055       -1225.966          37.000  
  22077418.154   116017645.998       -1225.413          39.000  
  22055146.271   115900586.642       -1225.824          39.000  
  22026721.604   115751189.600       -1225.380          38.000  
  21928839.165   115236854.102       -1225.776          39.000  
  22142476.249   116359540.753       -1226.042          39.000  
  21921812.420   115199902.237       -1225.829          39.000  
  22115514.540   116217825.613       -1225.710          40.000  
  22136615.166   116328707.674       -1225.868          37.000  
  21966936.896   115437033.603       -1225.765          38.000  
  21955798.696   115378540.316       -1225.521          38.000  
  21963421.090   115418579.984       -1225.876          40.000  
  22043424.083   115839004.083       -1226.008          36.000  
  22026427.647   115749674.202       -1225.822          39.000  
  21881658.428   114988888.612       -1226.028          40.000  
  21872868.781   114942704.661       -1226.381          38.000  
  21931772.113   115252212.946       -1226.091          40.000  
  22000088.238   115611242.666       -1225.594          35.000  
  22093832.774   116103881.409       -1225.905          36.000  
 25  8 13 10 20 31.4020000  0 30G 1G 2G 3G 4G 5G 7G 6G 8G31G20G25G29
                                G15G30G26G32G16G14G28G13G19G12G21G10
                                G23G17G 9G24G11G22
  22011915.466   115673521.523       -1226.063          44.000  
  22011830.053   115672916.281       -1226.033          49.000  
  22011802.585   115672884.888       -1226.018          49.000  
  22011806.857   115672878.154       -1226.093          49.000  
  22011718.546   115672368.066       -1226.042          49.000  
  22011771.646   115672537.404       -1226.061          40.000  
  22011746.473   115672906.402       -1226.058          44.000  
  22011822.088   115672904.334       -1226.051          46.000  
  22151314.121   116405991.024       -1226.000          38.000  
  22059590.984   115923964.709       -1226.184          37.000  
  21882882.238   114995298.856       -1226.034          37.000  
  22021491.922   115723752.243       -1226.046          37.000  
  22077464.784   116017891.219       -1226.066          39.000  
  22055192.932   115900831.840       -1226.002          39.000  
  22026768.253   115751434.825       -1226.130          38.000  
  21928885.826   115237099.302       -1226.016          39.000  
  22142522.847   116359785.937       -1225.996          39.000  
  21921859.098   115200147.438       -1226.060          39.000  
  22115561.188   116218070.815       -1226.021          40.000  
  22136661.819   116328952.866       -1226.045          37.000  
  21966983.584   115437278.799       -1225.975          38.000  
  21955845.338   115378785.532       -1226.058          38.000  
  21963467.740   115418825.176       -1226.038          40.000  
  22043470.733   115839249.263       -1225.880          36.000  
  22026474.247   115749919.396       -1226.002          39.000  
  21881705.099   114989133.800       -1226.009          40.000  
  21872915.477   114942949.824       -1226.011          38.000  
  21931818.745   115252458.128       -1226.072          40.000  
  22000134.925   115611487.874       -1226.111          35.000  
  22093879.511   116104126.599       -1226.072          36.000  
 25  8 13 10 20 31.6020000  0 30G 1G 2G 3G 4G 5G 7G 6G 8G31G20G25G29
                                G15G30G26G32G16G14G28G13G19G12G21G10
                                G23G17G 9G24G11G22
  22011962.097   115673766.681       -1225.591          44.000  
  22011876.720   115673161.458       -1225.857          49.000  
  22011849.249   115673130.070       -1225.894          49.000  
  22011853.507   115673123.329       -1225.815          49.000  
  22011765.372   115672613.241       -1225.802          49.000  
  22011818.297   115672782.578       -1225.825          40.000  
  22011793.116   115673151.574       -1225.758          44.000  
  22011868.723   115673149.504       -1225.724          46.000  
  22151360.734   116406236.190       -1225.547          38.000  
  22059637.635   115924209.858       -1225.483          37.000  
  21882928.920   114995544.028       -1225.760          37.000  
  22021538.606   115723997.398       -1225.466          37.000  
  22077511.467   116018136.405       -1226.024          39.000  
  22055239.602   115901077.025       -1225.938          39.000  
  22026814.942   115751680.024       -1226.134          38.000  
  21928932.485   115237344.473       -1225.784          39.000  
  22142569.557   116360031.128       -1226.000          39.000  
  21921905.774   115200392.606       -1225.681          39.000  
  22115607.875   116218315.977       -1225.619          40.000  
  22136708.456   116329198.041       -1225.778          37.000  
  21967030.260   115437523.955       -1225.533          38.000  
  21955892.029   115379030.694       -1225.566          38.000  
  21963514.396   115419070.363       -1225.918          40.000  
  22043517.359   115839494.402       -1225.239          36.000  
  22026520.944   115750164.574       -1225.808          39.000  
  21881751.749   114989378.933       -1225.206          40.000  
  21872962.100   114943194.979       -1225.523          38.000  
  21931865.395   115252703.288       -1225.547          40.000  
  22000181.591   115611733.052       -1225.790          35.000  
  22093926.200   116104371.743       -1225.477          36.000  
 25  8 13 10 20 31.8020000  0 30G 1G 2G 3G 4G 5G 7G 6G 8G31G20G25G29
                                G15G30G26G32G16G14G28G13G19G12G21G10
                                G23G17G 9G24G11G22
  22012008.708   115674011.863       -1225.854          44.000  
  22011923.395   115673406.633       -1225.887          49.000  
  22011895.922   115673375.243       -1225.869          49.000  
  22011900.177   115673368.508       -1225.959          49.000  
  22011811.784   115672858.419       -1225.917          49.000  
  22011864.911   115673027.755       -1225.829          40.000  
  22011839.777   115673396.753       -1225.887          44.000  
  22011915.410   115673394.687       -1225.985          46.000  
  22151407.377   116406481.376       -1225.925          38.000  
  22059684.269   115924455.043       -1225.648          37.000  
  21882975.584   114995789.208       -1225.814          37.000  
  22021585.283   115724242.587       -1226.049          37.000  
  22077558.114   116018381.580       -1226.113          39.000  
  22055286.266   115901322.197       -1225.817          39.000  
  22026861.608   115751925.198       -1226.360          38.000  
  21928979.166   115237589.647       -1225.828          39.000  
  22142616.140   116360276.294       -1225.656          39.000  
  21921952.449   115200637.786       -1226.041          39.000  
  22115654.509   116218561.161       -1225.917          40.000  
  22136755.079   116329443.222       -1225.940          37.000  
  21967076.916   115437769.140       -1226.002          38.000  
  21955938.687   115379275.883       -1226.393          38.000  
  21963561.037   115419315.540       -1225.962          39.000  
  22043564.004   115839739.593       -1225.778          36.000  
  22026567.577   115750409.755       -1225.967          39.000  
  21881798.393   114989624.129       -1225.996          40.000  
  21873008.782   114943440.160       -1225.652          38.000  
  21931912.065   115252948.473       -1225.798          40.000  
  22000228.294   115611978.232       -1226.190          35.000  
  22093972.812   116104616.933       -1225.913          36.000  
 25  8 13 10 20 32.0020000  0 30G 1G 2G 3G 4G 5G 7G 6G 8G31G20G25G29
                                G15G30G26G32G16G14G28G13G19G12G21G10
                                G23G17G 9G24G11G22
  22012055.346   115674257.013       -1225.709          44.000  
  22011970.059   115673651.786       -1225.793          49.000  
  22011942.571   115673620.400       -1225.834          49.000  
  22011946.821   115673613.661       -1225.804          49.000  
  22011858.382   115673103.571       -1225.760          49.000  
  22011911.597   115673272.909       -1225.802          40.000  
  22011886.422   115673641.902       -1225.750          44.000  
  22011962.022   115673639.836       -1225.759          46.000  
  22151454.027   116406726.522       -1225.698          38.000  
  22059730.972   115924700.195       -1225.691          37.000  
  21883022.220   114996034.361       -1225.770          37.000  
  22021631.937   115724487.736       -1225.826          37.000  
  22077604.771   116018626.729       -1225.767          39.000  
  22055332.904   115901567.349       -1225.709          39.000  
  22026908.261   115752170.345       -1225.782          38.000  
  21929025.792   115237834.800       -1225.729          40.000  
  22142662.810   116360521.451       -1225.718          38.000  
  21921999.094   115200882.932       -1225.656          39.000  
  22115701.153   116218806.313       -1225.829          40.000  
  22136801.762   116329688.377       -1225.823          37.000  
  21967123.571   115438014.285       -1225.802          38.000  
  21955985.328   115379521.031       -1225.853          38.000  
  21963607.658   115419560.697       -1225.844          39.000  
  22043610.655   115839984.743       -1225.817          36.000  
  22026614.285   115750654.906       -1225.847          39.000  
  21881845.030   114989869.281       -1225.861          39.000  
  21873055.444   114943685.314       -1225.695          37.000  
  21931958.723   115253193.625       -1225.757          40.000  
  22000274.906   115612223.380       -1225.845          35.000  
  22094019.456   116104862.080       -1225.813          36.000  
 25  8 13 10 20 32.2020000  0 30G 1G 2G 3G 4G 5G 7G 6G 8G31G20G25G29
                                G15G30G26G32G16G14G28G13G19G12G21G10
                                G23G17G 9G24G11G22
  22012101.986   115674502.191       -1225.786          44.000  
  22012016.727   115673896.956       -1225.757          49.000  
  22011989.233   115673865.569       -1225.784          49.000  
  22011993.466   115673858.830       -1225.775          49.000  
  22011905.184   115673348.747       -1225.804          49.000  
  22011958.244   115673518.081       -1225.698          41.000  
  22011933.078   115673887.080       -1225.800          44.000  
  22012008.657   115673885.011       -1225.792          46.000  
  22151500.661   116406971.702       -1225.830          38.000  
  22059777.658   115924945.374       -1225.723          37.000  
  21883068.856   114996279.535       -1225.772          37.000  
  22021678.558   115724732.912       -1225.859          37.000  
  22077651.422   116018871.901       -1225.775          39.000  
  22055379.598   115901812.529       -1225.791          39.000  
  22026954.881   115752415.513       -1225.714          38.000  
  21929072.478   115238079.980       -1225.846          40.000  
  22142709.435   116360766.626       -1225.732          38.000  
  21922045.702   115201128.110       -1225.745          39.000  
  22115747.805   116219051.486       -1225.786          40.000  
  22136848.414   116329933.546       -1225.758          37.000  
  21967170.217   115438259.463       -1225.798          38.000  
  21956031.943   115379766.201       -1225.842          38.000  
  21963654.321   115419805.867       -1225.781          39.000  
  22043657.290   115840229.917       -1225.699          36.000  
  22026660.920   115750900.078       -1225.806          39.000  
  21881891.678   114990114.454       -1225.880          39.000  
  21873102.130   114943930.493       -1225.761          37.000  
  21932005.392   115253438.801       -1225.767          40.000  
  22000321.542   115612468.547       -1225.776          35.000  
  22094066.167   116105107.258       -1225.850          36.000  
 25  8 13 10 20 32.4020000  0 30G 1G 2G 3G 4G 5G 7G 6G 8G31G20G25G29
                                G15G30G26G32G16G14G28G13G19G12G21G10
                                G23G17G 9G24G11G22
  22012148.606   115674747.370       -1225.966          44.000  
  22012063.406   115674142.137       -1225.977          49.000  
  22012035.877   115674110.750       -1226.016          49.000  
  22012040.122   115674104.007       -1225.923          49.000  
  22011951.843   115673593.924       -1226.013          49.000  
  22012004.952   115673763.264       -1226.046          41.000  
  22011979.748   115674132.258       -1225.999          44.000  
  22012055.383   115674130.185       -1225.989          46.000  
  22151547.309   116407216.878       -1226.016          38.000  
  22059824.335   115925190.558       -1226.005          37.000  
  21883115.525   114996524.715       -1225.933          37.000  
  22021725.189   115724978.082       -1225.941          37.000  
  22077698.094   116019117.072       -1225.916          39.000  
  22055426.230   115902057.708       -1225.997          39.000  
  22027001.562   115752660.676       -1225.839          38.000  
  21929119.162   115238325.155       -1225.939          40.000  
  22142756.128   116361011.812       -1226.024          38.000  
  21922092.388   115201373.286       -1226.010          39.000  
  22115794.473   116219296.665       -1226.006          40.000  
  22136895.110   116330178.724       -1226.041          37.000  
  21967216.892   115438504.640       -1226.047          38.000  
  21956078.623   115380011.359       -1225.867          38.000  
  21963700.978   115420051.042       -1225.934          39.000  
  22043703.934   115840475.099       -1225.927          36.000  
  22026707.583   115751145.254       -1225.975          39.000  
  21881938.344   114990359.626       -1225.965          39.000  
  21873148.783   114944175.681       -1226.048          37.000  
  21932052.024   115253683.983       -1226.073          40.000  
  22000368.218   115612713.718       -1225.913          35.000  
  22094112.791   116105352.425       -1225.884          36.000  
 25  8 13 10 20 32.6020000  0 30G 1G 2G 3G 4G 5G 7G 6G 8G31G20G25G29
                                G15G30G26G32G16G14G28G13G19G12G21G10
                                G23G17G 9G24G11G22
  22012195.272   115674992.555       -1226.002          44.000  
  22012110.076   115674387.321       -1225.934          49.000  
  22012082.536   115674355.933       -1225.953          49.000  
  22012086.776   115674349.194       -1225.907          49.000  
  22011998.508   115673839.108       -1225.961          49.000  
  22012051.603   115674008.446       -1225.955          41.000  
  22012026.392   115674377.440       -1225.969          44.000  
  22012101.986   115674375.373       -1225.966          46.000  
  22151593.977   116407462.063       -1226.001          38.000  
  22059870.996   115925435.736       -1225.978          37.000  
  21883162.155   114996769.898       -1225.988          37.000  
  22021771.854   115725223.274       -1225.936          37.000  
  22077744.744   116019362.271       -1226.007          39.000  
  22055472.886   115902302.892       -1225.990          39.000  
  22027048.227   115752905.884       -1225.981          38.000  
  21929165.830   115238570.343       -1226.033          40.000  
  22142802.730   116361256.992       -1226.052          38.000  
  21922139.031   115201618.472       -1225.946          39.000  
  22115841.116   116219541.852       -1226.061          40.000  
  22136941.773   116330423.913       -1225.962          37.000  
  21967263.525   115438749.819       -1225.944          38.000  
  21956125.237   115380256.566       -1225.879          38.000  
  21963747.645   115420296.234       -1226.024          39.000  
  22043750.605   115840720.284       -1225.968          36.000  
  22026754.234   115751390.440       -1225.967          38.000  
  21881984.982   114990604.812       -1225.956          39.000  
  21873195.468   114944420.863       -1226.080          37.000  
  21932098.699   115253929.161       -1225.970          40.000  
  22000414.911   115612958.914       -1225.914          34.000  
  22094159.481   116105597.624       -1226.029          37.000  
 25  8 13 10 20 32.8020000  0 30G 1G 2G 3G 4G 5G 7G 6G 8G31G20G25G29
                                G15G30G26G32G16G14G28G13G19G12G21G10
                                G23G17G 9G24G11G22
  22012241.920   115675237.720       -1225.935          44.000  
  22012156.742   115674632.490       -1225.958          49.000  
  22012129.171   115674601.101       -1225.944          49.000  
  22012133.443   115674594.363       -1225.936          49.000  
  22012045.268   115674084.273       -1225.967          49.000  
  22012098.285   115674253.611       -1225.933          41.000  
  22012073.028   115674622.605       -1225.953          44.000  
  22012148.673   115674620.539       -1225.978          46.000  
  22151640.632   116407707.224       -1225.908          38.000  
  22059917.649   115925680.898       -1225.898          37.000  
  21883208.790   114997015.063       -1225.937          37.000  
  22021818.503   115725468.440       -1226.038          37.000  
  22077791.428   116019607.431       -1225.973          39.000  
  22055519.537   115902548.056       -1225.975          39.000  
  22027094.884   115753151.051       -1226.108          38.000  
  21929212.474   115238815.506       -1225.942          40.000  
  22142849.423   116361502.152       -1225.905          38.000  
  21922185.713   115201863.641       -1226.029          39.000  
  22115887.753   116219787.012       -1225.962          40.000  
  22136988.448   116330669.078       -1225.997          37.000  
  21967310.205   115438994.987       -1225.980          38.000  
  21956171.923   115380501.738       -1226.132          38.000  
  21963794.348   115420541.397       -1225.985          39.000  
  22043797.262   115840965.450       -1226.030          36.000  
  22026800.941   115751635.607       -1226.012          38.000  
  21882031.634   114990849.977       -1225.942          39.000  
  21873242.119   114944666.022       -1225.905          37.000  
  21932145.319   115254174.326       -1225.928          40.000  
  22000461.581   115613204.080       -1225.969          34.000  
  22094206.171   116105842.784       -1225.962          37.000  
 25  8 13 10 20 33.0020000  0 30G 1G 2G 3G 4G 5G 7G 6G 8G31G20G25G29
                                G15G30G26G32G16G14G28G13G19G12G21G10
                                G23G17G 9G24G11G22
  22012288.581   115675482.901       -1226.073          44.000  
  22012203.417   115674877.660       -1225.887          49.000  
  22012175.801   115674846.274       -1225.940          49.000  
  22012180.077   115674839.529       -1225.836          49.000  
  22012091.891   115674329.449       -1225.961          49.000  
  22012144.905   115674498.786       -1225.974          41.000  
  22012119.675   115674867.784       -1225.986          44.000  
  22012195.336   115674865.709       -1225.924          46.000  
  22151687.258   116407952.404       -1226.021          38.000  
  22059964.289   115925926.088       -1226.212          37.000  
  21883255.485   114997260.237       -1225.888          37.000  
  22021865.136   115725713.602       -1225.753          37.000  
  22077838.102   116019852.592       -1225.739          40.000  
  22055566.214   115902793.234       -1226.042          39.000  
  22027141.504   115753396.192       -1225.546          38.000  
  21929259.107   115239060.686       -1226.031          40.000  
  22142896.039   116361747.340       -1226.097          38.000  
  21922232.353   115202108.811       -1225.984          39.000  
  22115934.435   116220032.187       -1225.941          40.000  
  22137035.069   116330914.245       -1225.863          38.000  
  21967356.832   115439240.156       -1225.822          38.000  
  21956218.568   115380746.868       -1225.402          38.000  
  21963841.016   115420786.564       -1225.891          39.000  
  22043843.924   115841210.631       -1226.072          36.000  
  22026847.579   115751880.779       -1225.929          38.000  
  21882078.261   114991095.150       -1225.923          39.000  
  21873288.819   114944911.224       -1226.318          37.000  
  21932192.027   115254419.510       -1226.085          40.000  
  22000508.221   115613449.235       -1225.676          34.000  
  22094252.833   116106087.954       -1225.875          37.000  
 25  8 13 10 20 33.2020000  0 30G 1G 2G 3G 4G 5G 7G 6G 8G31G20G25G29
                                G15G30G26G32G16G14G28G13G19G12G21G10
                                G23G17G 9G24G11G22
  22012335.229   115675728.053       -1225.736          44.000  
  22012250.084   115675122.820       -1225.742          49.000  
  22012222.471   115675091.432       -1225.760          49.000  
  22012226.736   115675084.692       -1225.728          49.000  
  22012138.619   115674574.606       -1225.734          49.000  
  22012191.564   115674743.939       -1225.703          41.000  
  22012166.305   115675112.940       -1225.775          44.000  
  22012241.928   115675110.871       -1225.751          46.000  
  22151733.861   116408197.557       -1225.743          38.000  
  22060010.940   115926171.230       -1225.715          37.000  
  21883302.140   114997505.394       -1225.751          37.000  
  22021911.834   115725958.766       -1225.638          38.000  
  22077884.758   116020097.764       -1225.681          40.000  
  22055612.894   115903038.389       -1225.750          39.000  
  22027188.163   115753641.378       -1225.676          38.000  
  21929305.788   115239305.839       -1225.829          40.000  
  22142942.739   116361992.486       -1225.779          38.000  
  21922278.994   115202353.970       -1225.739          39.000  
  22115981.080   116220277.345       -1225.709          40.000  
  22137081.798   116331159.408       -1225.671          38.000  
  21967403.514   115439485.321       -1225.778          38.000  
  21956265.227   115380992.063       -1225.599          38.000  
  21963887.664   115421031.726       -1225.732          39.000  
  22043890.587   115841455.779       -1225.706          36.000  
  22026894.228   115752125.938       -1225.740          38.000  
  21882124.913   114991340.311       -1225.775          39.000  
  21873335.440   114945156.357       -1225.823          37.000  
  21932238.668   115254664.659       -1225.736          40.000  
  22000554.907   115613694.411       -1225.713          34.000  
  22094299.511   116106333.116       -1225.680          37.000  
 25  8 13 10 20 33.4020000  0 30G 1G 2G 3G 4G 5G 7G 6G 8G31G20G25G29
                                G15G30G26G32G16G14G28G13G19G12G21G10
                                G23G17G 9G24G11G22
  22012381.878   115675973.211       -1225.902          44.000  
  22012296.748   115675367.979       -1225.929          49.000  
  22012269.134   115675336.593       -1225.975          49.000  
  22012273.409   115675329.851       -1225.928          49.000  
  22012185.251   115674819.765       -1225.948          49.000  
  22012238.198   115674989.100       -1225.907          41.000  
  22012212.912   115675358.096       -1225.889          44.000  
  22012288.629   115675356.030       -1226.028          46.000  
  22151780.537   116408442.719       -1225.994          38.000  
  22060057.566   115926416.385       -1225.745          37.000  
  21883348.830   114997750.556       -1225.943          37.000  
  22021958.505   115726203.930       -1226.033          38.000  
  22077931.396   116020342.928       -1226.145          40.000  
  22055659.519   115903283.545       -1225.905          39.000  
  22027234.798   115753886.544       -1226.221          38.000  
  21929352.428   115239550.997       -1225.908          40.000  
  22142989.311   116362237.646       -1225.905          38.000  
  21922325.661   115202599.132       -1226.066          39.000  
  22116027.746   116220522.504       -1225.940          40.000  
  22137128.459   116331404.571       -1226.005          38.000  
  21967450.156   115439730.477       -1226.005          38.000  
  21956311.875   115381237.233       -1226.365          38.000  
  21963934.327   115421276.890       -1226.052          39.000  
  22043937.215   115841700.934       -1225.793          37.000  
  22026940.849   115752371.098       -1226.021          38.000  
  21882171.537   114991585.469       -1225.949          39.000  
  21873382.136   114945401.513       -1225.831          37.000  
  21932285.338   115254909.817       -1225.869          40.000  
  22000601.542   115613939.573       -1226.173          34.000  
  22094346.207   116106578.275       -1225.953          37.000  
 25  8 13 10 20 33.6020000  0 30G 1G 2G 3G 4G 5G 7G 6G 8G31G20G25G29
                                G15G30G26G32G16G14G28G13G19G12G21G10
                                G23G17G 9G24G11G22
  22012428.546   115676218.382       -1225.992          44.000  
  22012343.435   115675613.144       -1225.917          49.000  
  22012315.783   115675581.756       -1225.917          49.000  
  22012320.069   115675575.010       -1225.811          49.000  
  22012231.959   115675064.931       -1225.966          49.000  
  22012284.872   115675234.269       -1226.045          41.000  
  22012259.591   115675603.267       -1226.005          44.000  
  22012335.266   115675601.192       -1225.939          46.000  
  22151827.204   116408687.883       -1225.966          38.000  
  22060104.212   115926661.559       -1225.925          37.000  
  21883395.489   114997995.719       -1225.877          37.000  
  22022005.187   115726449.089       -1225.947          38.000  
  22077978.026   116020588.075       -1225.770          40.000  
  22055706.152   115903528.713       -1225.967          39.000  
  22027281.469   115754131.677       -1225.730          38.000  
  21929399.076   115239796.164       -1225.958          40.000  
  22143036.030   116362482.819       -1226.005          38.000  
  21922372.344   115202844.296       -1226.040          39.000  
  22116074.389   116220767.671       -1225.938          40.000  
  22137175.113   116331649.729       -1225.940          38.000  
  21967496.841   115439975.643       -1225.894          38.000  
  21956358.550   115381482.358       -1225.699          38.000  
  21963980.973   115421522.047       -1225.920          39.000  
  22043983.843   115841946.113       -1225.968          37.000  
  22026987.485   115752616.257       -1225.900          38.000  
  21882218.195   114991830.636       -1225.987          39.000  
  21873428.767   114945646.703       -1226.284          37.000  
  21932331.967   115255154.993       -1226.110          40.000  
  22000648.228   115614184.723       -1225.875          34.000  
  22094392.820   116106823.431       -1225.807          37.000  
 25  8 13 10 20 33.8020000  0 30G 1G 2G 3G 4G 5G 7G 6G 8G31G20G25G29
                                G15G30G26G32G16G14G28G13G19G12G21G10
                                G23G17G 9G24G11G22
  22012475.194   115676463.534       -1225.903          44.000  
  22012390.105   115675858.293       -1225.844          49.000  
  22012362.427   115675826.906       -1225.835          49.000  
  22012366.747   115675820.163       -1225.844          49.000  
  22012278.451   115675310.081       -1225.879          49.000  
  22012331.503   115675479.415       -1225.833          41.000  
  22012306.214   115675848.415       -1225.879          44.000  
  22012381.979   115675846.341       -1225.874          46.000  
  22151873.881   116408933.039       -1225.905          38.000  
  22060150.898   115926906.718       -1225.911          37.000  
  21883442.172   114998240.869       -1225.828          37.000  
  22022051.837   115726694.237       -1225.864          38.000  
  22078024.692   116020833.221       -1225.790          40.000  
  22055752.807   115903773.858       -1225.795          39.000  
  22027328.131   115754376.821       -1225.863          38.000  
  21929445.751   115240041.312       -1225.874          40.000  
  22143082.579   116362727.970       -1225.870          38.000  
  21922418.990   115203089.448       -1225.917          39.000  
  22116121.055   116221012.821       -1225.912          40.000  
  22137221.718   116331894.875       -1225.862          38.000  
  21967543.475   115440220.791       -1225.922          38.000  
  21956405.203   115381727.501       -1225.782          38.000  
  21964027.631   115421767.196       -1225.901          39.000  
  22044030.483   115842191.262       -1225.902          37.000  
  22027034.100   115752861.410       -1225.958          39.000  
  21882264.849   114992075.783       -1225.875          39.000  
  21873475.431   114945891.851       -1225.887          37.000  
  21932378.575   115255400.145       -1225.975          40.000  
  22000694.930   115614429.869       -1225.872          34.000  
  22094439.411   116107068.579       -1225.803          37.000  
 25  8 13 10 20 34.0020000  0 30G 1G 2G 3G 4G 5G 7G 6G 8G31G20G25G29
                                G15G30G26G32G16G14G28G13G19G12G21G10
                                G23G17G 9G24G11G22
  22012521.835   115676708.651       -1225.619          44.000  
  22012436.758   115676103.415       -1225.647          49.000  
  22012409.080   115676072.028       -1225.626          49.000  
  22012413.383   115676065.285       -1225.667          49.000  
  22012325.071   115675555.198       -1225.591          49.000  
  22012378.172   115675724.533       -1225.570          41.000  
  22012352.887   115676093.535       -1225.630          44.000  
  22012428.624   115676091.461       -1225.609          46.000  
  22151920.540   116409178.155       -1225.562          38.000  
  22060197.525   115927151.831       -1225.538          37.000  
  21883488.820   114998485.988       -1225.619          37.000  
  22022098.496   115726939.353       -1225.571          38.000  
  22078071.311   116021078.344       -1225.566          40.000  
  22055799.483   115904018.980       -1225.564          39.000  
  22027374.786   115754621.943       -1225.544          38.000  
  21929492.371   115240286.430       -1225.570          39.000  
  22143129.298   116362973.090       -1225.623          38.000  
  21922465.658   115203334.569       -1225.690          39.000  
  22116167.703   116221257.939       -1225.631          40.000  
  22137268.369   116332139.991       -1225.470          38.000  
  21967590.178   115440465.908       -1225.542          37.000  
  21956451.864   115381972.627       -1225.569          38.000  
  21964074.249   115422012.316       -1225.645          40.000  
  22044077.122   115842436.380       -1225.604          37.000  
  22027080.752   115753106.526       -1225.590          39.000  
  21882311.467   114992320.904       -1225.657          40.000  
  21873522.040   114946136.968       -1225.578          37.000  
  21932425.201   115255645.260       -1225.631          40.000  
  22000741.604   115614674.988       -1225.515          34.000  
  22094485.947   116107313.700       -1225.563          37.000  
 25  8 13 10 20 34.2020000  0 30G 1G 2G 3G 4G 5G 7G 6G 8G31G20G25G29
                                G15G30G26G32G16G14G28G13G19G12G21G10
                                G23G17G 9G24G11G22
  22012568.543   115676953.796       -1225.773          44.000  
  22012483.419   115676348.556       -1225.776          49.000  
  22012455.738   115676317.169       -1225.741          49.000  
  22012460.051   115676310.426       -1225.771          49.000  
  22012371.708   115675800.345       -1225.774          49.000  
  22012424.821   115675969.677       -1225.795          41.000  
  22012399.561   115676338.676       -1225.729          44.000  
  22012475.318   115676336.610       -1225.840          46.000  
  22151967.185   116409423.306       -1225.906          38.000  
  22060244.199   115927396.975       -1225.750          37.000  
  21883535.475   114998731.139       -1225.799          37.000  
  22022145.157   115727184.504       -1225.828          38.000  
  22078117.952   116021323.497       -1225.811          39.000  
  22055846.123   115904264.126       -1225.787          38.000  
  22027421.501   115754867.104       -1225.786          38.000  
  21929539.036   115240531.578       -1225.778          39.000  
  22143175.867   116363218.228       -1225.697          38.000  
  21922512.278   115203579.707       -1225.737          39.000  
  22116214.353   116221503.084       -1225.739          40.000  
  22137315.015   116332385.144       -1225.833          38.000  
  21967636.796   115440711.058       -1225.825          37.000  
  21956498.533   115382217.792       -1225.887          38.000  
  21964120.916   115422257.463       -1225.780          40.000  
  22044123.706   115842681.522       -1225.726          37.000  
  22027127.406   115753351.674       -1225.825          39.000  
  21882358.096   114992566.051       -1225.841          40.000  
  21873568.722   114946382.099       -1225.775          37.000  
  21932471.844   115255890.401       -1225.734          40.000  
  22000788.275   115614920.142       -1225.839          34.000  
  22094532.549   116107558.855       -1225.809          37.000  
 25  8 13 10 20 34.4020000  0 30G 1G 2G 3G 4G 5G 7G 6G 8G31G20G25G29
                                G15G30G26G32G16G14G28G13G19G12G21G10
                                G23G17G 9G24G11G22
  22012615.188   115677198.957       -1225.979          44.000  
  22012530.081   115676593.714       -1225.831          49.000  
  22012502.402   115676562.329       -1225.859          49.000  
  22012506.701   115676555.584       -1225.850          49.000  
  22012418.664   115676045.513       -1225.974          49.000  
  22012471.510   115676214.847       -1225.901          41.000  
  22012446.217   115676583.833       -1226.128          44.000  
  22012522.025   115676581.777       -1225.907          46.000  
  22152013.833   116409668.477       -1225.911          38.000  
  22060290.869   115927642.147       -1226.046          37.000  
  21883582.088   114998976.304       -1226.018          37.000  
  22022191.859   115727429.662       -1225.999          38.000  
  22078164.626   116021568.665       -1225.812          39.000  
  22055892.808   115904509.284       -1225.989          38.000  
  22027468.156   115755112.248       -1225.967          38.000  
  21929585.681   115240776.754       -1225.990          39.000  
  22143222.550   116363463.391       -1226.074          38.000  
  21922558.937   115203824.857       -1226.011          39.000  
  22116261.032   116221748.240       -1226.075          40.000  
  22137361.679   116332630.322       -1225.856          38.000  
  21967683.454   115440956.210       -1226.011          38.000  
  21956545.217   115382462.964       -1225.710          38.000  
  21964167.549   115422502.630       -1225.901          40.000  
  22044170.328   115842926.699       -1225.908          37.000  
  22027174.089   115753596.845       -1225.884          38.000  
  21882404.751   114992811.228       -1225.825          40.000  
  21873615.359   114946627.272       -1225.990          37.000  
  21932518.477   115256135.573       -1226.049          40.000  
  22000834.980   115615165.306       -1225.922          34.000  
  22094579.170   116107804.036       -1225.779          37.000  
 25  8 13 10 20 34.6020000  0 30G 1G 2G 3G 4G 5G 7G 6G 8G31G20G25G29
                                G15G30G26G32G16G14G28G13G19G12G21G10
                                G23G17G 9G24G11G22
  22012661.810   115677444.114       -1225.792          44.000  
  22012576.756   115676838.878       -1225.856          49.000  
  22012549.064   115676807.491       -1225.824          49.000  
  22012553.378   115676800.748       -1225.841          49.000  
  22012465.333   115676290.669       -1225.757          49.000  
  22012518.145   115676460.004       -1225.723          41.000  
  22012492.876   115676828.987       -1225.706          44.000  
  22012568.688   115676826.934       -1225.830          46.000  
  22152060.523   116409913.639       -1225.791          38.000  
  22060337.527   115927887.301       -1225.787          37.000  
  21883628.769   114999221.455       -1225.690          37.000  
  22022238.501   115727674.818       -1225.841          38.000  
  22078211.270   116021813.818       -1225.851          39.000  
  22055939.419   115904754.444       -1225.714          38.000  
  22027514.822   115755357.397       -1225.731          38.000  
  21929632.335   115241021.906       -1225.807          39.000  
  22143269.124   116363708.542       -1225.647          38.000  
  21922605.590   115204070.017       -1225.745          39.000  
  22116307.667   116221993.394       -1225.732          40.000  
  22137408.325   116332875.484       -1225.786          38.000  
  21967730.090   115441201.365       -1225.751          38.000  
  21956591.848   115382708.117       -1225.856          38.000  
  21964214.181   115422747.783       -1225.839          40.000  
  22044216.960   115843171.860       -1225.905          37.000  
  22027220.779   115753842.005       -1225.924          38.000  
  21882451.425   114993056.383       -1225.864          40.000  
  21873662.020   114946872.436       -1225.716          37.000  
  21932565.143   115256380.730       -1225.792          40.000  
  22000881.681   115615410.467       -1225.806          34.000  
  22094625.774   116108049.195       -1225.903          37.000  
 25  8 13 10 20 34.8020000  0 30G 1G 2G 3G 4G 5G 7G 6G 8G31G20G25G29
                                G15G30G26G32G16G14G28G13G19G12G21G10
                                G23G17G 9G24G11G22
  22012708.436   115677689.278       -1225.708          44.000  
  22012623.424   115677084.043       -1225.771          49.000  
  22012595.718   115677052.652       -1225.747          49.000  
  22012600.034   115677045.914       -1225.841          49.000  
  22012512.050   115676535.836       -1225.724          49.000  
  22012564.815   115676705.171       -1225.741          41.000  
  22012539.541   115677074.156       -1225.741          44.000  
  22012615.324   115677072.098       -1225.679          46.000  
  22152107.203   116410158.797       -1225.555          38.000  
  22060384.192   115928132.465       -1225.676          37.000  
  21883675.422   114999466.625       -1225.718          37.000  
  22022285.139   115727919.987       -1225.836          38.000  
  22078257.962   116022058.998       -1226.077          39.000  
  22055986.109   115904999.608       -1225.710          38.000  
  22027561.451   115755602.585       -1226.167          38.000  
  21929678.998   115241267.076       -1225.782          39.000  
  22143315.834   116363953.712       -1225.743          38.000  
  21922652.290   115204315.186       -1225.730          39.000  
  22116354.337   116222238.564       -1225.741          40.000  
  22137455.022   116333120.645       -1225.684          38.000  
  21967776.794   115441446.540       -1225.868          38.000  
  21956638.496   115382953.299       -1226.051          38.000  
  21964260.790   115422992.956       -1225.875          40.000  
  22044263.608   115843417.018       -1225.652          37.000  
  22027267.464   115754087.169       -1225.763          38.000  
  21882498.099   114993301.550       -1225.803          40.000  
  21873708.648   114947117.589       -1225.427          37.000  
  21932611.798   115256625.889       -1225.571          40.000  
  22000928.358   115615655.630       -1225.785          34.000  
  22094672.377   116108294.364       -1225.774          37.000  
 25  8 13 10 20 35.0020000  0 30G 1G 2G 3G 4G 5G 7G 6G 8G31G20G25G29
                                G15G30G26G32G16G14G28G13G19G12G21G10
                                G23G17G 9G24G11G22
  22012755.100   115677934.436       -1225.870          44.000  
  22012670.107   115677329.203       -1225.781          49.000  
  22012642.364   115677297.810       -1225.758          49.000  
  22012646.690   115677291.074       -1225.768          49.000  
  22012559.071   115676780.996       -1225.847          49.000  
  22012611.440   115676950.323       -1225.846          41.000  
  22012586.201   115677319.314       -1225.909          44.000  
  22012661.970   115677317.265       -1225.870          46.000  
  22152153.851   116410403.963       -1225.892          38.000  
  22060430.815   115928377.625       -1225.975          37.000  
  21883722.071   114999711.783       -1225.944          37.000  
  22022331.834   115728165.150       -1225.747          38.000  
  22078304.596   116022304.156       -1225.620          39.000  
  22056032.759   115905244.765       -1225.884          39.000  
  22027608.126   115755847.740       -1225.588          38.000  
  21929725.719   115241512.235       -1225.902          40.000  
  22143362.444   116364198.868       -1225.905          38.000  
  21922698.889   115204560.345       -1225.789          39.000  
  22116400.942   116222483.721       -1225.896          40.000  
  22137501.681   116333365.807       -1225.868          38.000  
  21967823.437   115441691.694       -1225.776          38.000  
  21956685.185   115383198.463       -1225.583          38.000  
  21964307.465   115423238.113       -1225.776          39.000  
  22044310.259   115843662.180       -1225.936          37.000  
  22027314.082   115754332.331       -1225.835          38.000  
  21882544.769   114993546.712       -1225.842          40.000  
  21873755.320   114947362.752       -1225.925          37.000  
  21932658.463   115256871.050       -1225.927          40.000  
  22000975.005   115615900.796       -1225.909          34.000  
  22094719.087   116108539.522       -1225.967          37.000  
 25  8 13 10 20 35.2020000  0 30G 1G 2G 3G 4G 5G 7G 6G 8G31G20G25G29
                                G15G30G26G32G16G14G28G13G19G12G21G10
                                G23G17G 9G24G11G22
  22012801.805   115678179.620       -1226.156          44.000  
  22012716.773   115677574.384       -1226.024          49.000  
  22012688.986   115677542.994       -1226.050          49.000  
  22012693.355   115677536.255       -1226.051          49.000  
  22012606.006   115677026.168       -1226.023          49.000  
  22012658.092   115677195.501       -1226.072          41.000  
  22012632.872   115677564.508       -1226.263          44.000  
  22012708.627   115677562.431       -1225.903          46.000  
  22152200.510   116410649.120       -1225.806          38.000  
  22060477.480   115928622.791       -1225.973          37.000  
  21883768.720   114999956.965       -1226.132          37.000  
  22022378.515   115728410.334       -1226.162          38.000  
  22078351.323   116022549.321       -1225.807          39.000  
  22056079.395   115905489.949       -1226.136          39.000  
  22027654.779   115756092.947       -1226.307          38.000  
  21929772.355   115241757.397       -1225.867          40.000  
  22143409.160   116364444.060       -1226.293          38.000  
  21922745.596   115204805.542       -1226.346          39.000  
  22116447.606   116222728.908       -1226.215          40.000  
  22137548.351   116333610.968       -1225.815          38.000  
  21967870.123   115441936.888       -1226.226          38.000  
  21956731.864   115383443.618       -1225.697          38.000  
  21964354.088   115423483.288       -1225.973          39.000  
  22044356.903   115843907.340       -1225.798          37.000  
  22027360.705   115754577.497       -1225.887          38.000  
  21882591.410   114993791.867       -1225.757          40.000  
  21873801.961   114947607.918       -1225.889          37.000  
  21932705.102   115257116.224       -1226.055          40.000  
  22001021.692   115616145.971       -1226.063          34.000  
  22094765.763   116108784.669       -1225.659          37.000  
 25  8 13 10 20 35.4020000  0 30G 1G 2G 3G 4G 5G 7G 6G 8G31G20G25G29
                                G15G30G26G32G16G14G28G13G19G12G21G10
                                G23G17G 9G24G11G22
  22012848.472   115678424.801       -1226.051          44.000  
  22012763.449   115677819.569       -1226.000          49.000  
  22012735.666   115677788.181       -1226.047          49.000  
  22012740.017   115677781.441       -1226.040          49.000  
  22012652.468   115677271.356       -1226.040          49.000  
  22012704.748   115677440.686       -1226.028          41.000  
  22012679.540   115677809.686       -1226.039          44.000  
  22012755.273   115677807.617       -1226.068          46.000  
  22152247.120   116410894.315       -1226.119          38.000  
  22060524.156   115928867.985       -1226.117          37.000  
  21883815.349   115000202.147       -1226.064          37.000  
  22022425.144   115728655.513       -1226.069          38.000  
  22078397.984   116022794.513       -1226.072          39.000  
  22056126.058   115905735.131       -1225.977          39.000  
  22027701.462   115756338.125       -1226.053          38.000  
  21929819.032   115242002.589       -1226.119          40.000  
  22143455.794   116364689.238       -1226.038          38.000  
  21922792.237   115205050.723       -1226.077          39.000  
  22116494.284   116222974.090       -1226.006          40.000  
  22137595.025   116333856.159       -1226.099          38.000  
  21967916.757   115442182.069       -1226.085          38.000  
  21956778.532   115383688.812       -1226.017          38.000  
  21964400.747   115423728.472       -1226.000          39.000  
  22044403.552   115844152.533       -1226.099          37.000  
  22027407.392   115754822.689       -1226.154          38.000  
  21882638.116   114994037.059       -1226.064          39.000  
  21873848.602   114947853.110       -1226.114          37.000  
  21932751.778   115257361.408       -1226.001          40.000  
  22001068.338   115616391.155       -1226.083          34.000  
  22094812.447   116109029.867       -1226.044          37.000  
 25  8 13 10 20 35.6020000  0 30G 1G 2G 3G 4G 5G 7G 6G 8G31G20G25G29
                                G15G30G26G32G16G14G28G13G19G12G21G10
                                G23G17G 9G24G11G22
  22012895.164   115678669.985       -1226.011          44.000  
  22012810.104   115678064.758       -1226.074          49.000  
  22012782.312   115678033.369       -1226.075          49.000  
  22012786.678   115678026.631       -1226.060          49.000  
  22012699.112   115677516.542       -1226.050          49.000  
  22012751.420   115677685.877       -1226.095          41.000  
  22012726.184   115678054.874       -1226.003          44.000  
  22012801.857   115678052.799       -1226.046          46.000  
  22152293.785   116411139.497       -1226.017          38.000  
  22060570.841   115929113.166       -1226.071          37.000  
  21883862.018   115000447.335       -1226.065          37.000  
  22022471.753   115728900.700       -1226.072          38.000  
  22078444.661   116023039.699       -1226.017          39.000  
  22056172.697   115905980.319       -1226.010          39.000  
  22027748.125   115756583.312       -1226.044          38.000  
  21929865.668   115242247.769       -1225.999          40.000  
  22143502.524   116364934.424       -1226.064          38.000  
  21922838.858   115205295.908       -1226.050          39.000  
  22116540.948   116223219.277       -1226.017          40.000  
  22137641.707   116334101.344       -1226.089          38.000  
  21967963.444   115442427.252       -1225.994          38.000  
  21956825.186   115383933.998       -1226.096          38.000  
  21964447.437   115423973.658       -1226.042          39.000  
  22044450.241   115844397.717       -1226.051          37.000  
  22027454.076   115755067.868       -1226.024          38.000  
  21882684.714   114994282.244       -1226.108          39.000  
  21873895.253   114948098.289       -1226.045          37.000  
  21932798.459   115257606.597       -1226.056          40.000  
  22001115.001   115616636.340       -1226.033          34.000  
  22094859.183   116109275.054       -1226.068          37.000  
 25  8 13 10 20 35.8020000  0 30G 1G 2G 3G 4G 5G 7G 6G 8G31G20G25G29
                                G15G30G26G32G16G14G28G13G19G12G21G10
                                G23G17G 9G24G11G22
  22012941.804   115678915.155       -1225.677          44.000  
  22012856.767   115678309.926       -1225.927          49.000  
  22012828.996   115678278.537       -1225.892          49.000  
  22012833.343   115678271.800       -1226.021          49.000  
  22012745.777   115677761.708       -1225.800          49.000  
  22012798.058   115677931.038       -1225.815          41.000  
  22012772.826   115678300.044       -1225.771          44.000  
  22012848.456   115678297.968       -1225.865          46.000  
  22152340.401   116411384.665       -1225.764          38.000  
  22060617.463   115929358.330       -1225.573          37.000  
  21883908.723   115000692.500       -1225.781          37.000  
  22022518.382   115729145.868       -1226.003          38.000  
  22078491.255   116023284.867       -1226.168          39.000  
  22056219.355   115906225.490       -1225.758          39.000  
  22027794.799   115756828.480       -1226.365          38.000  
  21929912.317   115242492.937       -1225.726          40.000  
  22143549.147   116365179.590       -1225.645          38.000  
  21922885.515   115205541.073       -1225.874          39.000  
  22116587.584   116223464.445       -1225.673          40.000  
  22137688.308   116334346.509       -1225.942          38.000  
  21968010.087   115442672.418       -1225.814          38.000  
  21956871.811   115384179.169       -1226.597          38.000  
  21964494.048   115424218.823       -1225.800          39.000  
  22044496.874   115844642.882       -1225.675          37.000  
  22027500.731   115755313.037       -1225.853          38.000  
  21882731.375   114994527.408       -1225.766          39.000  
  21873941.917   114948343.448       -1225.200          37.000  
  21932845.135   115257851.762       -1225.646          40.000  
  22001161.662   115616881.509       -1226.205          34.000  
  22094905.798   116109520.222       -1226.053          37.000  
 25  8 13 10 20 36.0020000  0 30G 1G 2G 3G 4G 5G 7G 6G 8G31G20G25G29
                                G15G30G26G32G16G14G28G13G19G12G21G10
                                G23G17G 9G24G11G22
  22012988.476   115679160.360       -1226.052          44.000  
  22012903.433   115678555.116       -1226.008          49.000  
  22012875.654   115678523.731       -1226.047          49.000  
  22012879.997   115678516.984       -1226.003          49.000  
  22012792.479   115678006.907       -1225.995          49.000  
  22012844.711   115678176.241       -1226.028          41.000  
  22012819.464   115678545.238       -1226.001          44.000  
  22012895.074   115678543.159       -1225.941          46.000  
  22152387.108   116411629.861       -1226.017          38.000  
  22060664.149   115929603.541       -1226.095          37.000  
  21883955.423   115000937.702       -1226.081          37.000  
  22022565.039   115729391.051       -1225.844          38.000  
  22078537.914   116023530.047       -1225.828          39.000  
  22056266.029   115906470.690       -1226.049          39.000  
  22027841.439   115757073.644       -1225.604          38.000  
  21929958.989   115242738.137       -1226.035          40.000  
  22143595.831   116365424.801       -1226.251          38.000  
  21922932.183   115205786.265       -1225.922          39.000  
  22116634.257   116223709.648       -1226.101          40.000  
  22137734.980   116334591.701       -1225.930          38.000  
  21968056.709   115442917.613       -1225.948          38.000  
  21956918.465   115384424.319       -1225.486          38.000  
  21964540.717   115424464.020       -1226.007          39.000  
  22044543.529   115844888.084       -1226.047          37.000  
  22027547.397   115755558.231       -1225.973          38.000  
  21882778.001   114994772.605       -1225.984          39.000  
  21873988.573   114948588.676       -1226.282          37.000  
  21932891.789   115258096.966       -1226.115          40.000  
  22001208.287   115617126.680       -1225.686          34.000  
  22094952.468   116109765.409       -1225.875          37.000  
 25  8 13 10 20 36.2020000  0 30G 1G 2G 3G 4G 5G 7G 6G 8G31G20G25G29
                                G15G30G26G32G16G14G28G13G19G12G21G10
                                G23G17G 9G24G11G22
  22013035.124   115679405.529       -1225.870          44.000  
  22012950.117   115678800.289       -1225.829          49.000  
  22012922.302   115678768.904       -1225.840          49.000  
  22012926.648   115678762.162       -1225.835          49.000  
  22012839.152   115678252.078       -1225.850          49.000  
  22012891.380   115678421.420       -1225.800          41.000  
  22012866.122   115678790.416       -1225.833          44.000  
  22012941.688   115678788.338       -1225.819          46.000  
  22152433.737   116411875.034       -1225.809          38.000  
  22060710.823   115929848.710       -1226.011          37.000  
  21884002.110   115001182.873       -1225.883          37.000  
  22022611.769   115729636.232       -1225.703          38.000  
  22078584.533   116023775.229       -1225.747          39.000  
  22056312.709   115906715.860       -1225.930          39.000  
  22027888.110   115757318.847       -1225.768          38.000  
  21930005.660   115242983.309       -1225.876          40.000  
  22143642.458   116365669.960       -1225.800          38.000  
  21922978.818   115206031.444       -1225.861          39.000  
  22116680.922   116223954.820       -1225.916          40.000  
  22137781.632   116334836.881       -1225.881          38.000  
  21968103.352   115443162.792       -1225.813          38.000  
  21956965.116   115384669.521       -1225.618          38.000  
  21964587.384   115424709.195       -1225.780          39.000  
  22044590.190   115845133.257       -1225.957          37.000  
  22027594.018   115755803.405       -1225.824          38.000  
  21882824.650   114995017.777       -1225.815          39.000  
  21874035.267   114948833.826       -1225.875          37.000  
  21932938.442   115258342.135       -1225.842          40.000  
  22001254.905   115617371.873       -1225.684          34.000  
  22094999.104   116110010.592       -1225.859          37.000  
 25  8 13 10 20 36.4020000  0 30G 1G 2G 3G 4G 5G 7G 6G 8G31G20G25G29
                                G15G30G26G32G16G14G28G13G19G12G21G10
                                G23G17G 9G24G11G22
  22013081.782   115679650.693       -1225.834          44.000  
  22012996.795   115679045.459       -1225.830          49.000  
  22012968.930   115679014.072       -1225.797          49.000  
  22012973.280   115679007.332       -1225.830          49.000  
  22012885.804   115678497.249       -1225.845          49.000  
  22012938.046   115678666.587       -1225.873          41.000  
  22012912.783   115679035.582       -1225.859          44.000  
  22012988.375   115679033.508       -1225.890          46.000  
  22152480.389   116412120.204       -1225.851          38.000  
  22060757.493   115930093.867       -1225.793          37.000  
  21884048.774   115001428.037       -1225.801          37.000  
  22022658.392   115729881.411       -1225.938          38.000  
  22078631.180   116024020.407       -1225.863          39.000  
  22056359.362   115906961.025       -1225.841          39.000  
  22027934.732   115757564.024       -1225.927          38.000  
  21930052.295   115243228.479       -1225.844          40.000  
  22143689.120   116365915.128       -1225.835          38.000  
  21923025.455   115206276.612       -1225.802          39.000  
  22116727.570   116224199.986       -1225.831          40.000  
  22137828.277   116335082.046       -1225.756          38.000  
  21968150.014   115443407.964       -1225.958          38.000  
  21957011.754   115384914.711       -1225.894          38.000  
  21964634.025   115424954.370       -1225.927          39.000  
  22044636.842   115845378.417       -1225.844          37.000  
  22027640.679   115756048.573       -1225.771          38.000  
  21882871.312   114995262.948       -1225.877          39.000  
  21874081.878   114949078.990       -1225.820          37.000  
  21932985.099   115258587.302       -1225.833          40.000  
  22001301.528   115617617.046       -1225.887          34.000  
  22095045.838   116110255.760       -1225.848          37.000  
 25  8 13 10 20 36.6020000  0 30G 1G 2G 3G 4G 5G 7G 6G 8G31G20G25G29
                                G15G30G26G32G16G14G28G13G19G12G21G10
                                G23G17G 9G24G11G22
  22013128.428   115679895.866       -1226.024          44.000  
  22013043.471   115679290.628       -1225.911          49.000  
  22013015.562   115679259.244       -1225.964          49.000  
  22013019.918   115679252.496       -1225.851          49.000  
  22012932.660   115678742.418       -1225.986          49.000  
  22012984.731   115678911.760       -1226.036          41.000  
  22012959.429   115679280.757       -1226.042          44.000  
  22013034.996   115679278.674       -1225.865          46.000  
  22152526.976   116412365.374       -1226.028          38.000  
  22060804.163   115930339.052       -1226.067          37.000  
  21884095.479   115001673.214       -1226.005          37.000  
  22022705.047   115730126.565       -1225.854          38.000  
  22078677.849   116024265.564       -1225.792          39.000  
  22056406.050   115907206.201       -1226.042          39.000  
  22027981.386   115757809.172       -1225.682          38.000  
  21930098.986   115243473.649       -1225.990          40.000  
  22143735.812   116366160.306       -1226.062          38.000  
  21923072.093   115206521.778       -1225.901          39.000  
  22116774.252   116224445.161       -1226.034          40.000  
  22137874.944   116335327.215       -1225.830          38.000  
  21968196.637   115443653.124       -1225.861          38.000  
  21957058.427   115385159.851       -1225.626          38.000  
  21964680.714   115425199.534       -1225.958          39.000  
  22044683.557   115845623.597       -1226.105          37.000  
  22027687.382   115756293.749       -1225.984          38.000  
  21882917.947   114995508.117       -1225.918          39.000  
  21874128.520   114949324.178       -1226.199          37.000  
  21933031.741   115258832.478       -1226.056          40.000  
  22001348.187   115617862.204       -1225.795          34.000  
  22095092.493   116110500.932       -1226.044          37.000  
 25  8 13 10 20 36.8020000  0 30G 1G 2G 3G 4G 5G 7G 6G 8G31G20G25G29
                                G15G30G26G32G16G14G28G13G19G12G21G10
                                G23G17G 9G24G11G22
  22013175.070   115680141.021       -1225.709          44.000  
  22013090.140   115679535.788       -1225.781          49.000  
  22013062.229   115679504.403       -1225.795          49.000  
  22013066.578   115679497.665       -1225.845          49.000  
  22012979.256   115678987.577       -1225.776          49.000  
  22013031.367   115679156.911       -1225.779          41.000  
  22013006.054   115679525.911       -1225.764          44.000  
  22013081.585   115679523.838       -1225.814          46.000  
  22152573.663   116412610.532       -1225.709          38.000  
  22060850.855   115930584.201       -1225.664          37.000  
  21884142.066   115001918.366       -1225.709          37.000  
  22022751.737   115730371.735       -1225.867          38.000  
  22078724.492   116024510.733       -1225.942          39.000  
  22056452.689   115907451.357       -1225.797          39.000  
  22028028.022   115758054.349       -1226.075          38.000  
  21930145.637   115243718.804       -1225.724          40.000  
  22143782.437   116366405.458       -1225.679          38.000  
  21923118.749   115206766.943       -1225.836          39.000  
  22116820.931   116224690.319       -1225.815          40.000  
  22137921.664   116335572.383       -1225.881          38.000  
  21968243.262   115443898.290       -1225.862          38.000  
  21957105.087   115385405.036       -1226.188          38.000  
  21964727.383   115425444.698       -1225.896          39.000  
  22044730.179   115845868.747       -1225.656          37.000  
  22027733.981   115756538.907       -1225.774          38.000  
  21882964.572   114995753.279       -1225.857          39.000  
  21874175.164   114949569.319       -1225.574          37.000  
  21933078.378   115259077.633       -1225.756          40.000  
  22001394.856   115618107.376       -1225.917          34.000  
  22095139.168   116110746.085       -1225.812          37.000  
 25  8 13 10 20 37.0020000  0 30G 1G 2G 3G 4G 5G 7G 6G 8G31G20G25G29
                                G15G30G26G32G16G14G28G13G19G12G21G10
                                G23G17G 9G24G11G22
  22013221.741   115680386.203       -1225.918          44.000  
  22013136.824   115679780.964       -1225.970          49.000  
  22013108.886   115679749.578       -1225.929          49.000  
  22013113.261   115679742.834       -1225.964          49.000  
  22013025.624   115679232.755       -1225.955          49.000  
  22013078.042   115679402.096       -1225.944          41.000  
  22013052.711   115679771.086       -1225.880          44.000  
  22013128.283   115679769.010       -1225.956          46.000  
  22152620.328   116412855.717       -1226.072          38.000  
  22060897.507   115930829.395       -1225.997          37.000  
  21884188.725   115002163.544       -1225.923          37.000  
  22022798.411   115730616.903       -1225.955          38.000  
  22078771.117   116024755.891       -1225.913          39.000  
  22056499.347   115907696.534       -1225.892          39.000  
  22028074.672   115758299.491       -1225.964          38.000  
  21930192.294   115243963.984       -1225.933          40.000  
  22143829.093   116366650.648       -1225.980          38.000  
  21923165.394   115207012.120       -1226.007          39.000  
  22116867.590   116224935.493       -1225.974          40.000  
  22137968.305   116335817.549       -1225.947          38.000  
  21968289.915   115444143.460       -1225.892          38.000  
  21957151.751   115385650.168       -1225.967          38.000  
  21964774.023   115425689.865       -1225.927          39.000  
  22044776.832   115846113.932       -1225.874          37.000  
  22027780.645   115756784.081       -1225.928          38.000  
  21883011.283   114995998.452       -1225.923          39.000  
  21874221.849   114949814.530       -1225.945          37.000  
  21933125.057   115259322.816       -1225.977          40.000  
  22001441.520   115618352.534       -1225.931          34.000  
  22095185.785   116110991.255       -1225.946          37.000  
 25  8 13 10 20 37.2020000  0 30G 1G 2G 3G 4G 5G 7G 6G 8G31G20G25G29
                                G15G30G26G32G16G14G28G13G19G12G21G10
                                G23G17G 9G24G11G22
  22013268.431   115680631.384       -1225.920          44.000  
  22013183.486   115680026.142       -1225.825          49.000  
  22013155.580   115679994.756       -1225.833          49.000  
  22013159.899   115679988.016       -1225.851          49.000  
  22013072.227   115679477.936       -1225.895          49.000  
  22013124.693   115679647.277       -1225.929          41.000  
  22013099.377   115680016.271       -1225.919          44.000  
  22013174.839   115680014.189       -1225.818          46.000  
  22152666.984   116413100.888       -1225.858          38.000  
  22060944.136   115931074.572       -1226.047          37.000  
  21884235.425   115002408.726       -1225.800          37.000  
  22022845.011   115730862.085       -1225.769          38.000  
  22078817.795   116025001.078       -1225.743          39.000  
  22056546.003   115907941.716       -1225.922          39.000  
  22028121.281   115758544.673       -1225.461          38.000  
  21930238.928   115244209.167       -1225.902          39.000  
  22143875.770   116366895.822       -1225.977          38.000  
  21923212.056   115207257.291       -1225.792          39.000  
  22116914.241   116225180.674       -1225.841          40.000  
  22138014.947   116336062.728       -1225.767          38.000  
  21968336.608   115444388.643       -1225.852          38.000  
  21957198.413   115385895.351       -1225.377          38.000  
  21964820.708   115425935.049       -1225.756          39.000  
  22044823.463   115846359.113       -1225.898          37.000  
  22027827.265   115757029.263       -1225.853          38.000  
  21883057.895   114996243.634       -1225.843          39.000  
  21874268.488   114950059.705       -1226.310          37.000  
  21933171.719   115259567.996       -1225.962          40.000  
  22001488.158   115618597.717       -1225.695          34.000  
  22095232.420   116111236.438       -1225.751          37.000  
 25  8 13 10 20 37.4020000  0 30G 1G 2G 3G 4G 5G 7G 6G 8G31G20G25G29
                                G15G30G26G32G16G14G28G13G19G12G21G10
                                G23G17G 9G24G11G22
  22013315.094   115680876.537       -1225.822          44.000  
  22013230.139   115680271.304       -1225.828          49.000  
  22013202.227   115680239.918       -1225.840          49.000  
  22013206.564   115680233.179       -1225.889          49.000  
  22013118.789   115679723.099       -1225.951          49.000  
  22013171.333   115679892.437       -1225.881          41.000  
  22013146.016   115680261.432       -1225.966          44.000  
  22013221.537   115680259.349       -1225.867          46.000  
  22152713.601   116413346.049       -1225.901          38.000  
  22060990.785   115931319.722       -1225.887          37.000  
  21884282.105   115002653.891       -1225.952          37.000  
  22022891.697   115731107.252       -1225.930          38.000  
  22078864.451   116025246.249       -1225.897          39.000  
  22056592.646   115908186.877       -1225.911          39.000  
  22028167.980   115758789.858       -1225.845          38.000  
  21930285.562   115244454.327       -1225.864          40.000  
  22143922.425   116367140.978       -1225.873          38.000  
  21923258.715   115207502.457       -1225.919          39.000  
  22116960.892   116225425.837       -1225.931          40.000  
  22138061.582   116336307.891       -1225.780          38.000  
  21968383.270   115444633.803       -1225.828          38.000  
  21957245.093   115386140.540       -1225.931          38.000  
  21964867.366   115426180.216       -1225.925          39.000  
  22044870.075   115846604.270       -1225.946          37.000  
  22027873.934   115757274.425       -1225.920          38.000  
  21883104.571   114996488.793       -1225.800          39.000  
  21874315.128   114950304.842       -1225.872          37.000  
  21933218.367   115259813.149       -1225.869          40.000  
  22001534.826   115618842.891       -1225.890          34.000  
  22095279.106   116111481.608       -1226.031          37.000  
 25  8 13 10 20 37.6020000  0 30G 1G 2G 3G 4G 5G 7G 6G 8G31G20G25G29
                                G15G30G26G32G16G14G28G13G19G12G21G10
                                G23G17G 9G24G11G22
  22013361.742   115681121.700       -1225.720          44.000  
  22013276.807   115680516.471       -1225.735          49.000  
  22013248.882   115680485.080       -1225.714          49.000  
  22013253.216   115680478.343       -1225.730          49.000  
  22013165.479   115679968.261       -1225.791          49.000  
  22013218.031   115680137.602       -1225.750          41.000  
  22013192.657   115680506.599       -1225.789          44.000  
  22013268.157   115680504.520       -1225.781          46.000  
  22152760.287   116413591.212       -1225.724          38.000  
  22061037.417   115931564.883       -1225.688          37.000  
  21884328.716   115002899.053       -1225.818          37.000  
  22022938.316   115731352.423       -1225.845          38.000  
  22078911.105   116025491.419       -1225.835          39.000  
  22056639.283   115908432.039       -1225.798          39.000  
  22028214.598   115759035.036       -1225.978          38.000  
  21930332.253   115244699.495       -1225.830          40.000  
  22143969.086   116367386.137       -1225.721          38.000  
  21923305.384   115207747.623       -1225.735          39.000  
  22117007.512   116225670.999       -1225.791          40.000  
  22138108.251   116336553.063       -1225.792          38.000  
  21968429.929   115444878.974       -1225.767          38.000  
  21957291.717   115386385.721       -1225.957          38.000  
  21964914.044   115426425.384       -1225.875          39.000  
  22044916.734   115846849.427       -1225.687          37.000  
  22027920.572   115757519.587       -1225.730          38.000  
  21883151.190   114996733.963       -1225.844          39.000  
  21874361.806   114950550.000       -1225.624          37.000  
  21933264.970   115260058.316       -1225.725          40.000  
  22001581.466   115619088.062       -1225.807          34.000  
  22095325.784   116111726.768       -1225.743          37.000  
 25  8 13 10 20 37.8020000  0 30G 1G 2G 3G 4G 5G 7G 6G 8G31G20G25G29
                                G15G30G26G32G16G14G28G13G19G12G21G10
                                G23G17G 9G24G11G22
  22013408.388   115681366.879       -1225.906          44.000  
  22013323.483   115680761.643       -1225.907          49.000  
  22013295.525   115680730.253       -1225.880          49.000  
  22013299.869   115680723.518       -1225.924          49.000  
  22013212.092   115680213.432       -1225.961          49.000  
  22013264.696   115680382.772       -1226.067          41.000  
  22013239.332   115680751.765       -1225.935          44.000  
  22013314.895   115680749.693       -1226.018          46.000  
  22152806.921   116413836.383       -1225.901          38.000  
  22061084.050   115931810.059       -1225.826          37.000  
  21884375.379   115003144.223       -1225.918          37.000  
  22022984.986   115731597.593       -1226.084          38.000  
  22078957.787   116025736.597       -1226.249          39.000  
  22056685.939   115908677.213       -1226.001          39.000  
  22028261.277   115759280.210       -1226.415          38.000  
  21930378.976   115244944.667       -1225.995          40.000  
  22144015.742   116367631.308       -1225.767          38.000  
  21923352.064   115207992.799       -1226.107          39.000  
  22117054.195   116225916.175       -1226.012          40.000  
  22138154.914   116336798.237       -1226.045          38.000  
  21968476.605   115445124.145       -1226.022          38.000  
  21957338.407   115386630.897       -1226.633          38.000  
  21964960.702   115426670.557       -1226.062          39.000  
  22044963.431   115847094.606       -1225.922          37.000  
  22027967.248   115757764.764       -1226.019          38.000  
  21883197.893   114996979.130       -1225.909          39.000  
  21874408.422   114950795.171       -1225.716          37.000  
  21933311.617   115260303.492       -1225.972          40.000  
  22001628.115   115619333.234       -1226.223          34.000  
  22095372.430   116111971.949       -1226.122          37.000  
 25  8 13 10 20 38.0020000  0 30G 1G 2G 3G 4G 5G 7G 6G 8G31G20G25G29
                                G15G30G26G32G16G14G28G13G19G12G21G10
                                G23G17G 9G24G11G22
  22013455.021   115681612.046       -1225.942          44.000  
  22013370.149   115681006.821       -1225.946          49.000  
  22013342.189   115680975.432       -1225.933          49.000  
  22013346.510   115680968.693       -1225.885          49.000  
  22013258.547   115680458.607       -1225.907          49.000  
  22013311.361   115680627.943       -1225.848          41.000  
  22013285.989   115680996.937       -1225.850          44.000  
  22013361.497   115680994.867       -1225.920          46.000  
  22152853.567   116414081.559       -1225.867          38.000  
  22061130.649   115932055.231       -1225.873          37.000  
  21884422.005   115003389.402       -1226.013          37.000  
  22023031.645   115731842.765       -1225.872          38.000  
  22079004.398   116025981.766       -1225.988          39.000  
  22056732.568   115908922.383       -1225.889          39.000  
  22028307.906   115759525.383       -1226.040          38.000  
  21930425.615   115245189.837       -1225.883          40.000  
  22144062.422   116367876.485       -1225.872          38.000  
  21923398.708   115208237.969       -1225.874          39.000  
  22117100.822   116226161.344       -1225.890          40.000  
  22138201.580   116337043.415       -1226.012          38.000  
  21968523.286   115445369.318       -1225.920          38.000  
  21957385.067   115386876.062       -1225.907          38.000  
  21965007.376   115426915.730       -1225.973          39.000  
  22045010.076   115847339.780       -1225.942          37.000  
  22028013.893   115758009.937       -1225.897          38.000  
  21883244.510   114997224.304       -1225.909          39.000  
  21874455.094   114951040.344       -1225.796          37.000  
  21933358.289   115260548.661       -1225.897          40.000  
  22001674.731   115619578.401       -1225.950          34.000  
  22095419.048   116112217.118       -1225.918          37.000  
 25  8 13 10 20 38.2020000  0 30G 1G 2G 3G 4G 5G 7G 6G 8G31G20G25G29
                                G15G30G26G32G16G14G28G13G19G12G21G10
                                G23G17G 9G24G11G22
  22013501.687   115681857.215       -1225.813          44.000  
  22013416.808   115681251.985       -1225.868          49.000  
  22013388.853   115681220.598       -1225.868          49.000  
  22013393.153   115681213.859       -1225.808          49.000  
  22013305.075   115680703.771       -1225.847          49.000  
  22013358.022   115680873.113       -1225.829          41.000  
  22013332.685   115681242.103       -1225.813          44.000  
  22013408.144   115681240.031       -1225.765          46.000  
  22152900.188   116414326.722       -1225.803          38.000  
  22061177.304   115932300.395       -1225.747          37.000  
  21884468.668   115003634.563       -1225.822          37.000  
  22023078.316   115732087.928       -1225.808          38.000  
  22079051.057   116026226.926       -1225.753          40.000  
  22056779.214   115909167.547       -1225.770          39.000  
  22028354.588   115759770.540       -1225.848          38.000  
  21930472.259   115245434.998       -1225.769          40.000  
  22144109.071   116368121.650       -1225.813          38.000  
  21923445.340   115208483.135       -1225.814          39.000  
  22117147.476   116226406.512       -1225.790          40.000  
  22138248.240   116337288.575       -1225.814          38.000  
  21968569.950   115445614.483       -1225.814          38.000  
  21957431.739   115387121.222       -1225.869          38.000  
  21965054.049   115427160.893       -1225.828          39.000  
  22045056.704   115847584.946       -1225.901          37.000  
  22028060.574   115758255.104       -1225.846          38.000  
  21883291.206   114997469.470       -1225.816          39.000  
  21874501.734   114951285.516       -1225.750          37.000  
  21933404.953   115260793.826       -1225.767          40.000  
  22001721.421   115619823.569       -1225.842          34.000  
  22095465.743   116112462.278       -1225.756          37.000  
 25  8 13 10 20 38.4020000  0 30G 1G 2G 3G 4G 5G 7G 6G 8G31G20G25G29
                                G15G30G26G32G16G14G28G13G19G12G21G10
                                G23G17G 9G24G11G22
  22013548.302   115682102.386       -1225.837          44.000  
  22013463.475   115681497.147       -1225.786          49.000  
  22013435.501   115681465.762       -1225.804          49.000  
  22013439.815   115681459.021       -1225.791          49.000  
  22013351.464   115680948.937       -1225.804          49.000  
  22013404.657   115681118.276       -1225.820          41.000  
  22013379.308   115681487.273       -1225.883          44.000  
  22013454.763   115681485.196       -1225.792          46.000  
  22152946.875   116414571.890       -1225.778          38.000  
  22061223.954   115932545.567       -1225.741          37.000  
  21884515.300   115003879.733       -1225.868          37.000  
  22023124.947   115732333.093       -1225.806          38.000  
  22079097.708   116026472.087       -1225.780          40.000  
  22056825.872   115909412.716       -1225.790          39.000  
  22028401.210   115760015.691       -1225.730          38.000  
  21930518.907   115245680.170       -1225.781          40.000  
  22144155.744   116368366.825       -1225.896          38.000  
  21923491.977   115208728.299       -1225.808          39.000  
  22117194.095   116226651.680       -1225.851          40.000  
  22138294.892   116337533.739       -1225.826          38.000  
  21968616.639   115445859.650       -1225.864          38.000  
  21957478.362   115387366.370       -1225.732          38.000  
  21965100.735   115427406.053       -1225.793          39.000  
  22045103.354   115847830.112       -1225.809          37.000  
  22028107.225   115758500.268       -1225.836          38.000  
  21883337.839   114997714.639       -1225.838          39.000  
  21874548.365   114951530.696       -1225.948          37.000  
  21933451.627   115261038.994       -1225.824          40.000  
  22001768.076   115620068.729       -1225.825          34.000  
  22095512.391   116112707.443       -1225.706          37.000  
 25  8 13 10 20 38.6020000  0 30G 1G 2G 3G 4G 5G 7G 6G 8G31G20G25G29
                                G15G30G26G32G16G14G28G13G19G12G21G10
                                G23G17G 9G24G11G22
  22013594.947   115682347.551       -1225.974          44.000  
  22013510.149   115681742.318       -1225.972          49.000  
  22013482.149   115681710.932       -1225.956          49.000  
  22013486.489   115681704.195       -1225.975          49.000  
  22013398.166   115681194.107       -1225.983          49.000  
  22013451.312   115681363.446       -1226.066          41.000  
  22013425.929   115681732.440       -1226.019          44.000  
  22013501.430   115681730.366       -1225.958          46.000  
  22152993.487   116414817.059       -1225.958          38.000  
  22061270.618   115932790.732       -1226.014          37.000  
  21884561.968   115004124.902       -1226.070          37.000  
  22023171.656   115732578.262       -1225.936          38.000  
  22079144.359   116026717.263       -1225.947          40.000  
  22056872.561   115909657.887       -1226.025          39.000  
  22028447.877   115760260.877       -1225.914          38.000  
  21930565.597   115245925.336       -1225.999          40.000  
  22144202.408   116368611.984       -1225.990          38.000  
  21923538.629   115208973.471       -1225.935          39.000  
  22117240.783   116226896.847       -1225.966          40.000  
  22138341.523   116337778.910       -1225.955          38.000  
  21968663.290   115446104.814       -1225.927          38.000  
  21957525.017   115387611.563       -1225.880          38.000  
  21965147.379   115427651.224       -1225.912          39.000  
  22045150.042   115848075.277       -1226.002          36.000  
  22028153.938   115758745.442       -1226.063          38.000  
  21883384.536   114997959.809       -1226.032          39.000  
  21874595.035   114951775.850       -1226.030          37.000  
  21933498.302   115261284.161       -1225.952          40.000  
  22001814.750   115620313.902       -1225.957          34.000  
  22095559.103   116112952.622       -1226.014          37.000  
 25  8 13 10 20 38.8020000  0 30G 1G 2G 3G 4G 5G 7G 6G 8G31G20G25G29
                                G15G30G26G32G16G14G28G13G19G12G21G10
                                G23G17G 9G24G11G22
  22013641.618   115682592.753       -1226.049          44.000  
  22013556.814   115681987.512       -1226.028          49.000  
  22013528.804   115681956.126       -1226.014          49.000  
  22013533.143   115681949.387       -1226.050          49.000  
  22013445.129   115681439.303       -1226.123          49.000  
  22013497.989   115681608.641       -1226.105          41.000  
  22013472.585   115681977.636       -1226.085          44.000  
  22013548.079   115681975.565       -1226.128          46.000  
  22153040.150   116415062.258       -1226.085          38.000  
  22061317.289   115933035.917       -1225.878          37.000  
  21884608.593   115004370.095       -1226.087          37.000  
  22023218.293   115732823.463       -1226.167          38.000  
  22079190.996   116026962.460       -1226.106          40.000  
  22056919.215   115909903.077       -1226.027          39.000  
  22028494.494   115760506.074       -1226.121          38.000  
  21930612.222   115246170.531       -1226.093          40.000  
  22144249.104   116368857.179       -1226.027          38.000  
  21923585.301   115209218.669       -1226.119          39.000  
  22117287.416   116227142.039       -1226.040          40.000  
  22138388.179   116338024.107       -1226.064          38.000  
  21968709.945   115446350.013       -1226.073          38.000  
  21957571.680   115387856.766       -1226.227          38.000  
  21965194.053   115427896.424       -1226.128          39.000  
  22045196.727   115848320.472       -1226.066          36.000  
  22028200.531   115758990.638       -1226.185          38.000  
  21883431.171   114998205.001       -1226.060          39.000  
  21874641.683   114952021.047       -1226.061          37.000  
  21933544.936   115261529.357       -1226.024          40.000  
  22001861.386   115620559.105       -1226.161          34.000  
  22095605.786   116113197.811       -1226.057          37.000  
 25  8 13 10 20 39.0020000  0 30G 1G 2G 3G 4G 5G 7G 6G 8G31G20G25G29
                                G15G30G26G32G16G14G28G13G19G12G21G10
                                G23G17G 9G24G11G22
  22013688.264   115682837.905       -1226.074          44.000  
  22013603.478   115682232.669       -1225.946          49.000  
  22013575.458   115682201.288       -1225.972          49.000  
  22013579.812   115682194.540       -1225.828          49.000  
  22013492.016   115681684.461       -1226.042          49.000  
  22013544.644   115681853.796       -1226.174          41.000  
  22013519.252   115682222.796       -1226.071          44.000  
  22013594.744   115682220.716       -1226.027          46.000  
  22153086.829   116415307.418       -1226.110          38.000  
  22061363.954   115933281.100       -1226.244          37.000  
  21884655.294   115004615.250       -1226.063          37.000  
  22023264.927   115733068.613       -1225.997          38.000  
  22079237.635   116027207.602       -1225.780          40.000  
  22056965.881   115910148.241       -1226.075          39.000  
  22028541.166   115760751.202       -1225.620          38.000  
  21930658.838   115246415.685       -1225.957          40.000  
  22144295.752   116369102.351       -1226.227          38.000  
  21923631.956   115209463.823       -1225.999          39.000  
  22117334.085   116227387.201       -1226.050          40.000  
  22138434.807   116338269.256       -1225.955          38.000  
  21968756.597   115446595.168       -1226.060          38.000  
  21957618.365   115388101.880       -1225.497          38.000  
  21965240.676   115428141.577       -1225.977          39.000  
  22045243.345   115848565.638       -1226.174          36.000  
  22028247.226   115759235.789       -1226.025          38.000  
  21883477.816   114998450.163       -1226.106          39.000  
  21874688.357   114952266.230       -1226.498          37.000  
  21933591.602   115261774.520       -1226.122          40.000  
  22001908.037   115620804.244       -1225.924          34.000  
  22095652.399   116113442.965       -1225.914          37.000  
 25  8 13 10 20 39.2020000  0 30G 1G 2G 3G 4G 5G 7G 6G 8G31G20G25G29
                                G15G30G26G32G16G14G28G13G19G12G21G10
                                G23G17G 9G24G11G22
  22013734.900   115683083.064       -1225.776          44.000  
  22013650.148   115682477.833       -1225.894          49.000  
  22013622.100   115682446.449       -1225.919          49.000  
  22013626.481   115682439.708       -1225.901          49.000  
  22013538.923   115681929.619       -1225.824          49.000  
  22013591.264   115682098.959       -1225.995          41.000  
  22013565.897   115682467.955       -1225.911          44.000  
  22013641.364   115682465.882       -1225.841          46.000  
  22153133.461   116415552.573       -1225.890          38.000  
  22061410.572   115933526.245       -1225.852          37.000  
  21884701.948   115004860.413       -1225.897          37.000  
  22023311.576   115733313.779       -1225.895          38.000  
  22079284.292   116027452.782       -1225.911          40.000  
  22057012.556   115910393.399       -1225.797          39.000  
  22028587.773   115760996.392       -1225.778          38.000  
  21930705.476   115246660.850       -1225.841          40.000  
  22144342.407   116369347.500       -1225.867          38.000  
  21923678.578   115209708.985       -1225.793          39.000  
  22117380.735   116227632.360       -1225.857          40.000  
  22138481.474   116338514.424       -1225.833          38.000  
  21968803.224   115446840.330       -1225.784          38.000  
  21957665.011   115388347.072       -1225.685          38.000  
  21965287.363   115428386.741       -1225.842          39.000  
  22045289.998   115848810.791       -1225.842          36.000  
  22028293.834   115759480.951       -1225.847          38.000  
  21883524.451   114998695.320       -1225.894          39.000  
  21874734.999   114952511.368       -1226.019          37.000  
  21933638.290   115262019.673       -1225.839          40.000  
  22001954.701   115621049.418       -1225.764          34.000  
  22095699.022   116113688.131       -1225.781          37.000  
 25  8 13 10 20 39.4020000  0 30G 1G 2G 3G 4G 5G 7G 6G 8G31G20G25G29
                                G15G30G26G32G16G14G28G13G19G12G21G10
                                G23G17G 9G24G11G22
  22013781.568   115683328.222       -1225.358          44.000  
  22013696.811   115682722.989       -1225.576          49.000  
  22013668.752   115682691.603       -1225.631          49.000  
  22013673.111   115682684.863       -1225.601          49.000  
  22013585.766   115682174.774       -1225.472          49.000  
  22013637.920   115682344.103       -1225.371          41.000  
  22013612.532   115682713.106       -1225.382          44.000  
  22013688.036   115682711.033       -1225.439          46.000  
  22153180.081   116415797.728       -1225.504          38.000  
  22061457.238   115933771.397       -1225.262          37.000  
  21884748.562   115005105.567       -1225.454          37.000  
  22023358.208   115733558.931       -1225.540          38.000  
  22079330.958   116027697.935       -1225.602          40.000  
  22057059.235   115910638.553       -1225.393          39.000  
  22028634.488   115761241.551       -1225.653          38.000  
  21930752.115   115246906.002       -1225.369          40.000  
  22144389.054   116369592.656       -1225.306          38.000  
  21923725.250   115209954.143       -1225.549          39.000  
  22117427.345   116227877.515       -1225.405          40.000  
  22138528.095   116338759.581       -1225.505          38.000  
  21968849.914   115447085.486       -1225.438          38.000  
  21957711.676   115388592.240       -1225.862          38.000  
  21965334.049   115428631.896       -1225.446          39.000  
  22045336.634   115849055.944       -1225.382          36.000  
  22028340.530   115759726.108       -1225.477          38.000  
  21883571.091   114998940.473       -1225.423          39.000  
  21874781.639   114952756.512       -1225.283          37.000  
  21933684.978   115262264.827       -1225.387          40.000  
  22002001.382   115621294.582       -1225.641          34.000  
  22095745.685   116113933.286       -1225.437          37.000  
 25  8 13 10 20 39.6020000  0 30G 1G 2G 3G 4G 5G 7G 6G 8G31G20G25G29
                                G15G30G26G32G16G14G28G13G19G12G21G10
                                G23G17G 9G24G11G22
  22013828.239   115683573.373       -1225.833          44.000  
  22013743.460   115682968.134       -1225.756          49.000  
  22013715.396   115682936.748       -1225.736          49.000  
  22013719.759   115682929.999       -1225.592          49.000  
  22013632.432   115682419.924       -1225.786          49.000  
  22013684.567   115682589.260       -1225.745          41.000  
  22013659.181   115682958.262       -1225.756          44.000  
  22013734.697   115682956.182       -1225.779          46.000  
  22153226.741   116416042.877       -1225.806          38.000  
  22061503.843   115934016.562       -1225.819          37.000  
  21884795.202   115005350.716       -1225.726          37.000  
  22023404.850   115733804.077       -1225.747          38.000  
  22079377.597   116027943.068       -1225.616          39.000  
  22057105.891   115910883.709       -1225.804          39.000  
  22028681.042   115761486.673       -1225.524          38.000  
  21930798.717   115247151.159       -1225.774          40.000  
  22144435.704   116369837.818       -1225.875          38.000  
  21923771.953   115210199.289       -1225.820          39.000  
  22117473.981   116228122.666       -1225.785          40.000  
  22138574.749   116339004.725       -1225.807          38.000  
  21968896.580   115447330.631       -1225.676          38.000  
  21957758.296   115388837.350       -1225.541          38.000  
  21965380.723   115428877.043       -1225.709          39.000  
  22045383.268   115849301.101       -1225.804          36.000  
  22028387.160   115759971.252       -1225.754          38.000  
  21883617.745   114999185.625       -1225.779          39.000  
  21874828.309   114953001.694       -1226.145          37.000  
  21933731.609   115262509.981       -1225.796          40.000  
  22002048.043   115621539.717       -1225.764          34.000  
  22095792.348   116114178.433       -1225.757          37.000  
 25  8 13 10 20 39.8020000  0 30G 1G 2G 3G 4G 5G 7G 6G 8G31G20G25G29
                                G15G30G26G32G16G14G28G13G19G12G21G10
                                G23G17G 9G24G11G22
  22013874.883   115683818.523       -1225.868          44.000  
  22013790.115   115683213.279       -1225.792          49.000  
  22013762.085   115683181.892       -1225.751          49.000  
  22013766.399   115683175.149       -1225.800          49.000  
  22013679.119   115682665.068       -1225.879          49.000  
  22013731.221   115682834.407       -1225.909          41.000  
  22013705.819   115683203.409       -1225.903          44.000  
  22013781.359   115683201.329       -1225.905          46.000  
  22153273.340   116416288.025       -1225.951          38.000  
  22061550.505   115934261.710       -1225.969          37.000  
  21884841.859   115005595.864       -1225.859          37.000  
  22023451.516   115734049.225       -1225.869          38.000  
  22079424.194   116028188.210       -1225.844          39.000  
  22057152.531   115911128.852       -1225.876          39.000  
  22028727.758   115761731.814       -1225.834          38.000  
  21930845.373   115247396.302       -1225.973          40.000  
  22144482.374   116370082.963       -1225.970          38.000  
  21923818.590   115210444.435       -1225.933          39.000  
  22117520.652   116228367.814       -1225.924          40.000  
  22138621.397   116339249.871       -1225.913          38.000  
  21968943.256   115447575.781       -1225.944          38.000  
  21957804.966   115389082.488       -1225.768          38.000  
  21965427.387   115429122.185       -1225.900          39.000  
  22045429.909   115849546.253       -1225.962          37.000  
  22028433.862   115760216.400       -1225.907          38.000  
  21883664.419   114999430.772       -1225.908          39.000  
  21874874.928   114953246.844       -1225.933          37.000  
  21933778.273   115262755.134       -1225.988          40.000  
  22002094.717   115621784.860       -1225.835          34.000  
  22095838.956   116114423.574       -1225.897          37.000  
 25  8 13 10 20 40.0020000  0 30G 1G 2G 3G 4G 5G 7G 6G 8G31G20G25G29
                                G15G30G26G32G16G14G28G13G19G12G21G10
                                G23G17G 9G24G11G22
  22013921.545   115684063.674       -1225.873          44.000  
  22013836.783   115683458.435       -1225.835          49.000  
  22013808.746   115683427.050       -1225.844          49.000  
  22013813.054   115683420.304       -1225.829          49.000  
  22013725.519   115682910.224       -1225.874          49.000  
  22013777.847   115683079.564       -1225.968          41.000  
  22013752.448   115683448.562       -1225.956          44.000  
  22013828.007   115683446.483       -1225.930          46.000  
  22153320.015   116416533.176       -1225.864          38.000  
  22061597.115   115934506.860       -1225.885          37.000  
  21884888.537   115005841.018       -1225.890          37.000  
  22023498.162   115734294.383       -1225.907          38.000  
  22079470.855   116028433.368       -1225.887          39.000  
  22057199.147   115911374.006       -1225.876          39.000  
  22028774.399   115761976.972       -1225.820          38.000  
  21930892.023   115247641.453       -1225.919          40.000  
  22144529.010   116370328.120       -1225.931          38.000  
  21923865.273   115210689.586       -1225.858          39.000  
  22117567.308   116228612.965       -1225.841          40.000  
  22138668.031   116339495.020       -1225.852          38.000  
  21968989.935   115447820.934       -1225.908          38.000  
  21957851.643   115389327.649       -1225.852          38.000  
  21965474.051   115429367.342       -1225.885          40.000  
  22045476.540   115849791.404       -1225.895          37.000  
  22028480.488   115760461.555       -1225.853          38.000  
  21883711.090   114999675.927       -1225.923          40.000  
  21874921.617   114953491.996       -1225.965          37.000  
  21933824.902   115263000.283       -1225.869          40.000  
  22002141.404   115622030.014       -1225.879          34.000  
  22095885.507   116114668.728       -1225.836          37.000  
 25  8 13 10 20 40.2020000  0 30G 1G 2G 3G 4G 5G 7G 6G 8G31G20G25G29
                                G15G30G26G32G16G14G28G13G19G12G21G10
                                G23G17G 9G24G11G22
  22013968.202   115684308.804       -1225.559          44.000  
  22013883.442   115683703.572       -1225.645          49.000  
  22013855.428   115683672.184       -1225.591          49.000  
  22013859.669   115683665.443       -1225.656          49.000  
  22013771.987   115683155.360       -1225.684          49.000  
  22013824.513   115683324.697       -1225.652          41.000  
  22013799.066   115683693.696       -1225.673          44.000  
  22013874.665   115683691.620       -1225.684          46.000  
  22153366.622   116416778.311       -1225.624          38.000  
  22061643.750   115934751.994       -1225.676          37.000  
  21884935.233   115006086.154       -1225.656          37.000  
  22023544.853   115734539.520       -1225.763          38.000  
  22079517.516   116028678.512       -1225.679          39.000  
  22057245.823   115911619.144       -1225.696          39.000  
  22028821.104   115762222.123       -1225.751          38.000  
  21930938.639   115247886.589       -1225.603          39.000  
  22144575.681   116370573.247       -1225.648          38.000  
  21923911.932   115210934.724       -1225.710          39.000  
  22117613.992   116228858.104       -1225.690          40.000  
  22138714.678   116339740.159       -1225.679          38.000  
  21969036.574   115448066.075       -1225.730          37.000  
  21957898.285   115389572.804       -1225.817          38.000  
  21965520.679   115429612.483       -1225.708          40.000  
  22045523.150   115850036.540       -1225.680          37.000  
  22028527.153   115760706.691       -1225.670          38.000  
  21883757.781   114999921.063       -1225.709          40.000  
  21874968.233   114953737.111       -1225.646          37.000  
  21933871.546   115263245.418       -1225.670          40.000  
  22002188.077   115622275.157       -1225.724          34.000  
  22095932.081   116114913.869       -1225.546          37.000  
 25  8 13 10 20 40.4020000  0 30G 1G 2G 3G 4G 5G 7G 6G 8G31G20G25G29
                                G15G30G26G32G16G14G28G13G19G12G21G10
                                G23G17G 9G24G11G22
  22014014.870   115684553.963       -1225.924          44.000  
  22013930.113   115683948.726       -1225.870          49.000  
  22013902.073   115683917.342       -1225.911          49.000  
  22013906.340   115683910.597       -1225.858          49.000  
  22013818.355   115683400.514       -1225.919          49.000  
  22013871.132   115683569.854       -1225.938          41.000  
  22013845.768   115683938.854       -1225.975          44.000  
  22013921.348   115683936.775       -1225.925          46.000  
  22153413.292   116417023.468       -1226.012          38.000  
  22061690.412   115934997.147       -1225.917          37.000  
  21884981.880   115006331.309       -1225.915          37.000  
  22023591.519   115734784.674       -1225.964          38.000  
  22079564.170   116028923.663       -1225.892          39.000  
  22057292.481   115911864.297       -1225.911          39.000  
  22028867.710   115762467.270       -1225.828          38.000  
  21930985.323   115248131.745       -1225.903          39.000  
  22144622.302   116370818.405       -1225.930          38.000  
  21923958.618   115211179.876       -1225.940          39.000  
  22117660.627   116229103.257       -1225.942          40.000  
  22138761.309   116339985.314       -1225.950          38.000  
  21969083.219   115448311.227       -1225.935          37.000  
  21957944.927   115389817.943       -1225.781          38.000  
  21965567.306   115429857.633       -1225.906          40.000  
  22045569.802   115850281.697       -1225.975          37.000  
  22028573.799   115760951.848       -1225.958          38.000  
  21883804.412   115000166.218       -1225.967          40.000  
  21875014.878   114953982.278       -1226.135          37.000  
  21933918.166   115263490.572       -1225.979          40.000  
  22002234.726   115622520.315       -1225.945          34.000  
  22095978.783   116115159.022       -1225.791          37.000  
 25  8 13 10 20 40.6020000  0 30G 1G 2G 3G 4G 5G 7G 6G 8G31G20G25G29
                                G15G30G26G32G16G14G28G13G19G12G21G10
                                G23G17G 9G24G11G22
  22014061.489   115684799.085       -1225.425          44.000  
  22013976.775   115684193.847       -1225.450          49.000  
  22013948.752   115684162.460       -1225.452          49.000  
  22013952.955   115684155.716       -1225.487          49.000  
  22013864.619   115683645.634       -1225.493          49.000  
  22013917.760   115683814.973       -1225.496          41.000  
  22013892.420   115684183.968       -1225.461          44.000  
  22013967.899   115684181.892       -1225.447          46.000  
  22153459.910   116417268.589       -1225.398          38.000  
  22061737.053   115935242.263       -1225.371          37.000  
  21885028.534   115006576.430       -1225.518          37.000  
  22023638.169   115735029.792       -1225.492          37.000  
  22079610.762   116029168.778       -1225.492          39.000  
  22057339.123   115912109.413       -1225.414          38.000  
  22028914.410   115762712.382       -1225.507          38.000  
  21931031.962   115248376.864       -1225.487          39.000  
  22144668.959   116371063.526       -1225.452          38.000  
  21924005.286   115211424.998       -1225.405          39.000  
  22117707.302   116229348.371       -1225.408          40.000  
  22138807.949   116340230.432       -1225.426          38.000  
  21969129.856   115448556.349       -1225.533          37.000  
  21957991.606   115390063.064       -1225.591          38.000  
  21965613.911   115430102.750       -1225.446          40.000  
  22045616.410   115850526.817       -1225.441          37.000  
  22028620.464   115761196.965       -1225.507          38.000  
  21883851.055   115000411.339       -1225.520          40.000  
  21875061.506   114954227.400       -1225.379          37.000  
  21933964.771   115263735.693       -1225.432          40.000  
  22002281.416   115622765.431       -1225.536          34.000  
  22096025.345   116115404.145       -1225.544          37.000  
 25  8 13 10 20 40.8020000  0 30G 1G 2G 3G 4G 5G 7G 6G 8G31G20G25G29
                                G15G30G26G32G16G14G28G13G19G12G21G10
                                G23G17G 9G24G11G22
  22014108.136   115685044.227       -1225.736          44.000  
  22014023.437   115684438.985       -1225.697          49.000  
  22013995.413   115684407.599       -1225.690          49.000  
  22013999.611   115684400.860       -1225.775          49.000  
  22013910.879   115683890.775       -1225.663          49.000  
  22013964.387   115684060.108       -1225.575          41.000  
  22013939.111   115684429.110       -1225.613          44.000  
  22014014.575   115684427.034       -1225.710          46.000  
  22153506.590   116417513.725       -1225.590          38.000  
  22061783.745   115935487.406       -1225.588          37.000  
  21885075.175   115006821.566       -1225.739          37.000  
  22023684.810   115735274.934       -1225.743          37.000  
  22079657.406   116029413.929       -1225.909          39.000  
  22057385.769   115912354.555       -1225.609          38.000  
  22028961.035   115762957.542       -1226.062          38.000  
  21931078.624   115248622.004       -1225.691          39.000  
  22144715.571   116371308.660       -1225.574          38.000  
  21924051.996   115211670.142       -1225.760          39.000  
  22117753.933   116229593.515       -1225.649          40.000  
  22138854.600   116340475.578       -1225.817          38.000  
  21969176.555   115448801.489       -1225.704          37.000  
  21958038.262   115390308.219       -1226.064          38.000  
  21965660.553   115430347.896       -1225.743          40.000  
  22045663.060   115850771.946       -1225.508          37.000  
  22028667.050   115761442.106       -1225.691          38.000  
  21883897.688   115000656.479       -1225.684          40.000  
  21875108.178   114954472.524       -1225.274          37.000  
  21934011.385   115263980.831       -1225.590          40.000  
  22002328.074   115623010.574       -1225.831          34.000  
  22096071.982   116115649.293       -1225.862          37.000  
 25  8 13 10 20 41.0020000  0 30G 1G 2G 3G 4G 5G 7G 6G 8G31G20G25G29
                                G15G30G26G32G16G14G28G13G19G12G21G10
                                G23G17G 9G24G11G22
  22014154.786   115685289.369       -1225.718          44.000  
  22014070.109   115684684.137       -1225.748          49.000  
  22014042.067   115684652.749       -1225.723          49.000  
  22014046.263   115684646.007       -1225.690          49.000  
  22013957.460   115684135.924       -1225.748          49.000  
  22014011.080   115684305.258       -1225.706          41.000  
  22013985.771   115684674.259       -1225.808          44.000  
  22014061.196   115684672.186       -1225.677          46.000  
  22153553.227   116417758.878       -1225.728          38.000  
  22061830.368   115935732.553       -1225.735          37.000  
  21885121.796   115007066.711       -1225.668          37.000  
  22023731.475   115735520.086       -1225.759          37.000  
  22079704.027   116029659.075       -1225.607          40.000  
  22057432.418   115912599.704       -1225.726          39.000  
  22029007.718   115763202.685       -1225.416          38.000  
  21931125.267   115248867.153       -1225.776          39.000  
  22144762.251   116371553.811       -1225.767          38.000  
  21924098.605   115211915.289       -1225.597          39.000  
  22117800.590   116229838.665       -1225.773          40.000  
  22138901.215   116340720.722       -1225.597          38.000  
  21969223.196   115449046.642       -1225.779          37.000  
  21958084.939   115390553.370       -1225.396          38.000  
  21965707.204   115430593.045       -1225.662          40.000  
  22045709.769   115851017.099       -1225.779          37.000  
  22028713.693   115761687.252       -1225.643          38.000  
  21883944.364   115000901.628       -1225.756          40.000  
  21875154.799   114954717.670       -1225.794          37.000  
  21934058.031   115264225.980       -1225.747          40.000  
  22002374.682   115623255.725       -1225.687          34.000  
  22096118.688   116115894.436       -1225.643          37.000  
 25  8 13 10 20 41.2020000  0 30G 1G 2G 3G 4G 5G 7G 6G 8G31G20G25G29
                                G15G30G26G32G16G14G28G13G19G12G21G10
                                G23G17G 9G24G11G22
  22014201.456   115685534.529       -1225.768          44.000  
  22014116.802   115684929.294       -1225.797          49.000  
  22014088.701   115684897.905       -1225.837          49.000  
  22014092.917   115684891.164       -1225.812          49.000  
  22014003.947   115684381.081       -1225.796          49.000  
  22014057.706   115684550.420       -1225.741          41.000  
  22014032.429   115684919.417       -1225.835          44.000  
  22014107.885   115684917.343       -1225.823          46.000  
  22153599.876   116418004.036       -1225.844          38.000  
  22061877.062   115935977.708       -1225.795          37.000  
  21885168.402   115007311.872       -1225.869          37.000  
  22023778.133   115735765.241       -1225.796          38.000  
  22079750.682   116029904.233       -1225.776          40.000  
  22057479.061   115912844.864       -1225.875          39.000  
  22029054.318   115763447.857       -1225.868          38.000  
  21931171.891   115249112.310       -1225.806          40.000  
  22144808.841   116371798.964       -1225.804          38.000  
  21924145.264   115212160.451       -1225.879          39.000  
  22117847.212   116230083.819       -1225.897          40.000  
  22138947.877   116340965.886       -1225.833          38.000  
  21969269.808   115449291.798       -1225.847          38.000  
  21958131.586   115390798.540       -1225.879          38.000  
  21965753.861   115430838.207       -1225.859          39.000  
  22045756.426   115851262.253       -1225.757          37.000  
  22028760.301   115761932.407       -1225.668          38.000  
  21883991.007   115001146.783       -1225.802          39.000  
  21875201.462   114954962.827       -1225.783          37.000  
  21934104.662   115264471.137       -1225.844          40.000  
  22002421.339   115623500.885       -1225.767          34.000  
  22096165.431   116116139.596       -1225.754          37.000  
 25  8 13 10 20 41.4020000  0 30G 1G 2G 3G 4G 5G 7G 6G 8G31G20G25G29
                                G15G30G26G32G16G14G28G13G19G12G21G10
                                G23G17G 9G24G11G22
  22014248.115   115685779.675       -1225.781          44.000  
  22014163.479   115685174.443       -1225.736          49.000  
  22014135.343   115685143.056       -1225.746          49.000  
  22014139.561   115685136.317       -1225.780          49.000  
  22014050.570   115684626.230       -1225.734          49.000  
  22014104.418   115684795.577       -1225.784          41.000  
  22014079.071   115685164.565       -1225.719          44.000  
  22014154.522   115685162.490       -1225.747          46.000  
  22153646.482   116418249.182       -1225.681          38.000  
  22061923.724   115936222.859       -1225.746          37.000  
  21885214.996   115007557.017       -1225.660          37.000  
  22023824.763   115736010.393       -1225.760          37.000  
  22079797.363   116030149.384       -1225.748          40.000  
  22057525.704   115913090.011       -1225.812          39.000  
  22029100.981   115763693.002       -1225.774          38.000  
  21931218.536   115249357.458       -1225.740          40.000  
  22144855.502   116372044.114       -1225.754          38.000  
  21924191.927   115212405.597       -1225.768          39.000  
  22117893.886   116230328.964       -1225.737          40.000  
  22138994.552   116341211.032       -1225.808          38.000  
  21969316.448   115449536.945       -1225.752          38.000  
  21958178.247   115391043.687       -1225.787          38.000  
  21965800.508   115431083.349       -1225.724          39.000  
  22045803.184   115851507.402       -1225.770          37.000  
  22028807.010   115762177.561       -1225.732          38.000  
  21884037.651   115001391.933       -1225.754          39.000  
  21875248.082   114955207.977       -1225.713          37.000  
  21934151.329   115264716.287       -1225.814          40.000  
  22002468.016   115623746.036       -1225.814          34.000  
  22096212.132   116116384.746       -1225.786          37.000  
 25  8 13 10 20 41.6020000  0 30G 1G 2G 3G 4G 5G 7G 6G 8G31G20G25G29
                                G15G30G26G32G16G14G28G13G19G12G21G10
                                G23G17G 9G24G11G22
  22014294.824   115686024.852       -1225.939          44.000  
  22014210.168   115685419.616       -1225.944          49.000  
  22014182.001   115685388.232       -1225.955          49.000  
  22014186.236   115685381.489       -1225.902          49.000  
  22014097.278   115684871.406       -1225.972          49.000  
  22014151.048   115685040.749       -1225.986          41.000  
  22014125.754   115685409.741       -1225.980          44.000  
  22014201.215   115685407.666       -1225.959          46.000  
  22153693.128   116418494.360       -1225.992          38.000  
  22061970.407   115936468.034       -1225.979          38.000  
  21885261.680   115007802.194       -1225.913          37.000  
  22023871.436   115736255.567       -1225.986          38.000  
  22079843.976   116030394.562       -1225.979          40.000  
  22057572.365   115913335.186       -1225.959          39.000  
  22029147.607   115763938.176       -1225.947          37.000  
  21931265.194   115249602.634       -1225.934          40.000  
  22144902.099   116372289.292       -1225.985          38.000  
  21924238.600   115212650.770       -1225.948          39.000  
  22117940.539   116230574.143       -1225.918          40.000  
  22139041.160   116341456.205       -1225.970          38.000  
  21969363.073   115449782.117       -1225.920          38.000  
  21958224.902   115391288.861       -1225.963          38.000  
  21965847.188   115431328.525       -1225.886          39.000  
  22045849.851   115851752.579       -1225.953          37.000  
  22028853.620   115762422.737       -1225.953          38.000  
  21884084.298   115001637.109       -1225.967          39.000  
  21875294.758   114955453.155       -1226.028          37.000  
  21934197.982   115264961.458       -1225.940          40.000  
  22002514.664   115623991.207       -1225.907          34.000  
  22096258.842   116116629.914       -1225.876          37.000  
 25  8 13 10 20 41.8020000  0 30G 1G 2G 3G 4G 5G 7G 6G 8G31G20G25G29
                                G15G30G26G32G16G14G28G13G19G12G21G10
                                G23G17G 9G24G11G22
  22014341.478   115686270.013       -1225.660          44.000  
  22014256.839   115685664.782       -1225.875          49.000  
  22014228.657   115685633.397       -1225.889          49.000  
  22014232.921   115685626.658       -1226.008          49.000  
  22014143.796   115685116.564       -1225.769          49.000  
  22014197.728   115685285.907       -1225.769          41.000  
  22014172.398   115685654.900       -1225.757          44.000  
  22014247.837   115685652.827       -1225.850          46.000  
  22153739.773   116418739.517       -1225.703          38.000  
  22062017.041   115936713.196       -1225.625          37.000  
  21885308.364   115008047.360       -1225.854          37.000  
  22023918.077   115736500.729       -1225.950          38.000  
  22079890.665   116030639.722       -1226.073          40.000  
  22057619.019   115913580.346       -1225.634          39.000  
  22029194.290   115764183.342       -1226.445          38.000  
  21931311.840   115249847.795       -1225.795          40.000  
  22144948.830   116372534.450       -1225.587          38.000  
  21924285.267   115212895.930       -1225.780          39.000  
  22117987.257   116230819.302       -1225.757          40.000  
  22139087.807   116341701.364       -1225.845          38.000  
  21969409.778   115450027.277       -1225.789          38.000  
  21958271.527   115391534.029       -1226.594          38.000  
  21965893.801   115431573.691       -1226.022          39.000  
  22045896.513   115851997.735       -1225.543          37.000  
  22028900.312   115762667.896       -1225.809          38.000  
  21884130.981   115001882.271       -1225.884          39.000  
  21875341.399   114955698.301       -1225.079          37.000  
  21934244.621   115265206.619       -1225.649          40.000  
  22002561.322   115624236.372       -1226.116          34.000  
  22096305.468   116116875.077       -1225.905          37.000  
 25  8 13 10 20 42.0020000  0 30G 1G 2G 3G 4G 5G 7G 6G 8G31G20G25G29
                                G15G30G26G32G16G14G28G13G19G12G21G10
                                G23G17G 9G24G11G22
  22014388.174   115686515.202       -1226.067          44.000  
  22014303.518   115685909.955       -1225.906          49.000  
  22014275.341   115685878.569       -1225.906          49.000  
  22014279.546   115685871.824       -1225.875          49.000  
  22014190.501   115685361.745       -1225.970          49.000  
  22014244.363   115685531.089       -1225.923          41.000  
  22014219.070   115685900.082       -1226.012          44.000  
  22014294.398   115685898.001       -1225.887          46.000  
  22153786.445   116418984.704       -1226.021          38.000  
  22062063.706   115936958.388       -1226.155          37.000  
  21885355.036   115008292.540       -1226.062          37.000  
  22023964.713   115736745.899       -1225.870          38.000  
  22079937.274   116030884.885       -1225.756          40.000  
  22057665.692   115913825.539       -1226.191          39.000  
  22029240.902   115764428.483       -1225.510          38.000  
  21931358.499   115250092.975       -1225.958          40.000  
  22144995.426   116372779.639       -1226.146          38.000  
  21924331.953   115213141.105       -1225.869          39.000  
  22118033.901   116231064.485       -1226.008          40.000  
  22139134.404   116341946.541       -1225.867          38.000  
  21969456.435   115450272.457       -1225.964          38.000  
  21958318.202   115391779.157       -1225.332          38.000  
  21965940.491   115431818.857       -1225.857          39.000  
  22045943.189   115852242.928       -1226.034          37.000  
  22028946.960   115762913.073       -1225.938          38.000  
  21884177.623   115002127.447       -1225.932          39.000  
  21875388.076   114955943.516       -1226.250          37.000  
  21934291.286   115265451.803       -1225.974          40.000  
  22002607.966   115624481.537       -1225.806          34.000  
  22096352.116   116117120.251       -1225.845          37.000  
 25  8 13 10 20 42.2020000  0 30G 1G 2G 3G 4G 5G 7G 6G 8G31G20G25G29
                                G15G30G26G32G16G14G28G13G19G12G21G10
                                G23G17G 9G24G11G22
  22014434.801   115686760.350       -1225.663          44.000  
  22014350.184   115686155.115       -1225.641          49.000  
  22014322.018   115686123.729       -1225.676          49.000  
  22014326.160   115686116.986       -1225.627          49.000  
  22014237.225   115685606.905       -1225.686          49.000  
  22014291.078   115685776.247       -1225.641          41.000  
  22014265.717   115686145.237       -1225.640          44.000  
  22014340.993   115686143.161       -1225.640          46.000  
  22153833.073   116419229.856       -1225.702          38.000  
  22062110.335   115937203.536       -1225.721          37.000  
  21885401.653   115008537.695       -1225.681          37.000  
  22024011.373   115736991.059       -1225.588          38.000  
  22079983.908   116031130.057       -1225.562          40.000  
  22057712.365   115914070.687       -1225.702          39.000  
  22029287.613   115764673.671       -1225.559          38.000  
  21931405.144   115250338.138       -1225.739          40.000  
  22145042.121   116373024.791       -1225.736          38.000  
  21924378.603   115213386.268       -1225.631          39.000  
  22118080.547   116231309.642       -1225.647          40.000  
  22139181.072   116342191.702       -1225.586          38.000  
  21969503.074   115450517.618       -1225.701          37.000  
  21958364.831   115392024.353       -1225.479          38.000  
  21965987.126   115432064.027       -1225.676          39.000  
  22045989.845   115852488.084       -1225.752          37.000  
  22028993.620   115763158.233       -1225.659          38.000  
  21884224.284   115002372.608       -1225.691          39.000  
  21875434.653   114956188.653       -1225.737          37.000  
  21934337.957   115265696.963       -1225.731          40.000  
  22002654.684   115624726.700       -1225.511          34.000  
  22096398.768   116117365.418       -1225.664          37.000  
 25  8 13 10 20 42.4020000  0 30G 1G 2G 3G 4G 5G 7G 6G 8G31G20G25G29
                                G15G30G26G32G16G14G28G13G19G12G21G10
                                G23G17G 9G24G11G22
  22014481.463   115687005.505       -1225.746          44.000  
  22014396.865   115686400.273       -1225.780          49.000  
  22014368.652   115686368.887       -1225.806          49.000  
  22014372.811   115686362.145       -1225.776          49.000  
  22014283.879   115685852.062       -1225.817          49.000  
  22014337.749   115686021.407       -1225.767          41.000  
  22014312.374   115686390.396       -1225.830          44.000  
  22014387.666   115686388.318       -1225.782          46.000  
  22153879.728   116419475.013       -1225.771          38.000  
  22062156.924   115937448.689       -1225.787          37.000  
  21885448.292   115008782.854       -1225.846          37.000  
  22024058.032   115737236.223       -1225.784          38.000  
  22080030.551   116031375.218       -1225.763          40.000  
  22057759.051   115914315.846       -1225.885          39.000  
  22029334.260   115764918.838       -1225.824          38.000  
  21931451.770   115250583.289       -1225.784          40.000  
  22145088.762   116373269.937       -1225.695          38.000  
  21924425.203   115213631.429       -1225.835          39.000  
  22118127.185   116231554.801       -1225.842          40.000  
  22139227.685   116342436.864       -1225.764          38.000  
  21969549.683   115450762.777       -1225.824          38.000  
  21958411.495   115392269.526       -1225.862          38.000  
  21966033.806   115432309.181       -1225.793          39.000  
  22046036.483   115852733.233       -1225.801          37.000  
  22029040.240   115763403.393       -1225.773          38.000  
  21884270.944   115002617.762       -1225.798          39.000  
  21875481.314   114956433.803       -1225.737          37.000  
  21934384.646   115265942.112       -1225.740          40.000  
  22002701.349   115624971.864       -1225.692          34.000  
  22096445.457   116117610.577       -1225.919          37.000  
 25  8 13 10 20 42.6020000  0 30G 1G 2G 3G 4G 5G 7G 6G 8G31G20G25G29
                                G15G30G26G32G16G14G28G13G19G12G21G10
                                G23G17G 9G24G11G22
  22014528.122   115687250.658       -1225.829          44.000  
  22014443.531   115686645.423       -1225.872          49.000  
  22014415.305   115686614.038       -1225.911          49.000  
  22014419.482   115686607.292       -1225.790          49.000  
  22014330.586   115686097.206       -1225.780          49.000  
  22014384.402   115686266.557       -1225.808          41.000  
  22014359.038   115686635.542       -1225.797          44.000  
  22014434.343   115686633.463       -1225.737          46.000  
  22153926.371   116419720.155       -1225.719          38.000  
  22062203.596   115937693.841       -1225.924          37.000  
  21885494.919   115009027.996       -1225.759          37.000  
  22024104.664   115737481.361       -1225.659          38.000  
  22080077.220   116031620.356       -1225.680          40.000  
  22057805.719   115914560.991       -1225.862          39.000  
  22029380.954   115765163.961       -1225.486          37.000  
  21931498.408   115250828.437       -1225.797          40.000  
  22145135.458   116373515.093       -1225.814          38.000  
  21924471.878   115213876.566       -1225.708          39.000  
  22118173.878   116231799.945       -1225.867          40.000  
  22139274.365   116342682.002       -1225.699          38.000  
  21969596.358   115451007.917       -1225.773          38.000  
  21958458.165   115392514.641       -1225.403          38.000  
  21966080.428   115432554.321       -1225.671          39.000  
  22046083.158   115852978.384       -1225.874          37.000  
  22029086.926   115763648.534       -1225.739          38.000  
  21884317.597   115002862.910       -1225.806          39.000  
  21875527.978   114956678.967       -1225.998          37.000  
  21934431.286   115266187.265       -1225.841          40.000  
  22002748.022   115625216.999       -1225.557          34.000  
  22096492.135   116117855.713       -1225.735          37.000  
 25  8 13 10 20 42.8020000  0 30G 1G 2G 3G 4G 5G 7G 6G 8G31G20G25G29
                                G15G30G26G32G16G14G28G13G19G12G21G10
                                G23G17G 9G24G11G22
  22014574.796   115687495.817       -1225.807          44.000  
  22014490.207   115686890.578       -1225.769          49.000  
  22014461.979   115686859.192       -1225.782          49.000  
  22014466.138   115686852.453       -1225.847          49.000  
  22014377.189   115686342.368       -1225.773          49.000  
  22014431.054   115686511.720       -1225.833          41.000  
  22014405.656   115686880.702       -1225.741          44.000  
  22014481.011   115686878.627       -1225.806          46.000  
  22153973.017   116419965.320       -1225.791          38.000  
  22062250.198   115937938.994       -1225.706          37.000  
  21885541.571   115009273.157       -1225.774          37.000  
  22024151.297   115737726.528       -1225.786          38.000  
  22080123.871   116031865.524       -1225.935          40.000  
  22057852.379   115914806.150       -1225.692          39.000  
  22029427.620   115765409.142       -1226.071          38.000  
  21931545.075   115251073.597       -1225.756          40.000  
  22145182.056   116373760.248       -1225.698          38.000  
  21924518.515   115214121.735       -1225.863          39.000  
  22118220.522   116232045.104       -1225.719          40.000  
  22139320.953   116342927.169       -1225.880          38.000  
  21969642.996   115451253.080       -1225.767          37.000  
  21958504.797   115392759.827       -1226.079          38.000  
  21966127.094   115432799.489       -1225.825          39.000  
  22046129.791   115853223.539       -1225.688          37.000  
  22029133.575   115763893.698       -1225.774          38.000  
  21884364.256   115003108.069       -1225.780          39.000  
  21875574.622   114956924.114       -1225.600          37.000  
  21934477.940   115266432.420       -1225.687          40.000  
  22002794.679   115625462.171       -1225.824          34.000  
  22096538.807   116118100.876       -1225.767          37.000  
 25  8 13 10 20 43.0020000  0 30G 1G 2G 3G 4G 5G 7G 6G 8G31G20G25G29
                                G15G30G26G32G16G14G28G13G19G12G21G10
                                G23G17G 9G24G11G22
  22014621.422   115687740.980       -1225.951          44.000  
  22014536.882   115687135.745       -1225.884          49.000  
  22014508.626   115687104.357       -1225.876          49.000  
  22014512.816   115687097.616       -1225.857          49.000  
  22014423.947   115686587.534       -1225.984          49.000  
  22014477.741   115686756.885       -1226.018          41.000  
  22014452.318   115687125.871       -1226.011          44.000  
  22014527.746   115687123.793       -1225.996          46.000  
  22154019.675   116420210.485       -1225.963          38.000  
  22062296.893   115938184.157       -1225.887          38.000  
  21885588.239   115009518.324       -1225.991          37.000  
  22024197.936   115737971.698       -1226.050          38.000  
  22080170.562   116032110.687       -1225.917          40.000  
  22057899.042   115915051.318       -1225.996          39.000  
  22029474.310   115765654.306       -1226.027          38.000  
  21931591.714   115251318.766       -1225.989          40.000  
  22145228.779   116374005.415       -1226.006          38.000  
  21924565.168   115214366.899       -1225.984          39.000  
  22118267.218   116232290.271       -1226.017          40.000  
  22139367.672   116343172.334       -1225.978          38.000  
  21969689.665   115451498.249       -1226.066          38.000  
  21958551.436   115393004.994       -1225.999          38.000  
  21966173.753   115433044.655       -1226.039          39.000  
  22046176.484   115853468.710       -1225.989          37.000  
  22029180.213   115764138.866       -1225.990          38.000  
  21884410.935   115003353.238       -1226.013          39.000  
  21875621.235   114957169.281       -1225.928          37.000  
  21934524.613   115266677.591       -1226.023          40.000  
  22002841.322   115625707.335       -1225.908          34.000  
  22096585.533   116118346.047       -1225.983          37.000  
 25  8 13 10 20 43.2020000  0 30G 1G 2G 3G 4G 5G 7G 6G 8G31G20G25G29
                                G15G30G26G32G16G14G28G13G19G12G21G10
                                G23G17G 9G24G11G22
  22014668.102   115687986.135       -1225.931          44.000  
  22014583.556   115687380.898       -1225.890          49.000  
  22014555.267   115687349.513       -1225.929          49.000  
  22014559.468   115687342.765       -1225.825          49.000  
  22014470.553   115686832.684       -1225.905          49.000  
  22014524.397   115687002.034       -1225.939          41.000  
  22014498.958   115687371.022       -1225.951          44.000  
  22014574.451   115687368.939       -1225.919          46.000  
  22154066.341   116420455.640       -1225.970          38.000  
  22062343.540   115938429.319       -1225.962          37.000  
  21885634.885   115009763.475       -1225.872          37.000  
  22024244.574   115738216.841       -1225.852          38.000  
  22080217.230   116032355.829       -1225.817          40.000  
  22057945.693   115915296.472       -1225.973          39.000  
  22029520.932   115765899.429       -1225.750          38.000  
  21931638.373   115251563.914       -1225.952          40.000  
  22145275.353   116374250.573       -1225.983          38.000  
  21924611.781   115214612.046       -1225.913          39.000  
  22118313.882   116232535.422       -1225.925          40.000  
  22139414.314   116343417.480       -1225.889          38.000  
  21969736.322   115451743.395       -1225.898          38.000  
  21958598.028   115393250.113       -1225.751          38.000  
  21966220.408   115433289.797       -1225.842          39.000  
  22046223.123   115853713.866       -1225.983          37.000  
  22029226.823   115764384.012       -1225.894          38.000  
  21884457.581   115003598.384       -1225.891          39.000  
  21875667.927   114957414.454       -1226.102          37.000  
  21934571.287   115266922.743       -1225.985          40.000  
  22002887.956   115625952.476       -1225.789          34.000  
  22096632.212   116118591.191       -1225.868          37.000  
 25  8 13 10 20 43.4020000  0 30G 1G 2G 3G 4G 5G 7G 6G 8G31G20G25G29
                                G15G30G26G32G16G14G28G13G19G12G21G10
                                G23G17G 9G24G11G22
  22014714.738   115688231.299       -1225.786          44.000  
  22014630.237   115687626.065       -1225.851          49.000  
  22014601.929   115687594.680       -1225.873          49.000  
  22014606.117   115687587.940       -1225.925          49.000  
  22014517.139   115687077.852       -1225.831          49.000  
  22014571.075   115687247.200       -1225.813          41.000  
  22014545.641   115687616.187       -1225.806          44.000  
  22014621.055   115687614.108       -1225.818          46.000  
  22154112.950   116420700.801       -1225.760          38.000  
  22062390.220   115938674.478       -1225.774          37.000  
  21885681.531   115010008.647       -1225.889          37.000  
  22024291.249   115738462.010       -1225.804          38.000  
  22080263.884   116032601.009       -1225.874          40.000  
  22057992.325   115915541.636       -1225.825          39.000  
  22029567.606   115766144.618       -1225.839          38.000  
  21931684.982   115251809.083       -1225.815          40.000  
  22145322.067   116374495.736       -1225.840          38.000  
  21924658.445   115214857.213       -1225.819          39.000  
  22118360.523   116232780.590       -1225.837          40.000  
  22139460.996   116343662.652       -1225.784          38.000  
  21969782.948   115451988.564       -1225.845          37.000  
  21958644.703   115393495.302       -1225.844          38.000  
  21966267.051   115433534.972       -1225.801          39.000  
  22046269.765   115853959.023       -1225.782          37.000  
  22029273.498   115764629.183       -1225.797          38.000  
  21884504.212   115003843.554       -1225.818          39.000  
  21875714.542   114957659.600       -1225.772          37.000  
  21934617.931   115267167.906       -1225.835          40.000  
  22002934.612   115626197.652       -1225.803          34.000  
  22096678.852   116118836.365       -1225.770          37.000  
 25  8 13 10 20 43.6020000  0 30G 1G 2G 3G 4G 5G 7G 6G 8G31G20G25G29
                                G15G30G26G32G16G14G28G13G19G12G21G10
                                G23G17G 9G24G11G22
  22014761.442   115688476.470       -1225.806          44.000  
  22014676.901   115687871.236       -1225.850          49.000  
  22014648.592   115687839.851       -1225.875          49.000  
  22014652.777   115687833.109       -1225.848          49.000  
  22014563.678   115687323.023       -1225.835          49.000  
  22014617.735   115687492.371       -1225.848          41.000  
  22014592.291   115687861.360       -1225.848          44.000  
  22014667.689   115687859.281       -1225.861          46.000  
  22154159.606   116420945.978       -1225.834          38.000  
  22062436.841   115938919.650       -1225.828          37.000  
  21885728.186   115010253.817       -1225.970          37.000  
  22024337.925   115738707.187       -1225.901          38.000  
  22080310.492   116032846.185       -1225.953          40.000  
  22058038.969   115915786.804       -1225.791          39.000  
  22029614.312   115766389.802       -1226.047          38.000  
  21931731.637   115252054.257       -1225.913          40.000  
  22145368.634   116374740.903       -1225.780          38.000  
  21924705.098   115215102.390       -1225.863          39.000  
  22118407.145   116233025.757       -1225.811          40.000  
  22139507.651   116343907.832       -1225.970          38.000  
  21969829.578   115452233.737       -1225.846          37.000  
  21958691.362   115393740.490       -1226.042          38.000  
  21966313.706   115433780.145       -1225.870          39.000  
  22046316.394   115854204.199       -1225.873          37.000  
  22029320.147   115764874.357       -1225.913          38.000  
  21884550.857   115004088.722       -1225.809          39.000  
  21875761.163   114957904.771       -1225.742          37.000  
  21934664.606   115267413.075       -1225.786          40.000  
  22002981.252   115626442.831       -1225.989          34.000  
  22096725.543   116119081.539       -1225.927          37.000  
 25  8 13 10 20 43.8020000  0 30G 1G 2G 3G 4G 5G 7G 6G 8G31G20G25G29
                                G15G30G26G32G16G14G28G13G19G12G21G10
                                G23G17G 9G24G11G22
  22014808.098   115688721.649       -1225.804          44.000  
  22014723.578   115688116.413       -1225.859          49.000  
  22014695.262   115688085.027       -1225.834          49.000  
  22014699.410   115688078.288       -1225.909          49.000  
  22014610.193   115687568.205       -1225.917          49.000  
  22014664.448   115687737.555       -1225.901          41.000  
  22014638.942   115688106.541       -1225.889          44.000  
  22014714.375   115688104.463       -1225.934          46.000  
  22154206.282   116421191.156       -1225.856          38.000  
  22062483.554   115939164.828       -1225.770          38.000  
  21885774.814   115010498.994       -1225.874          37.000  
  22024384.577   115738952.370       -1226.073          38.000  
  22080357.166   116033091.366       -1226.146          40.000  
  22058085.629   115916031.987       -1225.876          39.000  
  22029660.944   115766634.981       -1226.318          38.000  
  21931778.262   115252299.431       -1225.853          40.000  
  22145415.303   116374986.090       -1225.807          38.000  
  21924751.796   115215347.569       -1226.017          39.000  
  22118453.800   116233270.938       -1225.784          40.000  
  22139554.333   116344153.008       -1226.036          38.000  
  21969876.262   115452478.922       -1226.055          37.000  
  21958738.064   115393985.671       -1226.470          38.000  
  21966360.359   115434025.326       -1226.014          39.000  
  22046363.029   115854449.374       -1225.692          37.000  
  22029366.786   115765119.535       -1225.895          38.000  
  21884597.471   115004333.909       -1225.943          39.000  
  21875807.824   114958149.950       -1225.734          37.000  
  21934711.257   115267658.255       -1225.798          40.000  
  22003027.896   115626688.017       -1226.237          34.000  
  22096772.150   116119326.720       -1226.024          37.000  
