     2.10           OBSERVATION DATA    M (MIXED)           RINEX VERSION / TYPE
RTKCONV 2.4.2                           20200424 140728 UTC PGM / RUN BY / DATE 
log: G:\54\GPS\0424\gps-7                                   COMMENT             
format: u-blox                                              COMMENT             
                                                            MARKER NAME         
                                                            MARKER NUMBER       
                                                            OBSERVER / AGENCY   
                                                            REC # / TYPE / VERS 
                                                            ANT # / TYPE        
        0.0000        0.0000        0.0000                  APPROX POSITION XYZ 
        0.0000        0.0000        0.0000                  ANTENNA: DELTA H/E/N
     1     1                                                WAVELENGTH FACT L1/2
     4    C1    L1    D1    S1                              # / TYPES OF OBSERV 
  2025     8    13     9    51    9.0000000     GPS         TIME OF FIRST OBS   
  2025     8    13     9    54   17.4000000     GPS         TIME OF LAST OBS    
                                                            END OF HEADER       
 25  8 13  9 51  9.0000000  0 30G 1G 2G 3G 4G 5G 7G 6G 8G14G 9G24G12
                                G10G11G32G26G27G19G23G16G18G29G30G17
                                G31G20G21G13G28G15
  21597198.580   113494020.465       -1268.407          45.000  
  21597138.116   113493575.205       -1268.347          49.000  
  21597202.255   113494021.819       -1268.280          49.000  
  21597086.945   113493506.119       -1268.332          49.000  
  21596987.511   113493020.999       -1268.356          49.000  
  21597026.097   113493063.242       -1268.376          45.000  
  21597100.525   113493559.273       -1268.325          49.000  
  21597107.384   113493674.151       -1268.331          49.000  
  21774692.221   114426783.059       -1267.938          39.000  
  21517394.763   113074732.874       -1268.400          38.000  
  21451748.607   112729735.050       -1268.405          38.000  
  21722822.019   114154197.297       -1268.223          37.000  
  21730444.964   114194259.990       -1268.208          36.000  
  21515348.416   113063945.360       -1268.260          36.000  
  21514169.925   113057754.232       -1268.348          40.000  
  21612050.998   113572063.748       -1268.259          38.000  
  21669194.803   113872417.718       -1268.384          38.000  
  21750079.005   114297474.016       -1268.260          37.000  
  21585969.935   113435051.331       -1268.080          38.000  
  21745976.899   114275888.335       -1268.385          36.000  
  21683850.495   113949445.789       -1268.449          39.000  
  21597398.997   113495088.734       -1268.091          33.000  
  21717257.304   114124925.819       -1268.271          38.000  
  21466990.220   112809824.718       -1268.318          41.000  
  21615860.737   113592160.824       -1268.190          36.000  
  21644872.818   113744645.635       -1268.383          38.000  
  21548752.182   113239510.115       -1268.289          40.000  
  21451754.027   112729760.073       -1268.574          38.000  
  21503327.354   113000801.206       -1268.409          40.000  
  21536443.878   113174814.610       -1268.329          38.000  
 25  8 13  9 51  9.2000000  0 30G 1G 2G 3G 4G 5G 7G 6G 8G14G 9G24G12
                                G10G11G32G26G27G19G23G16G18G29G30G17
                                G31G20G21G13G28G15
  21597246.923   113494274.131       -1268.494          45.000  
  21597186.389   113493828.876       -1268.380          49.000  
  21597251.204   113494275.495       -1268.477          49.000  
  21597135.222   113493759.791       -1268.426          49.000  
  21597036.273   113493274.669       -1268.479          49.000  
  21597074.400   113493316.911       -1268.513          45.000  
  21597148.737   113493812.945       -1268.458          49.000  
  21597155.668   113493927.823       -1268.473          49.000  
  21774740.495   114427036.762       -1268.486          39.000  
  21517442.997   113074986.537       -1268.424          38.000  
  21451796.883   112729988.718       -1268.499          38.000  
  21722870.297   114154450.973       -1268.378          37.000  
  21730493.256   114194513.672       -1268.544          36.000  
  21515396.659   113064199.039       -1268.423          35.000  
  21514218.176   113058007.901       -1268.448          41.000  
  21612099.225   113572317.428       -1268.529          38.000  
  21669243.071   113872671.388       -1268.507          38.000  
  21750127.302   114297727.692       -1268.444          37.000  
  21586018.235   113435305.022       -1268.471          38.000  
  21746025.185   114276142.000       -1268.346          36.000  
  21683898.742   113949699.453       -1268.451          39.000  
  21597447.259   113495342.424       -1268.457          33.000  
  21717305.560   114125179.495       -1268.524          38.000  
  21467038.479   112810078.391       -1268.419          41.000  
  21615908.986   113592414.506       -1268.424          36.000  
  21644921.086   113744899.305       -1268.540          38.000  
  21548800.463   113239763.788       -1268.472          40.000  
  21451802.329   112730013.726       -1268.542          38.000  
  21503375.684   113001054.875       -1268.513          40.000  
  21536492.141   113175068.283       -1268.519          38.000  
 25  8 13  9 51  9.4000000  0 30G 1G 2G 3G 4G 5G 7G 6G 8G14G 9G24G12
                                G10G11G32G26G27G19G23G16G18G29G30G17
                                G31G20G21G13G28G15
  21597295.227   113494527.782       -1268.198          45.000  
  21597234.666   113494082.530       -1268.234          49.000  
  21597299.885   113494529.152       -1268.392          49.000  
  21597183.491   113494013.445       -1268.263          49.000  
  21597084.888   113493528.316       -1268.199          49.000  
  21597122.670   113493570.553       -1268.082          45.000  
  21597196.986   113494066.595       -1268.225          49.000  
  21597203.940   113494181.476       -1268.302          49.000  
  21774788.798   114427290.423       -1268.683          39.000  
  21517491.267   113075240.200       -1268.308          38.000  
  21451845.157   112730242.358       -1268.015          38.000  
  21722918.604   114154704.655       -1268.730          37.000  
  21730541.567   114194767.340       -1268.612          36.000  
  21515444.928   113064452.708       -1268.618          35.000  
  21514266.450   113058261.553       -1268.209          41.000  
  21612147.461   113572571.084       -1268.377          38.000  
  21669291.281   113872925.028       -1268.029          38.000  
  21750175.553   114297981.360       -1268.461          37.000  
  21586066.527   113435558.663       -1268.287          38.000  
  21746073.443   114276395.664       -1268.365          36.000  
  21683947.008   113949953.114       -1268.333          39.000  
  21597495.506   113495596.072       -1268.478          32.000  
  21717353.872   114125433.133       -1268.120          38.000  
  21467086.752   112810332.021       -1267.937          41.000  
  21615957.224   113592668.174       -1268.506          36.000  
  21644969.374   113745152.949       -1268.162          38.000  
  21548848.737   113240017.424       -1267.997          40.000  
  21451850.591   112730267.358       -1267.848          38.000  
  21503423.937   113001308.535       -1268.361          40.000  
  21536540.411   113175321.915       -1268.025          38.000  
 25  8 13  9 51 10.2000000  0 30G 1G 2G 3G 4G 5G 7G 6G 8G14G 9G24G12
                                G10G11G32G26G27G19G23G16G18G29G30G17
                                G31G20G21G13G28G15
  21597488.387   113495542.343       -1268.280          44.000  
  21597427.749   113495097.083       -1268.251          49.000  
  21597493.703   113495543.700       -1268.312          49.000  
  21597376.595   113495027.996       -1268.257          49.000  
  21597279.266   113494542.870       -1268.272          49.000  
  21597315.811   113494585.110       -1268.284          45.000  
  21597390.061   113495081.147       -1268.280          49.000  
  21597396.950   113495196.029       -1268.318          49.000  
  21774981.866   114428304.965       -1268.414          39.000  
  21517684.336   113076254.756       -1268.284          37.000  
  21452038.243   112731256.919       -1268.226          39.000  
  21723111.568   114155719.186       -1268.349          37.000  
  21730734.563   114195781.888       -1268.302          35.000  
  21515638.135   113065467.250       -1268.309          36.000  
  21514459.543   113059276.105       -1268.239          40.000  
  21612340.559   113573585.626       -1268.264          38.000  
  21669484.295   113873939.583       -1268.246          38.000  
  21750368.567   114298995.905       -1268.245          37.000  
  21586259.547   113436573.214       -1268.412          37.000  
  21746266.488   114277410.209       -1268.263          35.000  
  21684140.095   113950967.665       -1268.311          39.000  
  21597688.669   113496610.586       -1268.202          31.000  
  21717546.995   114126447.689       -1268.284          39.000  
  21467279.764   112811346.571       -1268.241          41.000  
  21616150.184   113593682.719       -1268.302          36.000  
  21645162.420   113746167.505       -1268.298          38.000  
  21549041.796   113241031.978       -1268.208          40.000  
  21452043.665   112731281.919       -1268.199          37.000  
  21503616.959   113002323.078       -1268.264          41.000  
  21536733.489   113176336.467       -1268.241          39.000  
 25  8 13  9 51 10.4000000  0 30G 1G 2G 3G 4G 5G 7G 6G 8G14G 9G24G12
                                G10G11G32G26G27G19G23G16G18G29G30G17
                                G31G20G21G13G28G15
  21597536.678   113495795.979       -1268.437          44.000  
  21597476.020   113495350.727       -1268.347          49.000  
  21597541.616   113495797.339       -1268.308          49.000  
  21597424.868   113495281.634       -1268.367          49.000  
  21597327.971   113494796.516       -1268.305          49.000  
  21597364.069   113494838.752       -1268.340          45.000  
  21597438.267   113495334.786       -1268.373          49.000  
  21597445.237   113495449.667       -1268.327          49.000  
  21775030.107   114428558.597       -1268.323          39.000  
  21517732.616   113076508.398       -1268.407          37.000  
  21452086.488   112731510.572       -1268.230          39.000  
  21723159.821   114155972.827       -1268.407          37.000  
  21730782.779   114196035.478       -1268.699          36.000  
  21515686.411   113065720.879       -1268.457          36.000  
  21514507.835   113059529.748       -1268.309          40.000  
  21612388.834   113573839.265       -1268.250          38.000  
  21669532.538   113874193.222       -1268.509          38.000  
  21750416.844   114299249.533       -1268.346          37.000  
  21586307.814   113436826.841       -1268.326          37.000  
  21746314.775   114277663.859       -1268.282          35.000  
  21684188.334   113951221.285       -1268.431          39.000  
  21597736.967   113496864.238       -1268.184          32.000  
  21717595.280   114126701.327       -1268.349          38.000  
  21467328.056   112811600.228       -1268.234          41.000  
  21616198.441   113593936.360       -1268.288          36.000  
  21645210.705   113746421.160       -1268.155          38.000  
  21549090.069   113241285.610       -1268.353          39.000  
  21452091.927   112731535.584       -1268.298          37.000  
  21503665.187   113002576.716       -1268.439          40.000  
  21536781.789   113176590.143       -1268.054          39.000  
 25  8 13  9 51 10.6000000  0 30G 1G 2G 3G 4G 5G 7G 6G 8G14G 9G24G12
                                G10G11G32G26G27G19G23G16G18G29G30G17
                                G31G20G21G13G28G15
  21597584.957   113496049.618       -1268.006          45.000  
  21597524.290   113495604.365       -1268.099          49.000  
  21597589.635   113496050.977       -1268.058          49.000  
  21597473.127   113495535.269       -1268.047          49.000  
  21597376.573   113495050.155       -1268.070          49.000  
  21597412.344   113495092.390       -1268.053          45.000  
  21597486.560   113495588.423       -1268.039          49.000  
  21597493.487   113495703.307       -1268.024          49.000  
  21775078.377   114428812.240       -1268.097          39.000  
  21517780.850   113076762.034       -1268.121          38.000  
  21452134.782   112731764.210       -1268.024          39.000  
  21723208.061   114156226.460       -1268.082          37.000  
  21730830.950   114196289.109       -1267.870          36.000  
  21515734.683   113065974.514       -1267.932          36.000  
  21514556.072   113059783.387       -1268.043          41.000  
  21612437.156   113574092.908       -1268.116          38.000  
  21669580.798   113874446.854       -1267.981          38.000  
  21750465.056   114299503.171       -1268.044          37.000  
  21586356.041   113437080.477       -1268.099          38.000  
  21746363.061   114277917.495       -1268.053          36.000  
  21684236.578   113951474.927       -1267.952          39.000  
  21597785.286   113497117.873       -1268.111          32.000  
  21717643.503   114126954.965       -1268.093          38.000  
  21467376.275   112811853.864       -1268.097          41.000  
  21616246.677   113594189.997       -1268.112          36.000  
  21645258.956   113746674.801       -1268.076          38.000  
  21549138.323   113241539.249       -1267.975          39.000  
  21452140.190   112731789.228       -1268.048          38.000  
  21503713.474   113002830.355       -1267.990          40.000  
  21536830.082   113176843.784       -1268.134          39.000  
 25  8 13  9 51 10.8000000  0 30G 1G 2G 3G 4G 5G 7G 6G 8G14G 9G24G12
                                G10G11G32G26G27G19G23G16G18G29G30G17
                                G31G20G21G13G28G15
  21597633.220   113496303.243       -1268.017          45.000  
  21597572.559   113495857.995       -1268.184          49.000  
  21597637.579   113496304.609       -1268.195          49.000  
  21597521.388   113495788.900       -1268.156          49.000  
  21597425.072   113495303.784       -1268.155          49.000  
  21597460.632   113495346.017       -1268.115          45.000  
  21597534.799   113495842.053       -1268.115          49.000  
  21597541.780   113495956.936       -1268.141          49.000  
  21775126.637   114429065.868       -1268.136          39.000  
  21517829.129   113077015.663       -1268.156          38.000  
  21452183.046   112732017.837       -1268.110          39.000  
  21723256.329   114156480.093       -1268.242          37.000  
  21730879.175   114196542.747       -1268.187          36.000  
  21515782.955   113066228.149       -1268.181          36.000  
  21514604.329   113060037.018       -1268.148          41.000  
  21612485.486   113574346.538       -1268.208          38.000  
  21669629.058   113874700.486       -1268.075          38.000  
  21750513.385   114299756.810       -1268.359          37.000  
  21586404.316   113437334.113       -1268.241          38.000  
  21746411.314   114278171.129       -1268.161          36.000  
  21684284.803   113951728.560       -1268.134          39.000  
  21597833.612   113497371.513       -1268.406          32.000  
  21717691.782   114127208.599       -1268.219          38.000  
  21467424.563   112812107.492       -1268.164          41.000  
  21616294.951   113594443.624       -1268.178          36.000  
  21645307.222   113746928.429       -1268.123          39.000  
  21549186.581   113241792.883       -1268.186          39.000  
  21452188.473   112732042.850       -1268.035          38.000  
  21503761.680   113003083.982       -1268.110          40.000  
  21536878.371   113177097.412       -1268.143          39.000  
 25  8 13  9 51 11.0000000  0 30G 1G 2G 3G 4G 5G 7G 6G 8G14G 9G24G12
                                G10G11G32G26G27G19G23G16G18G29G30G17
                                G31G20G21G13G28G15
  21597681.499   113496556.870       -1268.285          45.000  
  21597620.834   113496111.620       -1268.174          49.000  
  21597685.115   113496558.236       -1268.228          49.000  
  21597569.650   113496042.527       -1268.187          49.000  
  21597473.773   113495557.410       -1268.242          49.000  
  21597508.906   113495599.644       -1268.247          45.000  
  21597583.033   113496095.680       -1268.228          49.000  
  21597590.029   113496210.562       -1268.234          49.000  
  21775174.880   114429319.504       -1268.170          39.000  
  21517877.363   113077269.284       -1268.298          38.000  
  21452231.329   112732271.461       -1268.284          39.000  
  21723304.594   114156733.721       -1268.132          37.000  
  21730927.445   114196796.379       -1268.203          37.000  
  21515831.234   113066481.781       -1268.297          36.000  
  21514652.612   113060290.644       -1268.210          41.000  
  21612533.753   113574600.168       -1268.260          38.000  
  21669677.353   113874954.109       -1268.233          38.000  
  21750561.628   114300010.427       -1268.145          37.000  
  21586452.565   113437587.747       -1268.171          38.000  
  21746459.619   114278424.756       -1268.193          37.000  
  21684333.046   113951982.186       -1268.241          39.000  
  21597881.869   113497625.136       -1268.068          32.000  
  21717740.047   114127462.225       -1268.242          38.000  
  21467472.797   112812361.119       -1268.230          41.000  
  21616343.239   113594697.255       -1268.146          36.000  
  21645355.453   113747182.056       -1268.183          39.000  
  21549234.867   113242046.507       -1268.259          39.000  
  21452236.734   112732296.474       -1268.344          38.000  
  21503809.955   113003337.609       -1268.241          40.000  
  21536926.626   113177351.040       -1268.236          39.000  
 25  8 13  9 51 11.2000000  0 30G 1G 2G 3G 4G 5G 7G 6G 8G14G 9G24G12
                                G10G11G32G26G27G19G23G16G18G29G30G17
                                G31G20G21G13G28G15
  21597729.797   113496810.462       -1268.111          44.000  
  21597669.094   113496365.205       -1267.948          49.000  
  21597732.746   113496811.813       -1267.859          49.000  
  21597617.910   113496296.114       -1267.972          49.000  
  21597522.166   113495810.987       -1267.858          49.000  
  21597557.170   113495853.243       -1268.186          45.000  
  21597631.283   113496349.265       -1267.974          49.000  
  21597638.309   113496464.148       -1267.994          49.000  
  21775223.134   114429573.078       -1267.866          39.000  
  21517925.651   113077522.873       -1268.008          38.000  
  21452279.545   112732525.014       -1267.493          38.000  
  21723352.838   114156987.327       -1268.270          37.000  
  21730975.708   114197049.980       -1268.237          37.000  
  21515879.494   113066735.396       -1268.451          36.000  
  21514700.880   113060544.231       -1267.949          41.000  
  21612582.002   113574853.748       -1267.903          38.000  
  21669725.643   113875207.723       -1268.371          38.000  
  21750609.890   114300264.010       -1267.938          37.000  
  21586500.835   113437841.342       -1268.076          38.000  
  21746507.917   114278678.346       -1268.065          37.000  
  21684381.309   113952235.781       -1268.102          39.000  
  21597930.107   113497878.724       -1267.946          32.000  
  21717788.311   114127715.796       -1267.768          38.000  
  21467520.982   112812614.704       -1267.949          41.000  
  21616391.514   113594950.849       -1268.134          35.000  
  21645403.673   113747435.627       -1267.784          39.000  
  21549283.116   113242300.120       -1268.381          39.000  
  21452284.991   112732550.060       -1268.021          38.000  
  21503858.218   113003591.201       -1268.120          40.000  
  21536974.872   113177604.574       -1267.236          39.000  
 25  8 13  9 51 11.4000000  0 30G 1G 2G 3G 4G 5G 7G 6G 8G14G 9G24G12
                                G10G11G32G26G27G19G23G16G18G29G30G17
                                G31G20G21G13G28G15
  21597778.065   113497064.063       -1268.060          44.000  
  21597717.363   113496618.808       -1268.045          49.000  
  21597780.897   113497065.419       -1268.037          49.000  
  21597666.169   113496549.716       -1268.047          49.000  
  21597569.793   113496064.593       -1268.037          49.000  
  21597605.458   113496106.840       -1268.009          45.000  
  21597679.555   113496602.869       -1268.026          49.000  
  21597686.516   113496717.751       -1268.027          49.000  
  21775271.395   114429826.685       -1268.035          39.000  
  21517973.866   113077776.475       -1267.987          38.000  
  21452327.806   112732778.633       -1268.119          38.000  
  21723401.073   114157240.922       -1268.015          37.000  
  21731024.023   114197303.578       -1267.969          37.000  
  21515927.777   113066988.984       -1267.959          36.000  
  21514749.140   113060797.836       -1268.047          40.000  
  21612630.236   113575107.354       -1268.024          38.000  
  21669773.889   113875461.312       -1268.006          38.000  
  21750658.147   114300517.621       -1268.077          37.000  
  21586549.151   113438094.943       -1268.008          38.000  
  21746556.197   114278931.944       -1268.046          37.000  
  21684429.567   113952489.383       -1268.040          39.000  
  21597978.359   113498132.331       -1268.102          33.000  
  21717836.563   114127969.406       -1268.082          38.000  
  21467569.241   112812868.313       -1268.047          41.000  
  21616439.783   113595204.452       -1267.962          35.000  
  21645451.925   113747689.237       -1268.053          38.000  
  21549331.357   113242553.716       -1268.051          39.000  
  21452333.247   112732803.665       -1267.988          38.000  
  21503906.440   113003844.803       -1268.020          41.000  
  21537023.164   113177858.199       -1268.064          38.000  
 25  8 13  9 51 11.6000000  0 30G 1G 2G 3G 4G 5G 7G 6G 8G14G 9G24G12
                                G10G11G32G26G27G19G23G16G18G29G30G17
                                G31G20G21G13G28G15
  21597826.342   113497317.648       -1267.936          44.000  
  21597765.613   113496872.391       -1267.870          49.000  
  21597829.007   113497319.002       -1267.902          49.000  
  21597714.429   113496803.299       -1267.863          49.000  
  21597617.427   113496318.175       -1267.863          49.000  
  21597653.726   113496360.425       -1267.857          45.000  
  21597727.830   113496856.453       -1267.876          49.000  
  21597734.682   113496971.336       -1267.897          49.000  
  21775319.681   114430080.268       -1267.870          39.000  
  21518022.190   113078030.062       -1267.882          38.000  
  21452376.028   112733032.212       -1267.882          38.000  
  21723449.325   114157494.505       -1267.810          37.000  
  21731072.299   114197557.168       -1267.933          37.000  
  21515976.046   113067242.571       -1267.822          36.000  
  21514797.394   113061051.416       -1267.917          40.000  
  21612678.460   113575360.934       -1267.898          38.000  
  21669822.176   113875714.898       -1267.776          38.000  
  21750706.364   114300771.200       -1267.858          37.000  
  21586597.415   113438348.526       -1267.923          38.000  
  21746604.465   114279185.525       -1267.833          36.000  
  21684477.817   113952742.966       -1267.824          39.000  
  21598026.542   113498385.912       -1267.963          33.000  
  21717884.782   114128222.988       -1267.889          38.000  
  21467617.497   112813121.896       -1267.910          41.000  
  21616487.996   113595458.036       -1267.859          35.000  
  21645500.166   113747942.819       -1267.934          38.000  
  21549379.616   113242807.300       -1267.841          39.000  
  21452381.464   112733057.250       -1267.866          38.000  
  21503954.739   113004098.388       -1267.883          41.000  
  21537071.408   113178111.780       -1267.930          38.000  
 25  8 13  9 51 11.8000000  0 30G 1G 2G 3G 4G 5G 7G 6G 8G14G 9G24G12
                                G10G11G32G26G27G19G23G16G18G29G30G17
                                G31G20G21G13G28G15
  21597874.634   113497571.237       -1267.871          44.000  
  21597813.871   113497125.980       -1267.978          49.000  
  21597877.307   113497572.594       -1268.071          49.000  
  21597762.696   113497056.889       -1267.952          49.000  
  21597664.878   113496571.767       -1267.943          49.000  
  21597702.008   113496614.014       -1267.924          45.000  
  21597776.127   113497110.043       -1267.983          49.000  
  21597782.987   113497224.925       -1267.952          49.000  
  21775367.928   114430333.861       -1268.274          39.000  
  21518070.444   113078283.654       -1267.854          38.000  
  21452424.278   112733285.802       -1267.783          38.000  
  21723497.606   114157748.103       -1268.306          37.000  
  21731120.577   114197810.757       -1268.215          37.000  
  21516024.334   113067496.162       -1267.897          36.000  
  21514845.651   113061305.006       -1268.013          40.000  
  21612726.721   113575614.521       -1268.012          38.000  
  21669870.438   113875968.491       -1267.904          38.000  
  21750754.646   114301024.794       -1267.977          37.000  
  21586645.652   113438602.116       -1268.264          38.000  
  21746652.724   114279439.117       -1267.965          36.000  
  21684526.090   113952996.561       -1267.956          39.000  
  21598074.841   113498639.506       -1268.314          33.000  
  21717933.101   114128476.578       -1268.037          39.000  
  21467665.776   112813375.488       -1268.038          41.000  
  21616536.290   113595711.632       -1268.314          35.000  
  21645548.429   113748196.404       -1267.881          38.000  
  21549427.853   113243060.894       -1267.900          39.000  
  21452429.751   112733310.837       -1267.665          37.000  
  21504002.963   113004351.978       -1267.909          41.000  
  21537119.662   113178365.369       -1268.030          38.000  
 25  8 13  9 51 12.0000000  0 30G 1G 2G 3G 4G 5G 7G 6G 8G14G 9G24G12
                                G10G11G32G26G27G19G23G16G18G29G30G17
                                G31G20G21G13G28G15
  21597922.891   113497824.801       -1267.778          43.000  
  21597862.124   113497379.540       -1267.708          49.000  
  21597925.494   113497826.149       -1267.684          49.000  
  21597810.940   113497310.450       -1267.728          49.000  
  21597712.387   113496825.329       -1267.758          49.000  
  21597750.232   113496867.578       -1267.784          46.000  
  21597824.379   113497363.603       -1267.719          49.000  
  21597831.198   113497478.486       -1267.727          49.000  
  21775416.229   114430587.399       -1267.509          39.000  
  21518118.679   113078537.228       -1267.836          38.000  
  21452472.501   112733539.377       -1267.965          37.000  
  21723545.876   114158001.642       -1267.504          37.000  
  21731168.841   114198064.303       -1267.540          37.000  
  21516072.574   113067749.723       -1267.754          36.000  
  21514893.924   113061558.563       -1267.689          40.000  
  21612774.986   113575868.080       -1267.691          38.000  
  21669918.674   113876222.055       -1267.763          38.000  
  21750802.869   114301278.358       -1267.704          37.000  
  21586693.894   113438855.666       -1267.662          38.000  
  21746700.962   114279692.677       -1267.711          36.000  
  21684574.334   113953250.124       -1267.705          39.000  
  21598123.117   113498893.041       -1267.423          33.000  
  21717981.293   114128730.134       -1267.663          39.000  
  21467714.005   112813629.044       -1267.673          41.000  
  21616584.516   113595965.176       -1267.523          35.000  
  21645596.642   113748449.972       -1267.776          38.000  
  21549476.110   113243314.460       -1267.808          39.000  
  21452478.003   112733564.414       -1267.863          37.000  
  21504051.225   113004605.539       -1267.745          41.000  
  21537167.870   113178618.926       -1267.736          38.000  
 25  8 13  9 51 12.2000000  0 30G 1G 2G 3G 4G 5G 7G 6G 8G14G 9G24G12
                                G10G11G32G26G27G19G23G16G18G29G30G17
                                G31G20G21G13G28G15
  21597971.197   113498078.346       -1267.864          44.000  
  21597910.383   113497633.088       -1267.730          49.000  
  21597974.510   113498079.703       -1267.761          49.000  
  21597859.188   113497564.000       -1267.708          49.000  
  21597760.520   113497078.882       -1267.821          49.000  
  21597798.496   113497121.122       -1267.817          45.000  
  21597872.682   113497617.160       -1267.800          49.000  
  21597879.484   113497732.035       -1267.830          49.000  
  21775464.464   114430840.955       -1267.643          39.000  
  21518166.925   113078790.758       -1267.916          38.000  
  21452520.734   112733792.934       -1267.817          38.000  
  21723594.132   114158255.188       -1267.892          37.000  
  21731217.091   114198317.873       -1267.580          36.000  
  21516120.774   113068003.248       -1267.924          36.000  
  21514942.215   113061812.117       -1267.834          40.000  
  21612823.227   113576121.632       -1267.822          38.000  
  21669966.931   113876475.605       -1267.808          38.000  
  21750851.202   114301531.905       -1267.839          37.000  
  21586742.182   113439109.225       -1267.706          38.000  
  21746749.211   114279946.217       -1267.872          36.000  
  21684622.565   113953503.675       -1267.909          39.000  
  21598171.361   113499146.620       -1267.462          33.000  
  21718029.552   114128983.703       -1267.649          39.000  
  21467762.285   112813882.599       -1267.760          41.000  
  21616632.796   113596218.722       -1267.874          35.000  
  21645644.867   113748703.518       -1267.844          38.000  
  21549524.384   113243568.001       -1267.900          39.000  
  21452526.206   112733817.944       -1267.919          37.000  
  21504099.428   113004859.087       -1267.830          40.000  
  21537216.155   113178872.488       -1267.620          38.000  
 25  8 13  9 51 12.4000000  0 30G 1G 2G 3G 4G 5G 7G 6G 8G14G 9G24G12
                                G10G11G32G26G27G19G23G16G18G29G30G17
                                G31G20G21G13G28G15
  21598019.477   113498331.887       -1267.695          44.000  
  21597958.637   113497886.635       -1267.693          49.000  
  21598023.635   113498333.249       -1267.691          49.000  
  21597907.438   113497817.547       -1267.680          49.000  
  21597808.846   113497332.424       -1267.701          49.000  
  21597846.784   113497374.667       -1267.708          45.000  
  21597920.895   113497870.703       -1267.712          49.000  
  21597927.710   113497985.579       -1267.706          49.000  
  21775512.700   114431094.514       -1267.697          39.000  
  21518215.169   113079044.296       -1267.665          38.000  
  21452568.972   112734046.473       -1267.736          38.000  
  21723642.375   114158508.736       -1267.671          37.000  
  21731265.318   114198571.432       -1267.824          36.000  
  21516169.002   113068256.798       -1267.656          36.000  
  21514990.437   113062065.661       -1267.745          40.000  
  21612871.487   113576375.175       -1267.710          38.000  
  21670015.167   113876729.145       -1267.668          38.000  
  21750899.431   114301785.447       -1267.650          37.000  
  21586790.439   113439362.778       -1267.794          38.000  
  21746797.461   114280199.755       -1267.623          36.000  
  21684670.818   113953757.211       -1267.650          39.000  
  21598219.586   113499400.180       -1267.834          33.000  
  21718077.795   114129237.255       -1267.808          38.000  
  21467810.530   112814136.145       -1267.731          41.000  
  21616681.047   113596472.266       -1267.726          35.000  
  21645693.097   113748957.062       -1267.727          38.000  
  21549572.613   113243821.545       -1267.700          39.000  
  21452574.427   112734071.482       -1267.600          38.000  
  21504147.695   113005112.630       -1267.727          40.000  
  21537264.412   113179126.038       -1267.771          38.000  
 25  8 13  9 51 12.6000000  0 30G 1G 2G 3G 4G 5G 7G 6G 8G14G 9G24G12
                                G10G11G32G26G27G19G23G16G18G29G30G17
                                G31G20G21G13G28G15
  21598067.757   113498585.438       -1267.831          44.000  
  21598006.890   113498140.179       -1267.667          49.000  
  21598072.640   113498586.794       -1267.698          49.000  
  21597955.687   113498071.093       -1267.705          49.000  
  21597857.139   113497585.972       -1267.751          49.000  
  21597895.050   113497628.216       -1267.791          45.000  
  21597969.158   113498124.250       -1267.757          49.000  
  21597975.951   113498239.124       -1267.725          49.000  
  21775560.939   114431348.042       -1267.497          39.000  
  21518263.439   113079297.852       -1267.823          38.000  
  21452617.256   112734300.019       -1267.766          38.000  
  21723690.620   114158762.275       -1267.586          37.000  
  21731313.611   114198824.961       -1267.557          36.000  
  21516217.271   113068510.339       -1267.585          36.000  
  21515038.709   113062319.206       -1267.703          40.000  
  21612919.671   113576628.723       -1267.744          38.000  
  21670063.442   113876982.699       -1267.821          38.000  
  21750947.672   114302038.997       -1267.831          37.000  
  21586838.664   113439616.310       -1267.548          38.000  
  21746845.686   114280453.306       -1267.751          36.000  
  21684719.092   113954010.762       -1267.725          39.000  
  21598267.804   113499653.716       -1267.691          33.000  
  21718126.061   114129490.793       -1267.687          38.000  
  21467858.789   112814389.689       -1267.686          41.000  
  21616729.291   113596725.809       -1267.606          35.000  
  21645741.363   113749210.611       -1267.804          38.000  
  21549620.861   113244075.091       -1267.723          39.000  
  21452622.739   112734325.045       -1267.922          38.000  
  21504195.919   113005366.179       -1267.739          40.000  
  21537312.660   113179379.581       -1267.706          38.000  
 25  8 13  9 51 12.8000000  0 30G 1G 2G 3G 4G 5G 7G 6G 8G14G 9G24G12
                                G10G11G32G26G27G19G23G16G18G29G30G17
                                G31G20G21G13G28G15
  21598116.006   113498838.976       -1267.886          44.000  
  21598055.146   113498393.719       -1267.822          49.000  
  21598121.701   113498840.329       -1267.810          49.000  
  21598003.933   113498324.631       -1267.815          49.000  
  21597905.300   113497839.510       -1267.854          49.000  
  21597943.286   113497881.754       -1267.893          45.000  
  21598017.343   113498377.786       -1267.823          49.000  
  21598024.279   113498492.661       -1267.828          49.000  
  21775609.220   114431601.575       -1267.753          39.000  
  21518311.686   113079551.386       -1267.825          38.000  
  21452665.544   112734553.558       -1267.810          38.000  
  21723738.839   114159015.808       -1267.765          37.000  
  21731361.843   114199078.502       -1267.788          36.000  
  21516265.553   113068763.877       -1267.817          35.000  
  21515086.984   113062572.740       -1267.805          40.000  
  21612967.906   113576882.252       -1267.766          38.000  
  21670111.662   113877236.232       -1267.768          38.000  
  21750995.905   114302292.521       -1267.644          37.000  
  21586886.957   113439869.842       -1267.661          37.000  
  21746893.886   114280706.848       -1267.866          36.000  
  21684767.361   113954264.302       -1267.832          39.000  
  21598316.031   113499907.242       -1267.646          33.000  
  21718174.349   114129744.330       -1267.829          38.000  
  21467907.033   112814643.225       -1267.792          41.000  
  21616777.539   113596979.348       -1267.850          36.000  
  21645789.630   113749464.149       -1267.881          38.000  
  21549669.123   113244328.631       -1267.932          39.000  
  21452671.000   112734578.586       -1268.022          38.000  
  21504244.133   113005619.714       -1267.843          40.000  
  21537360.962   113179633.120       -1267.870          38.000  
 25  8 13  9 51 13.0000000  0 30G 1G 2G 3G 4G 5G 7G 6G 8G14G 9G24G12
                                G10G11G32G26G27G19G23G16G18G29G30G17
                                G31G20G21G13G28G15
  21598164.280   113499092.498       -1267.617          44.000  
  21598103.400   113498647.249       -1267.706          49.000  
  21598170.267   113499093.866       -1267.770          49.000  
  21598052.173   113498578.148       -1267.526          49.000  
  21597953.321   113498093.029       -1267.546          49.000  
  21597991.505   113498135.270       -1267.561          45.000  
  21598065.593   113498631.296       -1267.391          49.000  
  21598072.454   113498746.186       -1267.617          49.000  
  21775657.465   114431855.108       -1267.653          39.000  
  21518359.975   113079804.906       -1267.511          38.000  
  21452713.768   112734807.082       -1267.603          38.000  
  21723787.101   114159269.362       -1268.001          37.000  
  21731410.049   114199331.973       -1266.945          36.000  
  21516313.799   113069017.427       -1267.987          35.000  
  21515135.208   113062826.284       -1267.874          40.000  
  21613016.139   113577135.784       -1267.693          38.000  
  21670159.898   113877489.716       -1267.053          38.000  
  21751044.148   114302546.052       -1267.581          37.000  
  21586935.176   113440123.382       -1267.762          38.000  
  21746942.112   114280960.383       -1267.774          36.000  
  21684815.562   113954517.801       -1267.288          39.000  
  21598364.325   113500160.787       -1267.877          33.000  
  21718222.564   114129997.865       -1267.765          38.000  
  21467955.271   112814896.750       -1267.589          41.000  
  21616825.740   113597232.883       -1267.760          36.000  
  21645837.845   113749717.690       -1267.900          38.000  
  21549717.376   113244582.116       -1267.065          39.000  
  21452719.203   112734832.086       -1267.308          38.000  
  21504292.354   113005873.212       -1267.216          40.000  
  21537409.195   113179886.652       -1267.748          38.000  
 25  8 13  9 51 13.2000000  0 30G 1G 2G 3G 4G 5G 7G 6G 8G14G 9G24G12
                                G10G11G32G26G27G19G23G16G18G29G30G17
                                G31G20G21G13G28G15
  21598212.519   113499346.044       -1267.795          44.000  
  21598151.645   113498900.781       -1267.683          49.000  
  21598217.750   113499347.400       -1267.736          49.000  
  21598100.424   113498831.687       -1267.740          49.000  
  21598001.059   113498346.569       -1267.745          49.000  
  21598039.752   113498388.812       -1267.765          45.000  
  21598113.904   113498884.844       -1267.808          49.000  
  21598120.718   113498999.727       -1267.785          49.000  
  21775705.726   114432108.639       -1267.677          39.000  
  21518408.217   113080058.451       -1267.791          38.000  
  21452762.019   112735060.629       -1267.804          38.000  
  21723835.343   114159522.880       -1267.595          37.000  
  21731458.305   114199585.525       -1267.746          36.000  
  21516362.105   113069270.958       -1267.791          35.000  
  21515183.451   113063079.817       -1267.710          40.000  
  21613064.438   113577389.313       -1267.668          38.000  
  21670208.154   113877743.279       -1267.807          37.000  
  21751092.427   114302799.589       -1267.900          37.000  
  21586983.434   113440376.901       -1267.614          38.000  
  21746990.369   114281213.925       -1267.853          38.000  
  21684863.808   113954771.356       -1267.851          39.000  
  21598412.597   113500414.315       -1267.676          33.000  
  21718270.821   114130251.404       -1267.787          36.000  
  21468003.542   112815150.290       -1267.775          41.000  
  21616874.014   113597486.417       -1267.757          35.000  
  21645886.075   113749971.225       -1267.708          38.000  
  21549765.609   113244835.671       -1267.820          39.000  
  21452767.442   112735085.654       -1267.881          38.000  
  21504340.566   113006126.770       -1267.889          40.000  
  21537457.454   113180140.187       -1267.733          38.000  
 25  8 13  9 51 13.4000000  0 30G 1G 2G 3G 4G 5G 7G 6G 8G14G 9G24G12
                                G10G11G32G26G27G19G23G16G18G29G30G17
                                G31G20G21G13G28G15
  21598260.812   113499599.579       -1267.768          44.000  
  21598199.895   113499154.325       -1267.750          49.000  
  21598265.355   113499600.942       -1267.727          49.000  
  21598148.681   113499085.229       -1267.728          49.000  
  21598049.061   113498600.110       -1267.748          49.000  
  21598088.053   113498642.352       -1267.760          45.000  
  21598162.161   113499138.382       -1267.768          49.000  
  21598168.971   113499253.266       -1267.754          49.000  
  21775753.977   114432362.186       -1267.693          39.000  
  21518456.395   113080311.990       -1267.698          38.000  
  21452810.245   112735314.168       -1267.736          37.000  
  21723883.567   114159776.431       -1267.651          37.000  
  21731506.529   114199839.071       -1267.878          36.000  
  21516410.389   113069524.495       -1267.711          35.000  
  21515231.667   113063333.362       -1267.805          40.000  
  21613112.694   113577642.861       -1267.683          38.000  
  21670256.420   113877996.812       -1267.780          37.000  
  21751140.648   114303053.135       -1267.806          37.000  
  21587031.690   113440630.453       -1267.738          38.000  
  21747038.615   114281467.463       -1267.779          38.000  
  21684912.050   113955024.891       -1267.793          39.000  
  21598460.869   113500667.863       -1267.767          33.000  
  21718319.055   114130504.945       -1267.719          36.000  
  21468051.779   112815403.829       -1267.703          41.000  
  21616922.287   113597739.954       -1267.683          35.000  
  21645934.303   113750224.768       -1267.751          39.000  
  21549813.846   113245089.205       -1267.782          39.000  
  21452815.695   112735339.183       -1267.887          38.000  
  21504388.818   113006380.301       -1267.728          40.000  
  21537505.710   113180393.731       -1267.815          38.000  
 25  8 13  9 51 13.6000000  0 30G 1G 2G 3G 4G 5G 7G 6G 8G14G 9G24G12
                                G10G11G32G26G27G19G23G16G18G29G30G17
                                G31G20G21G13G28G15
  21598309.056   113499853.105       -1267.593          44.000  
  21598248.148   113499407.852       -1267.609          49.000  
  21598312.982   113499854.472       -1267.620          49.000  
  21598196.905   113499338.757       -1267.615          49.000  
  21598097.112   113498853.640       -1267.621          49.000  
  21598136.322   113498895.882       -1267.634          45.000  
  21598210.406   113499391.907       -1267.617          49.000  
  21598217.159   113499506.794       -1267.615          48.000  
  21775802.209   114432615.729       -1267.666          39.000  
  21518504.651   113080565.516       -1267.638          38.000  
  21452858.490   112735567.693       -1267.573          37.000  
  21723931.842   114160029.968       -1267.675          38.000  
  21731554.764   114200092.598       -1267.566          36.000  
  21516458.648   113069778.027       -1267.596          35.000  
  21515279.936   113063586.882       -1267.588          40.000  
  21613160.943   113577896.397       -1267.643          38.000  
  21670304.638   113878250.336       -1267.559          37.000  
  21751188.858   114303306.666       -1267.692          37.000  
  21587079.943   113440883.992       -1267.693          38.000  
  21747086.876   114281720.991       -1267.629          38.000  
  21684960.306   113955278.419       -1267.628          39.000  
  21598509.149   113500921.392       -1267.654          33.000  
  21718367.320   114130758.479       -1267.679          36.000  
  21468100.031   112815657.360       -1267.587          41.000  
  21616970.553   113597993.488       -1267.601          35.000  
  21645982.581   113750478.294       -1267.584          39.000  
  21549862.120   113245342.733       -1267.629          39.000  
  21452863.946   112735592.699       -1267.477          38.000  
  21504437.042   113006633.828       -1267.551          40.000  
  21537553.924   113180647.254       -1267.563          38.000  
 25  8 13  9 51 13.8000000  0 30G 1G 2G 3G 4G 5G 7G 6G 8G14G 9G24G12
                                G10G11G32G26G27G19G23G16G18G29G30G17
                                G31G20G21G13G28G15
  21598357.290   113500106.615       -1267.564          44.000  
  21598296.393   113499661.368       -1267.747          49.000  
  21598360.406   113500107.982       -1267.736          49.000  
  21598245.167   113499592.272       -1267.741          49.000  
  21598145.183   113499107.150       -1267.723          49.000  
  21598184.583   113499149.389       -1267.652          45.000  
  21598258.571   113499645.418       -1267.656          49.000  
  21598265.410   113499760.310       -1267.732          48.000  
  21775850.483   114432869.237       -1267.951          39.000  
  21518552.876   113080819.027       -1267.590          38.000  
  21452906.722   112735821.207       -1267.538          37.000  
  21723980.056   114160283.477       -1267.933          38.000  
  21731603.038   114200346.117       -1267.903          36.000  
  21516506.902   113070031.541       -1267.943          35.000  
  21515328.185   113063840.395       -1267.634          40.000  
  21613209.204   113578149.909       -1267.834          38.000  
  21670352.855   113878503.847       -1267.553          37.000  
  21751237.151   114303560.187       -1267.803          37.000  
  21587128.232   113441137.503       -1267.925          38.000  
  21747135.142   114281974.499       -1267.611          38.000  
  21685008.542   113955531.927       -1267.657          39.000  
  21598557.441   113501174.904       -1267.836          33.000  
  21718415.537   114131011.985       -1267.665          36.000  
  21468148.293   112815910.873       -1267.777          40.000  
  21617018.780   113598246.994       -1267.638          35.000  
  21646030.808   113750731.809       -1267.608          39.000  
  21549910.340   113245596.247       -1267.711          39.000  
  21452912.138   112735846.208       -1267.467          38.000  
  21504485.279   113006887.343       -1267.650          40.000  
  21537602.152   113180900.773       -1267.755          38.000  
 25  8 13  9 51 14.0000000  0 30G 1G 2G 3G 4G 5G 7G 6G 8G14G 9G24G12
                                G10G11G32G26G27G19G23G16G18G29G30G17
                                G31G20G21G13G28G15
  21598405.531   113500360.133       -1267.589          44.000  
  21598344.639   113499914.885       -1267.612          49.000  
  21598408.559   113500361.498       -1267.544          49.000  
  21598293.433   113499845.795       -1267.499          49.000  
  21598194.058   113499360.669       -1267.553          49.000  
  21598232.876   113499402.915       -1267.649          45.000  
  21598306.869   113499898.945       -1267.395          49.000  
  21598313.585   113500013.829       -1267.546          48.000  
  21775898.681   114433122.763       -1267.511          39.000  
  21518601.163   113081072.561       -1267.517          38.000  
  21452954.949   112736074.704       -1267.635          37.000  
  21724028.301   114160536.989       -1267.530          37.000  
  21731651.296   114200599.681       -1267.137          36.000  
  21516555.120   113070285.048       -1267.610          36.000  
  21515376.431   113064093.911       -1267.560          40.000  
  21613257.433   113578403.437       -1267.517          38.000  
  21670401.100   113878757.384       -1267.420          39.000  
  21751285.372   114303813.707       -1267.674          37.000  
  21587176.433   113441391.015       -1267.614          38.000  
  21747183.361   114282228.001       -1267.832          36.000  
  21685056.789   113955785.476       -1267.313          39.000  
  21598605.711   113501428.421       -1267.864          33.000  
  21718463.796   114131265.490       -1267.706          38.000  
  21468196.524   112816164.391       -1267.593          40.000  
  21617067.007   113598500.535       -1267.375          35.000  
  21646079.080   113750985.300       -1267.830          39.000  
  21549958.563   113245849.785       -1267.423          40.000  
  21452960.397   112736099.721       -1267.509          38.000  
  21504533.556   113007140.884       -1267.457          40.000  
  21537650.436   113181154.275       -1267.769          38.000  
 25  8 13  9 51 14.2000000  0 30G 1G 2G 3G 4G 5G 7G 6G 8G14G 9G24G12
                                G10G11G32G26G27G19G23G16G18G29G30G17
                                G31G20G21G13G28G15
  21598453.790   113500613.656       -1267.674          44.000  
  21598392.889   113500168.402       -1267.623          49.000  
  21598456.969   113500615.023       -1267.792          49.000  
  21598341.686   113500099.316       -1267.628          49.000  
  21598243.234   113499614.190       -1267.687          49.000  
  21598281.152   113499656.431       -1267.710          45.000  
  21598355.183   113500152.476       -1267.802          49.000  
  21598361.891   113500267.350       -1267.722          48.000  
  21775946.965   114433376.283       -1267.687          39.000  
  21518649.385   113081326.081       -1267.721          38.000  
  21453003.215   112736328.227       -1267.606          37.000  
  21724076.561   114160790.511       -1267.720          37.000  
  21731699.547   114200853.207       -1267.783          36.000  
  21516603.355   113070538.569       -1267.703          36.000  
  21515424.666   113064347.433       -1267.742          40.000  
  21613305.687   113578656.952       -1267.690          37.000  
  21670449.343   113879010.909       -1267.698          39.000  
  21751333.642   114304067.226       -1267.847          36.000  
  21587224.736   113441644.532       -1267.755          38.000  
  21747231.580   114282481.518       -1267.714          36.000  
  21685105.044   113956039.004       -1267.850          39.000  
  21598653.939   113501681.926       -1267.753          33.000  
  21718512.044   114131519.012       -1267.681          38.000  
  21468244.809   112816417.908       -1267.728          41.000  
  21617115.293   113598754.059       -1267.730          35.000  
  21646127.368   113751238.815       -1267.585          38.000  
  21550006.786   113246103.306       -1267.789          40.000  
  21453008.653   112736353.244       -1267.676          38.000  
  21504581.763   113007394.404       -1267.734          40.000  
  21537698.717   113181407.793       -1267.683          38.000  
 25  8 13  9 51 14.4000000  0 30G 1G 2G 3G 4G 5G 7G 6G 8G14G 9G24G12
                                G10G11G32G26G27G19G23G16G18G29G30G17
                                G31G20G21G13G28G15
  21598502.097   113500867.181       -1267.696          44.000  
  21598441.140   113500421.930       -1267.676          49.000  
  21598505.262   113500868.531       -1267.615          49.000  
  21598389.939   113500352.838       -1267.624          49.000  
  21598292.101   113499867.708       -1267.671          49.000  
  21598329.391   113499909.952       -1267.717          45.000  
  21598403.383   113500405.988       -1267.680          49.000  
  21598410.038   113500520.867       -1267.640          48.000  
  21775995.191   114433629.792       -1267.703          39.000  
  21518697.632   113081579.601       -1267.712          38.000  
  21453051.451   112736581.757       -1267.686          37.000  
  21724124.815   114161044.020       -1267.677          37.000  
  21731747.824   114201106.717       -1267.508          35.000  
  21516651.565   113070792.085       -1267.709          36.000  
  21515472.905   113064600.947       -1267.628          40.000  
  21613353.950   113578910.472       -1267.631          37.000  
  21670497.577   113879264.427       -1267.645          39.000  
  21751381.871   114304320.734       -1267.580          36.000  
  21587272.942   113441898.038       -1267.591          38.000  
  21747279.802   114282735.036       -1267.719          35.000  
  21685153.269   113956292.521       -1267.650          39.000  
  21598702.173   113501935.431       -1267.633          33.000  
  21718560.251   114131772.530       -1267.732          39.000  
  21468293.035   112816671.426       -1267.671          41.000  
  21617163.522   113599007.572       -1267.625          36.000  
  21646175.608   113751492.339       -1267.623          38.000  
  21550054.997   113246356.822       -1267.621          40.000  
  21453056.899   112736606.772       -1267.754          37.000  
  21504630.060   113007647.918       -1267.649          40.000  
  21537746.936   113181661.306       -1267.622          38.000  
 25  8 13  9 51 14.6000000  0 30G 1G 2G 3G 4G 5G 7G 6G 8G14G 9G24G12
                                G10G11G32G26G27G19G23G16G18G29G30G17
                                G31G20G21G13G28G15
  21598550.332   113501120.684       -1267.536          44.000  
  21598489.380   113500675.434       -1267.567          49.000  
  21598554.103   113501122.047       -1267.567          49.000  
  21598438.181   113500606.350       -1267.641          49.000  
  21598340.486   113500121.217       -1267.538          49.000  
  21598377.654   113500163.456       -1267.501          45.000  
  21598451.662   113500659.499       -1267.549          49.000  
  21598458.232   113500774.380       -1267.542          48.000  
  21776043.404   114433883.308       -1267.376          39.000  
  21518745.916   113081833.107       -1267.582          37.000  
  21453099.675   112736835.255       -1267.578          38.000  
  21724173.059   114161297.542       -1267.523          37.000  
  21731796.113   114201360.236       -1267.572          35.000  
  21516699.762   113071045.597       -1267.487          36.000  
  21515521.135   113064854.459       -1267.531          41.000  
  21613402.204   113579163.981       -1267.577          37.000  
  21670545.765   113879517.935       -1267.559          39.000  
  21751430.103   114304574.249       -1267.642          36.000  
  21587321.204   113442151.566       -1267.598          38.000  
  21747328.021   114282988.543       -1267.560          35.000  
  21685201.552   113956546.025       -1267.546          39.000  
  21598750.393   113502188.949       -1267.532          32.000  
  21718608.508   114132026.042       -1267.514          39.000  
  21468341.287   112816924.931       -1267.540          41.000  
  21617211.788   113599261.090       -1267.600          36.000  
  21646223.842   113751745.845       -1267.546          38.000  
  21550103.218   113246610.331       -1267.567          40.000  
  21453105.170   112736860.266       -1267.573          37.000  
  21504678.260   113007901.431       -1267.574          40.000  
  21537795.133   113181914.821       -1267.561          38.000  
 25  8 13  9 51 14.8000000  0 30G 1G 2G 3G 4G 5G 7G 6G 8G14G 9G24G12
                                G10G11G32G26G27G19G23G16G18G29G30G17
                                G31G20G21G13G28G15
  21598598.626   113501374.182       -1267.284          44.000  
  21598537.635   113500928.926       -1267.387          49.000  
  21598602.748   113501375.539       -1267.385          49.000  
  21598486.423   113500859.835       -1267.369          49.000  
  21598389.205   113500374.713       -1267.432          49.000  
  21598425.935   113500416.960       -1267.529          45.000  
  21598499.906   113500912.981       -1267.278          49.000  
  21598506.454   113501027.865       -1267.349          48.000  
  21776091.661   114434136.803       -1267.359          39.000  
  21518794.125   113082086.577       -1267.079          37.000  
  21453147.898   112737088.754       -1267.410          38.000  
  21724221.307   114161551.026       -1267.304          37.000  
  21731844.329   114201613.705       -1267.057          35.000  
  21516747.962   113071299.089       -1267.484          36.000  
  21515569.375   113065107.946       -1267.279          41.000  
  21613450.445   113579417.465       -1267.319          37.000  
  21670594.021   113879771.425       -1267.396          39.000  
  21751478.354   114304827.748       -1267.518          36.000  
  21587369.431   113442405.052       -1267.410          38.000  
  21747376.218   114283242.018       -1267.088          35.000  
  21685249.772   113956799.493       -1267.034          39.000  
  21598798.606   113502442.480       -1267.936          32.000  
  21718656.733   114132279.545       -1267.577          39.000  
  21468389.503   112817178.438       -1267.585          41.000  
  21617260.077   113599514.565       -1267.179          36.000  
  21646272.024   113751999.337       -1267.314          38.000  
  21550151.497   113246863.838       -1267.628          40.000  
  21453153.376   112737113.767       -1267.469          37.000  
  21504726.517   113008154.938       -1267.590          40.000  
  21537843.349   113182168.331       -1267.684          38.000  
 25  8 13  9 51 15.0000000  0 30G 1G 2G 3G 4G 5G 7G 6G 8G14G 9G24G12
                                G10G11G32G26G27G19G23G16G18G29G30G17
                                G31G20G21G13G28G15
  21598646.939   113501627.689       -1267.756          44.000  
  21598585.881   113501182.436       -1267.629          49.000  
  21598651.596   113501629.047       -1267.596          49.000  
  21598534.672   113501113.348       -1267.627          49.000  
  21598437.170   113500628.226       -1267.667          49.000  
  21598474.207   113500670.465       -1267.629          45.000  
  21598548.205   113501166.503       -1267.663          49.000  
  21598554.748   113501281.380       -1267.724          48.000  
  21776139.883   114434390.292       -1267.383          39.000  
  21518842.438   113082340.111       -1267.839          37.000  
  21453196.128   112737342.274       -1267.733          38.000  
  21724269.590   114161804.527       -1267.537          37.000  
  21731892.611   114201867.220       -1267.486          35.000  
  21516796.189   113071552.597       -1267.697          36.000  
  21515617.600   113065361.456       -1267.603          41.000  
  21613498.651   113579670.981       -1267.672          37.000  
  21670642.247   113880024.943       -1267.732          37.000  
  21751526.588   114305081.252       -1267.670          36.000  
  21587417.679   113442658.550       -1267.533          38.000  
  21747424.442   114283495.536       -1267.641          35.000  
  21685297.991   113957053.020       -1267.701          39.000  
  21598846.899   113502695.954       -1267.409          32.000  
  21718704.999   114132533.051       -1267.596          39.000  
  21468437.739   112817431.943       -1267.592          41.000  
  21617308.325   113599768.075       -1267.614          36.000  
  21646320.280   113752252.856       -1267.731          38.000  
  21550199.718   113247117.347       -1267.656          40.000  
  21453201.613   112737367.288       -1267.830          37.000  
  21504774.772   113008408.449       -1267.753          40.000  
  21537891.587   113182421.833       -1267.638          39.000  
 25  8 13  9 51 15.2000000  0 30G 1G 2G 3G 4G 5G 7G 6G 8G14G 9G24G12
                                G10G11G32G26G27G19G23G16G18G29G30G17
                                G31G20G21G13G28G15
  21598695.217   113501881.188       -1267.711          44.000  
  21598634.123   113501435.939       -1267.622          49.000  
  21598700.189   113501882.549       -1267.612          49.000  
  21598582.920   113501366.852       -1267.603          49.000  
  21598485.321   113500881.725       -1267.625          49.000  
  21598522.441   113500923.965       -1267.627          45.000  
  21598596.398   113501420.003       -1267.625          49.000  
  21598602.999   113501534.879       -1267.658          48.000  
  21776188.153   114434643.812       -1267.532          39.000  
  21518890.619   113082593.594       -1267.682          37.000  
  21453244.402   112737595.770       -1267.664          38.000  
  21724317.839   114162058.037       -1267.635          37.000  
  21731940.877   114202120.732       -1267.604          35.000  
  21516844.470   113071806.098       -1267.596          36.000  
  21515665.857   113065614.959       -1267.593          41.000  
  21613546.874   113579924.480       -1267.633          37.000  
  21670690.471   113880278.438       -1267.655          37.000  
  21751574.847   114305334.752       -1267.519          36.000  
  21587465.925   113442912.063       -1267.601          38.000  
  21747472.653   114283749.037       -1267.651          36.000  
  21685346.219   113957306.514       -1267.619          39.000  
  21598895.123   113502949.473       -1267.590          32.000  
  21718753.238   114132786.556       -1267.644          39.000  
  21468486.006   112817685.447       -1267.617          41.000  
  21617356.583   113600021.580       -1267.628          36.000  
  21646368.501   113752506.351       -1267.619          39.000  
  21550247.936   113247370.849       -1267.672          40.000  
  21453249.822   112737620.775       -1267.593          37.000  
  21504823.019   113008661.946       -1267.621          40.000  
  21537939.798   113182675.338       -1267.664          39.000  
 25  8 13  9 51 15.4000000  0 30G 1G 2G 3G 4G 5G 7G 6G 8G14G 9G24G12
                                G10G11G32G26G27G19G23G16G18G29G30G17
                                G31G20G21G13G28G15
  21598743.494   113502134.699       -1267.509          44.000  
  21598682.362   113501689.439       -1267.461          49.000  
  21598748.830   113502136.053       -1267.510          49.000  
  21598631.164   113501620.354       -1267.473          49.000  
  21598533.498   113501135.228       -1267.472          49.000  
  21598570.697   113501177.468       -1267.461          45.000  
  21598644.605   113501673.500       -1267.442          49.000  
  21598651.183   113501788.384       -1267.511          48.000  
  21776236.419   114434897.324       -1267.750          39.000  
  21518938.901   113082847.095       -1267.308          37.000  
  21453292.632   112737849.272       -1267.374          38.000  
  21724366.118   114162311.543       -1267.643          37.000  
  21731989.125   114202374.235       -1267.683          35.000  
  21516892.663   113072059.605       -1267.603          36.000  
  21515714.056   113065868.462       -1267.445          41.000  
  21613595.115   113580177.984       -1267.479          37.000  
  21670738.695   113880531.939       -1267.396          37.000  
  21751623.073   114305588.258       -1267.471          36.000  
  21587514.123   113443165.565       -1267.564          38.000  
  21747520.855   114284002.538       -1267.466          36.000  
  21685394.452   113957560.018       -1267.440          39.000  
  21598943.342   113503202.980       -1267.572          32.000  
  21718801.484   114133040.060       -1267.577          39.000  
  21468534.213   112817938.953       -1267.504          41.000  
  21617404.865   113600275.084       -1267.563          36.000  
  21646416.726   113752759.852       -1267.422          39.000  
  21550296.220   113247624.349       -1267.460          40.000  
  21453298.091   112737874.279       -1267.341          37.000  
  21504871.293   113008915.449       -1267.440          40.000  
  21537988.029   113182928.841       -1267.523          39.000  
 25  8 13  9 51 15.6000000  0 30G 1G 2G 3G 4G 5G 7G 6G 8G14G 9G24G12
                                G10G11G32G26G27G19G23G16G18G29G30G17
                                G31G20G21G13G28G15
  21598791.742   113502388.180       -1267.333          44.000  
  21598730.596   113501942.919       -1267.372          49.000  
  21598797.324   113502389.529       -1267.346          49.000  
  21598679.391   113501873.830       -1267.367          49.000  
  21598581.316   113501388.708       -1267.358          49.000  
  21598618.956   113501430.948       -1267.371          45.000  
  21598692.812   113501926.980       -1267.365          49.000  
  21598699.462   113502041.860       -1267.333          48.000  
  21776284.668   114435150.783       -1267.324          39.000  
  21518987.114   113083100.585       -1267.397          37.000  
  21453340.868   112738102.753       -1267.292          38.000  
  21724414.373   114162565.008       -1267.281          37.000  
  21732037.348   114202627.701       -1267.250          35.000  
  21516940.910   113072313.080       -1267.426          36.000  
  21515762.250   113066121.935       -1267.247          40.000  
  21613643.347   113580431.460       -1267.346          37.000  
  21670786.919   113880785.426       -1267.415          37.000  
  21751671.269   114305841.731       -1267.262          36.000  
  21587562.406   113443419.033       -1267.206          37.000  
  21747569.044   114284256.015       -1267.320          36.000  
  21685442.691   113957813.501       -1267.409          39.000  
  21598991.566   113503456.444       -1267.271          32.000  
  21718849.675   114133293.538       -1267.438          39.000  
  21468582.463   112818192.426       -1267.319          41.000  
  21617453.092   113600528.559       -1267.351          36.000  
  21646465.000   113753013.334       -1267.351          39.000  
  21550344.457   113247877.830       -1267.372          40.000  
  21453346.314   112738127.772       -1267.462          37.000  
  21504919.526   113009168.930       -1267.438          40.000  
  21538036.286   113183182.317       -1267.379          39.000  
 25  8 13  9 51 15.8000000  0 30G 1G 2G 3G 4G 5G 7G 6G 8G14G 9G24G12
                                G10G11G32G26G27G19G23G16G18G29G30G17
                                G31G20G21G13G28G15
  21598840.008   113502641.677       -1267.313          44.000  
  21598778.839   113502196.407       -1267.318          49.000  
  21598845.118   113502643.018       -1267.363          49.000  
  21598727.636   113502127.319       -1267.319          49.000  
  21598629.433   113501642.194       -1267.405          49.000  
  21598667.220   113501684.436       -1267.432          45.000  
  21598741.104   113502180.475       -1267.360          49.000  
  21598747.684   113502295.351       -1267.369          48.000  
  21776332.889   114435404.286       -1267.248          39.000  
  21519035.357   113083354.082       -1267.338          37.000  
  21453389.085   112738356.241       -1267.438          38.000  
  21724462.604   114162818.499       -1267.387          37.000  
  21732085.601   114202881.195       -1267.431          35.000  
  21516989.166   113072566.567       -1267.335          36.000  
  21515810.504   113066375.424       -1267.439          40.000  
  21613691.599   113580684.957       -1267.301          37.000  
  21670835.158   113881038.905       -1267.493          37.000  
  21751719.530   114306095.206       -1267.366          36.000  
  21587610.628   113443672.532       -1267.261          37.000  
  21747617.284   114284509.518       -1267.280          36.000  
  21685490.920   113958067.000       -1267.298          39.000  
  21599039.846   113503709.916       -1267.450          32.000  
  21718897.878   114133547.025       -1267.324          39.000  
  21468630.676   112818445.915       -1267.410          41.000  
  21617501.336   113600782.046       -1267.311          36.000  
  21646513.227   113753266.821       -1267.504          38.000  
  21550392.718   113248131.319       -1267.423          40.000  
  21453394.565   112738381.263       -1267.498          37.000  
  21504967.813   113009422.409       -1267.441          40.000  
  21538084.530   113183435.797       -1267.482          39.000  
 25  8 13  9 51 16.0000000  0 30G 1G 2G 3G 4G 5G 7G 6G 8G14G 9G24G12
                                G10G11G32G26G27G19G23G16G18G29G30G17
                                G31G20G21G13G28G15
  21598888.288   113502895.158       -1267.738          44.000  
  21598827.086   113502449.894       -1267.605          49.000  
  21598893.003   113502896.502       -1267.666          49.000  
  21598775.871   113502380.805       -1267.599          49.000  
  21598677.864   113501895.677       -1267.651          49.000  
  21598715.476   113501937.920       -1267.671          45.000  
  21598789.409   113502433.956       -1267.686          49.000  
  21598795.983   113502548.838       -1267.712          48.000  
  21776381.159   114435657.777       -1267.708          39.000  
  21519083.641   113083607.567       -1267.673          37.000  
  21453437.338   112738609.724       -1267.688          38.000  
  21724510.820   114163071.985       -1267.657          37.000  
  21732133.829   114203134.677       -1267.686          35.000  
  21517037.437   113072820.050       -1267.656          36.000  
  21515858.727   113066628.903       -1267.639          40.000  
  21613739.845   113580938.441       -1267.632          37.000  
  21670883.399   113881292.390       -1267.631          38.000  
  21751767.774   114306348.695       -1267.590          36.000  
  21587658.863   113443926.016       -1267.696          37.000  
  21747665.535   114284763.004       -1267.657          36.000  
  21685539.175   113958320.481       -1267.720          39.000  
  21599088.124   113503963.391       -1267.384          32.000  
  21718946.176   114133800.510       -1267.625          39.000  
  21468678.938   112818699.396       -1267.626          41.000  
  21617549.577   113601035.530       -1267.694          36.000  
  21646561.497   113753520.300       -1267.667          38.000  
  21550440.947   113248384.804       -1267.661          40.000  
  21453442.814   112738634.741       -1267.662          37.000  
  21505016.016   113009675.894       -1267.639          40.000  
  21538132.758   113183689.278       -1267.601          39.000  
 25  8 13  9 51 16.2000000  0 30G 1G 2G 3G 4G 5G 7G 6G 8G14G 9G24G12
                                G10G11G32G26G27G19G23G16G18G29G30G17
                                G31G20G21G13G28G15
  21598936.547   113503148.626       -1267.329          44.000  
  21598875.323   113502703.368       -1267.357          49.000  
  21598940.780   113503149.976       -1267.340          49.000  
  21598824.092   113502634.279       -1267.365          49.000  
  21598726.312   113502149.150       -1267.320          49.000  
  21598763.757   113502191.395       -1267.358          45.000  
  21598837.627   113502687.428       -1267.326          49.000  
  21598844.236   113502802.310       -1267.322          48.000  
  21776429.373   114435911.256       -1267.531          39.000  
  21519131.835   113083861.036       -1267.322          37.000  
  21453485.555   112738863.193       -1267.227          38.000  
  21724558.996   114163325.468       -1267.436          37.000  
  21732182.063   114203388.157       -1267.360          35.000  
  21517085.688   113073073.525       -1267.400          36.000  
  21515906.945   113066882.382       -1267.250          40.000  
  21613788.100   113581191.915       -1267.366          37.000  
  21670931.638   113881545.867       -1267.350          38.000  
  21751816.001   114306602.171       -1267.244          36.000  
  21587707.069   113444179.500       -1267.467          37.000  
  21747713.770   114285016.480       -1267.436          36.000  
  21685587.415   113958573.953       -1267.328          39.000  
  21599136.377   113504216.885       -1267.409          32.000  
  21718994.409   114134053.986       -1267.384          39.000  
  21468727.136   112818952.874       -1267.311          41.000  
  21617597.825   113601289.010       -1267.332          36.000  
  21646609.716   113753773.773       -1267.312          38.000  
  21550489.171   113248638.278       -1267.379          40.000  
  21453491.038   112738888.208       -1267.244          37.000  
  21505064.306   113009929.365       -1267.319          41.000  
  21538180.992   113183942.754       -1267.368          39.000  
 25  8 13  9 51 16.4000000  0 30G 1G 2G 3G 4G 5G 7G 6G 8G14G 9G24G12
                                G10G11G32G26G27G19G23G16G18G29G30G17
                                G31G20G21G13G28G15
  21598984.793   113503402.112       -1267.475          44.000  
  21598923.573   113502956.847       -1267.503          49.000  
  21598988.307   113503403.461       -1267.494          49.000  
  21598872.325   113502887.764       -1267.541          49.000  
  21598774.499   113502402.629       -1267.425          49.000  
  21598811.970   113502444.867       -1267.369          45.000  
  21598885.854   113502940.910       -1267.470          49.000  
  21598892.524   113503055.798       -1267.507          48.000  
  21776477.603   114436164.732       -1267.484          39.000  
  21519180.131   113084114.517       -1267.417          37.000  
  21453533.786   112739116.682       -1267.546          38.000  
  21724607.219   114163578.950       -1267.540          37.000  
  21732230.298   114203641.632       -1267.418          35.000  
  21517133.914   113073327.002       -1267.480          36.000  
  21515955.143   113067135.868       -1267.543          40.000  
  21613836.340   113581445.394       -1267.430          37.000  
  21670979.842   113881799.350       -1267.476          38.000  
  21751864.221   114306855.652       -1267.372          36.000  
  21587755.268   113444432.973       -1267.424          37.000  
  21747762.006   114285269.962       -1267.497          35.000  
  21685635.637   113958827.438       -1267.513          39.000  
  21599184.660   113504470.349       -1267.265          32.000  
  21719042.661   114134307.468       -1267.488          39.000  
  21468775.384   112819206.359       -1267.489          41.000  
  21617646.063   113601542.494       -1267.500          36.000  
  21646657.992   113754027.255       -1267.471          38.000  
  21550537.400   113248891.762       -1267.563          40.000  
  21453539.307   112739141.700       -1267.555          36.000  
  21505112.546   113010182.850       -1267.516          41.000  
  21538229.229   113184196.235       -1267.465          39.000  
 25  8 13  9 51 16.6000000  0 30G 1G 2G 3G 4G 5G 7G 6G 8G14G 9G24G12
                                G10G11G32G26G27G19G23G16G18G29G30G17
                                G31G20G21G13G28G15
  21599033.037   113503655.606       -1267.298          44.000  
  21598971.823   113503210.350       -1267.488          49.000  
  21599036.956   113503656.958       -1267.456          49.000  
  21598920.566   113503141.254       -1267.335          49.000  
  21598822.675   113502656.141       -1267.541          49.000  
  21598860.227   113502698.384       -1267.679          45.000  
  21598934.076   113503194.406       -1267.271          49.000  
  21598940.715   113503309.286       -1267.361          48.000  
  21776525.825   114436418.204       -1267.043          39.000  
  21519228.349   113084368.014       -1267.371          37.000  
  21453582.028   112739370.180       -1267.396          38.000  
  21724655.440   114163832.436       -1267.359          37.000  
  21732278.526   114203895.126       -1267.332          35.000  
  21517182.196   113073580.505       -1267.415          36.000  
  21516003.360   113067389.367       -1267.527          40.000  
  21613884.607   113581698.890       -1267.384          37.000  
  21671028.083   113882052.854       -1267.412          38.000  
  21751912.458   114307109.162       -1267.595          37.000  
  21587803.534   113444686.460       -1267.260          37.000  
  21747810.202   114285523.438       -1267.195          35.000  
  21685683.874   113959080.928       -1267.306          39.000  
  21599232.984   113504723.885       -1267.936          32.000  
  21719090.877   114134560.967       -1267.428          39.000  
  21468823.640   112819459.856       -1267.476          41.000  
  21617694.280   113601795.982       -1267.400          36.000  
  21646706.216   113754280.765       -1267.602          38.000  
  21550585.617   113249145.257       -1267.363          40.000  
  21453587.548   112739395.204       -1267.302          36.000  
  21505160.762   113010436.369       -1267.666          41.000  
  21538277.447   113184449.751       -1267.682          39.000  
 25  8 13  9 51 16.8000000  0 30G 1G 2G 3G 4G 5G 7G 6G 8G14G 9G24G12
                                G10G11G32G26G27G19G23G16G18G29G30G17
                                G31G20G21G13G28G15
  21599081.316   113503909.126       -1267.787          44.000  
  21599020.066   113503463.861       -1267.616          49.000  
  21599085.812   113503910.475       -1267.673          49.000  
  21598968.824   113503394.776       -1267.570          49.000  
  21598870.471   113502909.647       -1267.622          49.000  
  21598908.532   113502951.893       -1267.483          45.000  
  21598982.341   113503447.926       -1267.730          49.000  
  21598988.991   113503562.804       -1267.723          48.000  
  21776574.106   114436671.735       -1267.792          39.000  
  21519276.617   113084621.530       -1267.708          37.000  
  21453630.277   112739623.700       -1267.649          38.000  
  21724703.689   114164085.958       -1267.699          37.000  
  21732326.760   114204148.653       -1267.721          35.000  
  21517230.442   113073834.021       -1267.668          36.000  
  21516051.585   113067642.883       -1267.675          40.000  
  21613932.879   113581952.406       -1267.647          37.000  
  21671076.327   113882306.365       -1267.513          38.000  
  21751960.689   114307362.684       -1267.910          36.000  
  21587851.749   113444939.987       -1267.814          37.000  
  21747858.463   114285776.964       -1267.716          36.000  
  21685732.127   113959334.443       -1267.647          39.000  
  21599281.266   113504977.397       -1267.733          32.000  
  21719139.069   114134814.479       -1267.608          39.000  
  21468871.912   112819713.374       -1267.660          41.000  
  21617742.492   113602049.497       -1267.562          36.000  
  21646754.441   113754534.276       -1267.635          38.000  
  21550633.878   113249398.774       -1267.632          40.000  
  21453635.785   112739648.717       -1267.544          37.000  
  21505209.047   113010689.876       -1267.549          41.000  
  21538325.656   113184703.264       -1267.650          39.000  
 25  8 13  9 51 17.0000000  0 30G 1G 2G 3G 4G 5G 7G 6G 8G14G 9G24G12
                                G10G11G32G26G27G19G23G16G18G29G30G17
                                G31G20G21G13G28G15
  21599129.535   113504162.608       -1267.499          44.000  
  21599068.311   113503717.354       -1267.398          49.000  
  21599134.399   113504163.958       -1267.384          49.000  
  21599017.070   113503648.264       -1267.419          49.000  
  21598918.608   113503163.135       -1267.295          49.000  
  21598956.764   113503205.382       -1267.432          45.000  
  21599030.537   113503701.408       -1267.441          49.000  
  21599037.198   113503816.284       -1267.356          48.000  
  21776622.340   114436925.222       -1267.312          39.000  
  21519324.842   113084875.010       -1267.416          37.000  
  21453678.523   112739877.188       -1267.507          38.000  
  21724751.954   114164339.443       -1267.253          37.000  
  21732375.034   114204402.137       -1267.259          35.000  
  21517278.704   113074087.510       -1267.344          36.000  
  21516099.808   113067896.371       -1267.412          40.000  
  21613981.109   113582205.893       -1267.399          37.000  
  21671124.566   113882559.849       -1267.394          38.000  
  21752008.876   114307616.162       -1267.378          36.000  
  21587899.995   113445193.473       -1267.348          37.000  
  21747906.699   114286030.451       -1267.404          36.000  
  21685780.344   113959587.931       -1267.464          39.000  
  21599329.506   113505230.888       -1267.297          32.000  
  21719187.303   114135067.964       -1267.302          39.000  
  21468920.161   112819966.860       -1267.360          41.000  
  21617790.743   113602302.990       -1267.353          36.000  
  21646802.649   113754787.757       -1267.331          38.000  
  21550682.097   113249652.261       -1267.426          40.000  
  21453684.022   112739902.202       -1267.494          37.000  
  21505257.277   113010943.362       -1267.393          40.000  
  21538373.878   113184956.752       -1267.454          39.000  
 25  8 13  9 51 17.2000000  0 30G 1G 2G 3G 4G 5G 7G 6G 8G14G 9G24G12
                                G10G11G32G26G27G19G23G16G18G29G30G17
                                G31G20G21G13G28G15
  21599177.842   113504416.091       -1267.566          44.000  
  21599116.546   113503970.825       -1267.437          49.000  
  21599182.731   113504417.440       -1267.541          49.000  
  21599065.326   113503901.739       -1267.521          49.000  
  21598967.046   113503416.612       -1267.511          49.000  
  21599005.037   113503458.859       -1267.563          45.000  
  21599078.740   113503954.885       -1267.479          49.000  
  21599085.462   113504069.765       -1267.547          48.000  
  21776670.594   114437178.704       -1267.607          39.000  
  21519373.097   113085128.484       -1267.487          37.000  
  21453726.716   112740130.662       -1267.559          38.000  
  21724800.224   114164592.926       -1267.601          37.000  
  21732423.332   114204655.620       -1267.614          35.000  
  21517326.904   113074340.984       -1267.500          36.000  
  21516148.039   113068149.846       -1267.538          40.000  
  21614029.303   113582459.370       -1267.549          37.000  
  21671172.845   113882813.329       -1267.511          38.000  
  21752057.136   114307869.642       -1267.517          36.000  
  21587948.211   113445446.949       -1267.524          37.000  
  21747954.937   114286283.926       -1267.529          36.000  
  21685828.569   113959841.402       -1267.537          39.000  
  21599377.703   113505484.361       -1267.458          32.000  
  21719235.529   114135321.445       -1267.548          39.000  
  21468968.390   112820220.340       -1267.576          41.000  
  21617838.953   113602556.463       -1267.449          36.000  
  21646850.868   113755041.238       -1267.523          39.000  
  21550730.331   113249905.737       -1267.559          40.000  
  21453732.241   112740155.674       -1267.487          37.000  
  21505305.551   113011196.840       -1267.545          40.000  
  21538422.097   113185210.225       -1267.493          39.000  
 25  8 13  9 51 17.4000000  0 30G 1G 2G 3G 4G 5G 7G 6G 8G14G 9G24G12
                                G10G11G32G26G27G19G23G16G18G29G30G17
                                G31G20G21G13G28G15
  21599226.118   113504669.550       -1267.285          44.000  
  21599164.791   113504224.297       -1267.300          49.000  
  21599231.147   113504670.909       -1267.315          49.000  
  21599113.564   113504155.206       -1267.195          49.000  
  21599015.251   113503670.080       -1267.223          49.000  
  21599053.245   113503712.316       -1267.121          45.000  
  21599127.021   113504208.359       -1267.199          49.000  
  21599133.681   113504323.237       -1267.327          48.000  
  21776718.812   114437432.166       -1267.236          39.000  
  21519421.350   113085381.953       -1267.194          37.000  
  21453774.965   112740384.124       -1267.223          38.000  
  21724848.473   114164846.395       -1267.270          37.000  
  21732471.557   114204909.084       -1267.272          35.000  
  21517375.105   113074594.453       -1267.246          36.000  
  21516196.277   113068403.317       -1267.239          40.000  
  21614077.497   113582712.839       -1267.262          37.000  
  21671221.053   113883066.800       -1267.228          38.000  
  21752105.314   114308123.109       -1267.241          36.000  
  21587996.424   113445700.418       -1267.221          37.000  
  21748003.132   114286537.398       -1267.280          36.000  
  21685876.829   113960094.872       -1267.234          39.000  
  21599425.918   113505737.834       -1267.247          32.000  
  21719283.769   114135574.911       -1267.224          39.000  
  21469016.659   112820473.807       -1267.288          41.000  
  21617887.154   113602809.936       -1267.315          36.000  
  21646899.083   113755294.708       -1267.281          39.000  
  21550778.552   113250159.203       -1267.246          40.000  
  21453780.480   112740409.139       -1267.195          37.000  
  21505353.755   113011450.308       -1267.228          40.000  
  21538470.347   113185463.692       -1267.213          39.000  
 25  8 13  9 51 17.6000000  0 30G 1G 2G 3G 4G 5G 7G 6G 8G14G 9G24G12
                                G10G11G32G26G27G19G23G16G18G29G30G17
                                G31G20G21G13G28G15
  21599274.364   113504923.001       -1267.236          44.000  
  21599213.022   113504477.747       -1267.234          49.000  
  21599279.398   113504924.364       -1267.255          49.000  
  21599161.808   113504408.665       -1267.321          49.000  
  21599063.332   113503923.534       -1267.296          49.000  
  21599101.500   113503965.780       -1267.344          45.000  
  21599175.237   113504461.816       -1267.325          49.000  
  21599181.955   113504576.688       -1267.224          48.000  
  21776767.048   114437685.627       -1267.380          39.000  
  21519469.580   113085635.408       -1267.216          37.000  
  21453823.186   112740637.581       -1267.322          38.000  
  21724896.744   114165099.851       -1267.280          37.000  
  21732519.795   114205162.540       -1267.327          35.000  
  21517423.274   113074847.909       -1267.302          36.000  
  21516244.526   113068656.773       -1267.273          40.000  
  21614125.730   113582966.292       -1267.244          37.000  
  21671269.276   113883320.257       -1267.352          37.000  
  21752153.564   114308376.560       -1267.258          36.000  
  21588044.695   113445953.879       -1267.418          37.000  
  21748051.367   114286790.858       -1267.325          36.000  
  21685925.056   113960348.328       -1267.279          39.000  
  21599474.092   113505991.282       -1267.148          32.000  
  21719331.990   114135828.367       -1267.279          39.000  
  21469064.886   112820727.262       -1267.267          41.000  
  21617935.382   113603063.390       -1267.313          36.000  
  21646947.319   113755548.158       -1267.210          39.000  
  21550826.765   113250412.658       -1267.302          40.000  
  21453828.668   112740662.597       -1267.273          37.000  
  21505402.029   113011703.762       -1267.268          40.000  
  21538518.549   113185717.149       -1267.303          39.000  
 25  8 13  9 51 17.8000000  0 30G 1G 2G 3G 4G 5G 7G 6G 8G14G 9G24G12
                                G10G11G32G26G27G19G23G16G18G29G30G17
                                G31G20G21G13G28G15
  21599322.622   113505176.451       -1267.072          44.000  
  21599261.260   113504731.208       -1267.367          49.000  
  21599328.426   113505177.825       -1267.446          49.000  
  21599210.053   113504662.126       -1267.321          49.000  
  21599110.816   113504176.988       -1267.269          49.000  
  21599149.761   113504219.233       -1267.277          45.000  
  21599223.470   113504715.271       -1267.301          49.000  
  21599230.176   113504830.149       -1267.287          48.000  
  21776815.255   114437939.078       -1267.569          39.000  
  21519517.834   113085888.872       -1267.312          37.000  
  21453871.431   112740891.037       -1267.172          38.000  
  21724944.962   114165353.307       -1267.456          37.000  
  21732568.040   114205415.995       -1267.473          35.000  
  21517471.464   113075101.360       -1267.319          36.000  
  21516292.763   113068910.231       -1267.404          40.000  
  21614173.942   113583219.750       -1267.296          37.000  
  21671317.498   113883573.709       -1267.164          37.000  
  21752201.780   114308630.020       -1267.414          36.000  
  21588092.915   113446207.336       -1267.585          37.000  
  21748099.600   114287044.317       -1267.446          36.000  
  21685973.288   113960601.785       -1267.282          39.000  
  21599522.371   113506244.750       -1267.644          32.000  
  21719380.193   114136081.828       -1267.333          39.000  
  21469113.127   112820980.721       -1267.402          42.000  
  21617983.630   113603316.844       -1267.369          36.000  
  21646995.558   113755801.620       -1267.267          39.000  
  21550875.008   113250666.114       -1267.222          40.000  
  21453876.905   112740916.046       -1266.970          37.000  
  21505450.281   113011957.221       -1267.266          40.000  
  21538566.800   113185970.603       -1267.257          39.000  
 25  8 13  9 51 18.0000000  0 30G 1G 2G 3G 4G 5G 7G 6G 8G14G 9G24G12
                                G10G11G32G26G27G19G23G16G18G29G30G17
                                G31G20G21G13G28G15
  21599370.885   113505429.908       -1267.318          44.000  
  21599309.487   113504984.643       -1267.022          49.000  
  21599377.191   113505431.258       -1267.098          49.000  
  21599258.281   113504915.563       -1267.175          49.000  
  21599158.267   113504430.431       -1267.141          49.000  
  21599198.006   113504472.679       -1267.151          45.000  
  21599271.633   113504968.709       -1267.175          49.000  
  21599278.429   113505083.590       -1267.140          48.000  
  21776863.463   114438192.501       -1266.940          39.000  
  21519565.999   113086142.325       -1267.291          37.000  
  21453919.695   112741144.487       -1267.329          38.000  
  21724993.180   114165606.735       -1267.037          37.000  
  21732616.258   114205669.427       -1267.071          35.000  
  21517519.680   113075354.802       -1267.061          36.000  
  21516340.982   113069163.667       -1267.109          41.000  
  21614222.187   113583473.193       -1267.112          37.000  
  21671365.722   113883827.154       -1267.164          37.000  
  21752249.968   114308883.458       -1267.054          36.000  
  21588141.183   113446460.759       -1266.951          38.000  
  21748147.798   114287297.749       -1266.985          36.000  
  21686021.546   113960855.230       -1267.197          39.000  
  21599570.555   113506498.174       -1266.984          32.000  
  21719428.456   114136335.266       -1267.175          39.000  
  21469161.364   112821234.157       -1267.090          42.000  
  21618031.849   113603570.280       -1267.144          36.000  
  21647043.836   113756055.058       -1267.142          39.000  
  21550923.233   113250919.554       -1267.113          40.000  
  21453925.110   112741169.506       -1267.405          37.000  
  21505498.500   113012210.660       -1267.153          40.000  
  21538614.956   113186224.046       -1267.126          39.000  
 25  8 13  9 51 18.2000000  0 30G 1G 2G 3G 4G 5G 7G 6G 8G14G 9G24G12
                                G10G11G32G26G27G19G23G16G18G29G30G17
                                G31G20G21G13G28G15
  21599419.119   113505683.321       -1267.249          44.000  
  21599357.709   113505238.062       -1267.181          49.000  
  21599425.755   113505684.674       -1267.230          49.000  
  21599306.508   113505168.976       -1267.112          49.000  
  21599206.344   113504683.850       -1267.269          49.000  
  21599246.242   113504726.084       -1267.268          45.000  
  21599319.852   113505222.126       -1267.164          49.000  
  21599326.647   113505337.004       -1267.184          48.000  
  21776911.679   114438445.927       -1267.063          39.000  
  21519614.239   113086395.726       -1267.256          37.000  
  21453967.883   112741397.896       -1267.239          38.000  
  21725041.415   114165860.162       -1267.180          37.000  
  21732664.498   114205922.853       -1267.067          35.000  
  21517567.935   113075608.216       -1267.220          36.000  
  21516389.230   113069417.081       -1267.200          40.000  
  21614270.423   113583726.609       -1267.283          37.000  
  21671413.975   113884080.565       -1267.219          37.000  
  21752298.226   114309136.882       -1267.352          36.000  
  21588189.395   113446714.184       -1267.136          38.000  
  21748196.023   114287551.173       -1267.235          36.000  
  21686069.745   113961108.642       -1267.269          39.000  
  21599618.767   113506751.596       -1267.193          32.000  
  21719476.708   114136588.679       -1267.150          39.000  
  21469209.590   112821487.574       -1267.197          42.000  
  21618080.060   113603823.695       -1267.144          36.000  
  21647092.058   113756308.476       -1267.248          39.000  
  21550971.482   113251172.971       -1267.218          40.000  
  21453973.331   112741422.906       -1267.290          37.000  
  21505546.778   113012464.075       -1267.247          40.000  
  21538663.158   113186477.458       -1267.219          39.000  
 25  8 13  9 51 18.4000000  0 30G 1G 2G 3G 4G 5G 7G 6G 8G14G 9G24G12
                                G10G11G32G26G27G19G23G16G18G29G30G17
                                G31G20G21G13G28G15
  21599467.369   113505936.713       -1267.097          44.000  
  21599405.945   113505491.463       -1267.103          49.000  
  21599474.209   113505938.072       -1267.106          49.000  
  21599354.734   113505422.377       -1267.149          49.000  
  21599254.091   113504937.249       -1267.152          49.000  
  21599294.456   113504979.486       -1267.198          45.000  
  21599368.127   113505475.524       -1267.200          49.000  
  21599374.896   113505590.408       -1267.216          48.000  
  21776959.928   114438699.334       -1267.101          39.000  
  21519662.469   113086649.122       -1267.090          37.000  
  21454016.136   112741651.290       -1267.100          38.000  
  21725089.642   114166113.563       -1267.116          37.000  
  21732712.711   114206176.254       -1267.149          35.000  
  21517616.153   113075861.618       -1267.106          36.000  
  21516437.428   113069670.478       -1267.122          40.000  
  21614318.597   113583980.004       -1267.072          37.000  
  21671462.138   113884333.959       -1267.111          37.000  
  21752346.480   114309390.284       -1267.261          36.000  
  21588237.646   113446967.594       -1267.184          38.000  
  21748244.248   114287804.572       -1267.091          36.000  
  21686117.977   113961362.037       -1267.148          39.000  
  21599666.955   113507005.005       -1267.295          32.000  
  21719525.005   114136842.083       -1267.104          39.000  
  21469257.835   112821740.973       -1267.153          42.000  
  21618128.263   113604077.102       -1267.143          36.000  
  21647140.284   113756561.874       -1267.179          39.000  
  21551019.684   113251426.370       -1267.164          40.000  
  21454021.562   112741676.301       -1267.140          37.000  
  21505594.992   113012717.468       -1267.125          40.000  
  21538711.370   113186730.856       -1267.142          39.000  
 25  8 13  9 51 18.6000000  0 30G 1G 2G 3G 4G 5G 7G 6G 8G14G 9G24G12
                                G10G11G32G26G27G19G23G16G18G29G30G17
                                G31G20G21G13G28G15
  21599515.642   113506190.130       -1267.165          44.000  
  21599454.177   113505744.866       -1267.131          49.000  
  21599521.887   113506191.478       -1267.083          49.000  
  21599402.956   113505675.774       -1267.086          49.000  
  21599302.247   113505190.651       -1267.120          49.000  
  21599342.682   113505232.890       -1267.012          45.000  
  21599416.354   113505728.916       -1267.031          49.000  
  21599423.084   113505843.810       -1267.052          48.000  
  21777008.150   114438952.726       -1266.876          39.000  
  21519710.693   113086902.535       -1267.211          37.000  
  21454064.363   112741904.699       -1267.122          38.000  
  21725137.853   114166366.953       -1266.948          37.000  
  21732760.974   114206429.645       -1266.949          35.000  
  21517664.343   113076115.015       -1267.028          36.000  
  21516485.642   113069923.879       -1267.041          40.000  
  21614366.802   113584233.408       -1267.159          37.000  
  21671510.379   113884587.365       -1267.092          37.000  
  21752394.669   114309643.683       -1267.060          36.000  
  21588285.825   113447220.982       -1266.998          38.000  
  21748292.453   114288057.968       -1267.046          36.000  
  21686166.169   113961615.438       -1267.113          39.000  
  21599715.178   113507258.393       -1266.916          32.000  
  21719573.154   114137095.482       -1267.113          39.000  
  21469306.030   112821994.372       -1266.986          42.000  
  21618176.457   113604330.495       -1266.969          36.000  
  21647188.494   113756815.278       -1267.153          39.000  
  21551067.915   113251679.774       -1267.159          40.000  
  21454069.792   112741929.715       -1267.213          37.000  
  21505643.255   113012970.870       -1267.062          40.000  
  21538759.555   113186984.259       -1267.069          39.000  
 25  8 13  9 51 18.8000000  0 30G 1G 2G 3G 4G 5G 7G 6G 8G14G 9G24G12
                                G10G11G32G26G27G19G23G16G18G29G30G17
                                G31G20G21G13G28G15
  21599563.908   113506443.550       -1267.030          44.000  
  21599502.410   113505998.285       -1267.016          49.000  
  21599570.413   113506444.898       -1266.991          49.000  
  21599451.185   113505929.194       -1267.037          49.000  
  21599350.761   113505444.077       -1267.053          49.000  
  21599390.910   113505486.315       -1267.053          45.000  
  21599464.595   113505982.346       -1267.080          49.000  
  21599471.333   113506097.229       -1267.005          49.000  
  21777056.369   114439206.149       -1266.977          39.000  
  21519758.980   113087155.952       -1266.982          37.000  
  21454112.617   112742158.125       -1267.039          38.000  
  21725186.074   114166620.381       -1267.020          37.000  
  21732809.202   114206683.069       -1266.950          35.000  
  21517712.563   113076368.438       -1267.075          36.000  
  21516533.859   113070177.301       -1266.956          40.000  
  21614414.979   113584486.830       -1267.030          37.000  
  21671558.563   113884840.790       -1267.061          37.000  
  21752442.800   114309897.093       -1266.825          36.000  
  21588334.060   113447474.402       -1267.020          37.000  
  21748340.672   114288311.397       -1267.100          36.000  
  21686214.395   113961868.866       -1267.114          39.000  
  21599763.404   113507511.813       -1266.899          32.000  
  21719621.398   114137348.907       -1267.060          39.000  
  21469354.274   112822247.799       -1267.026          42.000  
  21618224.689   113604583.919       -1267.015          36.000  
  21647236.750   113757068.702       -1267.028          39.000  
  21551116.133   113251933.195       -1267.007          40.000  
  21454118.029   112742183.149       -1267.189          37.000  
  21505691.454   113013224.302       -1267.096          40.000  
  21538807.801   113187237.689       -1267.111          39.000  
 25  8 13  9 51 19.0000000  0 30G 1G 2G 3G 4G 5G 7G 6G 8G14G 9G24G12
                                G10G11G32G26G27G19G23G16G18G29G30G17
                                G31G20G21G13G28G15
  21599612.162   113506696.962       -1267.199          44.000  
  21599550.636   113506251.697       -1267.188          49.000  
  21599619.007   113506698.305       -1267.135          49.000  
  21599499.419   113506182.605       -1267.147          49.000  
  21599399.420   113505697.483       -1267.197          49.000  
  21599439.171   113505739.731       -1267.317          45.000  
  21599512.755   113506235.755       -1267.148          49.000  
  21599519.553   113506350.643       -1267.225          49.000  
  21777104.590   114439459.559       -1267.127          39.000  
  21519807.159   113087409.364       -1267.173          37.000  
  21454160.876   112742411.533       -1267.172          38.000  
  21725234.281   114166873.785       -1267.175          37.000  
  21732857.425   114206936.474       -1267.080          35.000  
  21517760.772   113076621.844       -1267.201          36.000  
  21516582.114   113070430.717       -1267.222          40.000  
  21614463.227   113584740.241       -1267.275          37.000  
  21671606.782   113885094.199       -1267.189          37.000  
  21752491.023   114310150.516       -1267.135          36.000  
  21588382.285   113447727.817       -1267.231          37.000  
  21748388.918   114288564.800       -1267.143          36.000  
  21686262.617   113962122.270       -1267.149          39.000  
  21599811.668   113507765.232       -1267.275          32.000  
  21719669.599   114137602.313       -1267.188          39.000  
  21469402.473   112822501.209       -1267.269          42.000  
  21618272.892   113604837.331       -1267.225          36.000  
  21647284.977   113757322.112       -1267.194          39.000  
  21551164.326   113252186.607       -1267.195          40.000  
  21454166.243   112742436.550       -1267.189          37.000  
  21505739.701   113013477.708       -1267.231          40.000  
  21538856.028   113187491.097       -1267.229          39.000  
 25  8 13  9 51 19.2000000  0 30G 1G 2G 3G 4G 5G 7G 6G 8G14G 9G24G12
                                G10G11G32G26G27G19G23G16G18G29G30G17
                                G31G20G21G13G28G15
  21599660.386   113506950.368       -1266.960          44.000  
  21599598.872   113506505.106       -1267.100          49.000  
  21599667.212   113506951.714       -1267.076          49.000  
  21599547.643   113506436.012       -1267.022          49.000  
  21599447.993   113505950.891       -1267.024          49.000  
  21599487.412   113505993.132       -1266.985          45.000  
  21599560.934   113506489.168       -1267.120          49.000  
  21599567.682   113506604.047       -1266.931          49.000  
  21777152.803   114439712.972       -1266.997          39.000  
  21519855.419   113087662.766       -1267.004          37.000  
  21454209.129   112742664.934       -1266.857          38.000  
  21725282.508   114167127.194       -1266.985          37.000  
  21732905.636   114207189.893       -1267.009          35.000  
  21517808.978   113076875.251       -1267.045          36.000  
  21516630.303   113070684.123       -1267.078          40.000  
  21614511.433   113584993.642       -1267.039          37.000  
  21671654.998   113885347.609       -1267.039          37.000  
  21752539.267   114310403.931       -1267.213          36.000  
  21588430.516   113447981.222       -1267.035          37.000  
  21748437.120   114288818.213       -1267.015          36.000  
  21686310.814   113962375.679       -1267.048          39.000  
  21599859.900   113508018.637       -1267.172          32.000  
  21719717.806   114137855.720       -1267.017          39.000  
  21469450.667   112822754.612       -1266.985          41.000  
  21618321.105   113605090.740       -1267.069          36.000  
  21647333.187   113757575.523       -1267.125          39.000  
  21551212.571   113252440.013       -1267.056          40.000  
  21454214.453   112742689.960       -1266.942          37.000  
  21505787.931   113013731.112       -1267.009          40.000  
  21538904.240   113187744.500       -1266.981          39.000  
 25  8 13  9 51 19.4000000  0 30G 1G 2G 3G 4G 5G 7G 6G 8G14G 9G24G12
                                G10G11G32G26G27G19G23G16G18G29G30G17
                                G31G20G21G13G28G15
  21599708.640   113507203.757       -1267.121          44.000  
  21599647.102   113506758.508       -1266.990          49.000  
  21599715.087   113507205.112       -1267.124          49.000  
  21599595.867   113506689.411       -1267.083          49.000  
  21599496.972   113506204.288       -1267.131          49.000  
  21599535.646   113506246.535       -1267.112          45.000  
  21599609.167   113506742.564       -1267.112          49.000  
  21599615.931   113506857.449       -1267.082          49.000  
  21777201.006   114439966.380       -1267.095          39.000  
  21519903.619   113087916.182       -1266.920          37.000  
  21454257.384   112742918.354       -1266.957          38.000  
  21725330.728   114167380.603       -1267.075          37.000  
  21732953.835   114207443.274       -1267.231          35.000  
  21517857.197   113077128.658       -1267.129          36.000  
  21516678.494   113070937.540       -1267.014          40.000  
  21614559.665   113585247.064       -1266.915          37.000  
  21671703.186   113885600.992       -1267.124          38.000  
  21752587.506   114310657.315       -1267.176          36.000  
  21588478.778   113448234.623       -1267.096          37.000  
  21748485.361   114289071.634       -1266.946          36.000  
  21686359.036   113962629.061       -1267.169          39.000  
  21599908.112   113508272.030       -1267.210          32.000  
  21719765.992   114138109.111       -1267.194          39.000  
  21469498.871   112823008.000       -1267.185          41.000  
  21618369.322   113605344.140       -1267.223          36.000  
  21647381.458   113757828.937       -1266.982          39.000  
  21551260.783   113252693.371       -1267.388          40.000  
  21454262.650   112742943.348       -1267.097          37.000  
  21505836.103   113013984.504       -1267.203          40.000  
  21538952.506   113187997.907       -1267.128          39.000  
 25  8 13  9 51 19.6000000  0 30G 1G 2G 3G 4G 5G 7G 6G 8G14G 9G24G12
                                G10G11G32G26G27G19G23G16G18G29G30G17
                                G31G20G21G13G28G15
  21599756.896   113507457.120       -1266.802          44.000  
  21599695.319   113507011.874       -1266.793          49.000  
  21599762.806   113507458.477       -1266.859          49.000  
  21599644.098   113506942.776       -1266.840          49.000  
  21599546.161   113506457.655       -1266.827          49.000  
  21599583.885   113506499.904       -1266.871          45.000  
  21599657.340   113506995.932       -1266.833          49.000  
  21599664.155   113507110.818       -1266.899          49.000  
  21777249.241   114440219.757       -1266.966          39.000  
  21519951.828   113088169.546       -1266.910          37.000  
  21454305.615   112743171.709       -1266.786          38.000  
  21725378.953   114167633.977       -1266.947          37.000  
  21733002.031   114207696.644       -1266.886          35.000  
  21517905.376   113077382.025       -1266.877          36.000  
  21516726.740   113071190.905       -1266.941          41.000  
  21614607.887   113585500.430       -1266.910          37.000  
  21671751.371   113885854.356       -1266.771          38.000  
  21752635.673   114310910.681       -1266.872          36.000  
  21588526.949   113448487.996       -1266.994          37.000  
  21748533.637   114289325.004       -1266.959          36.000  
  21686407.217   113962882.424       -1266.781          39.000  
  21599956.294   113508525.391       -1266.769          32.000  
  21719814.173   114138362.470       -1266.796          39.000  
  21469547.034   112823261.362       -1266.775          41.000  
  21618417.533   113605597.506       -1266.911          36.000  
  21647429.646   113758082.302       -1266.889          39.000  
  21551308.970   113252946.728       -1266.693          40.000  
  21454310.807   112743196.710       -1266.733          37.000  
  21505884.295   113014237.871       -1266.820          40.000  
  21539000.716   113188251.273       -1266.825          39.000  
 25  8 13  9 51 19.8000000  0 30G 1G 2G 3G 4G 5G 7G 6G 8G14G 9G24G12
                                G10G11G32G26G27G19G23G16G18G29G30G17
                                G31G20G21G13G28G15
  21599805.131   113507710.471       -1266.790          44.000  
  21599743.542   113507265.222       -1266.858          49.000  
  21599810.138   113507711.828       -1266.941          49.000  
  21599692.320   113507196.127       -1266.894          49.000  
  21599595.389   113506711.006       -1266.850          49.000  
  21599632.140   113506753.252       -1266.898          45.000  
  21599705.484   113507249.279       -1266.837          49.000  
  21599712.414   113507364.166       -1266.858          49.000  
  21777297.497   114440473.101       -1267.039          39.000  
  21520000.057   113088422.890       -1266.708          37.000  
  21454353.831   112743425.059       -1266.665          38.000  
  21725427.152   114167887.323       -1267.068          37.000  
  21733050.242   114207949.993       -1266.901          36.000  
  21517953.615   113077635.375       -1267.032          36.000  
  21516774.975   113071444.250       -1266.793          41.000  
  21614656.122   113585753.773       -1266.865          37.000  
  21671799.558   113886107.705       -1266.751          38.000  
  21752683.915   114311164.033       -1267.051          36.000  
  21588575.187   113448741.345       -1267.198          37.000  
  21748581.880   114289578.353       -1266.894          36.000  
  21686455.435   113963135.774       -1266.824          39.000  
  21600004.488   113508778.733       -1267.057          32.000  
  21719862.440   114138615.820       -1266.822          39.000  
  21469595.272   112823514.714       -1266.917          41.000  
  21618465.767   113605850.863       -1267.063          36.000  
  21647477.867   113758335.647       -1266.747          38.000  
  21551357.182   113253200.079       -1266.686          40.000  
  21454358.978   112743450.061       -1266.677          37.000  
  21505932.456   113014491.220       -1266.912          40.000  
  21539048.941   113188504.624       -1266.906          39.000  
 25  8 13  9 51 20.0000000  0 30G 1G 2G 3G 4G 5G 7G 6G 8G14G 9G24G12
                                G10G11G32G26G27G19G23G16G18G29G30G17
                                G31G20G21G13G28G15
  21599853.380   113507963.858       -1267.047          44.000  
  21599791.760   113507518.604       -1267.024          49.000  
  21599857.917   113507965.217       -1267.094          49.000  
  21599740.546   113507449.512       -1267.083          49.000  
  21599644.419   113506964.391       -1267.066          49.000  
  21599680.359   113507006.635       -1267.072          45.000  
  21599753.652   113507502.666       -1267.070          49.000  
  21599760.541   113507617.553       -1267.024          49.000  
  21777345.696   114440726.490       -1267.114          39.000  
  21520048.259   113088676.281       -1267.051          37.000  
  21454402.057   112743678.446       -1267.096          38.000  
  21725475.345   114168140.714       -1267.110          37.000  
  21733098.451   114208203.375       -1267.026          36.000  
  21518001.815   113077888.760       -1267.046          36.000  
  21516823.188   113071697.640       -1267.119          41.000  
  21614704.338   113586007.159       -1267.098          37.000  
  21671847.765   113886361.084       -1266.991          38.000  
  21752732.102   114311417.416       -1267.008          36.000  
  21588623.421   113448994.735       -1267.104          37.000  
  21748630.124   114289831.740       -1267.059          36.000  
  21686503.628   113963389.164       -1267.091          39.000  
  21600052.682   113509032.115       -1267.192          32.000  
  21719910.661   114138869.209       -1267.133          39.000  
  21469643.429   112823768.097       -1267.098          41.000  
  21618513.976   113606104.245       -1267.156          36.000  
  21647526.088   113758589.033       -1267.001          38.000  
  21551405.378   113253453.465       -1267.002          40.000  
  21454407.198   112743703.450       -1267.069          38.000  
  21505980.729   113014744.601       -1267.047          41.000  
  21539097.186   113188758.011       -1267.119          39.000  
 25  8 13  9 51 20.2000000  0 30G 1G 2G 3G 4G 5G 7G 6G 8G14G 9G24G12
                                G10G11G32G26G27G19G23G16G18G29G30G17
                                G31G20G21G13G28G15
  21599901.621   113508217.226       -1267.033          44.000  
  21599839.976   113507771.970       -1266.907          49.000  
  21599905.567   113508218.574       -1266.945          49.000  
  21599788.759   113507702.871       -1266.858          49.000  
  21599693.532   113507217.750       -1266.911          49.000  
  21599728.561   113507259.989       -1266.946          45.000  
  21599801.880   113507756.029       -1266.917          49.000  
  21599808.837   113507870.913       -1266.943          49.000  
  21777393.885   114440979.840       -1266.783          39.000  
  21520096.508   113088929.648       -1267.057          37.000  
  21454450.275   112743931.815       -1267.063          38.000  
  21725523.537   114168394.058       -1266.811          37.000  
  21733146.678   114208456.769       -1267.322          36.000  
  21518049.975   113078142.095       -1266.656          36.000  
  21516871.392   113071951.009       -1267.047          41.000  
  21614752.546   113586260.508       -1266.776          37.000  
  21671895.963   113886614.460       -1267.057          38.000  
  21752780.292   114311670.775       -1266.944          36.000  
  21588671.641   113449248.107       -1267.204          37.000  
  21748678.400   114290085.120       -1267.272          36.000  
  21686551.848   113963642.528       -1266.942          39.000  
  21600100.848   113509285.463       -1266.795          32.000  
  21719958.892   114139122.583       -1267.109          39.000  
  21469691.670   112824021.456       -1266.893          41.000  
  21618562.233   113606357.582       -1266.622          36.000  
  21647574.322   113758842.391       -1266.772          38.000  
  21551453.582   113253706.826       -1266.840          40.000  
  21454455.418   112743956.811       -1266.926          38.000  
  21506028.924   113014997.954       -1266.782          41.000  
  21539145.384   113189011.357       -1266.732          39.000  
 25  8 13  9 51 20.4000000  0 30G 1G 2G 3G 4G 5G 7G 6G 8G14G 9G24G12
                                G10G11G32G26G27G19G23G16G18G29G30G17
                                G31G20G21G13G28G15
  21599949.854   113508470.622       -1266.974          44.000  
  21599888.199   113508025.346       -1266.853          49.000  
  21599952.914   113508471.957       -1266.888          49.000  
  21599836.979   113507956.249       -1266.924          49.000  
  21599742.068   113507471.129       -1266.844          49.000  
  21599776.803   113507513.370       -1266.804          45.000  
  21599850.086   113508009.403       -1266.813          49.000  
  21599857.038   113508124.293       -1266.884          48.000  
  21777442.117   114441233.220       -1266.943          39.000  
  21520144.694   113089183.027       -1266.837          38.000  
  21454498.509   112744185.200       -1266.929          38.000  
  21725571.732   114168647.433       -1266.887          37.000  
  21733194.897   114208710.131       -1266.839          36.000  
  21518098.161   113078395.474       -1266.917          36.000  
  21516919.612   113072204.383       -1266.746          41.000  
  21614800.800   113586513.893       -1266.909          37.000  
  21671944.174   113886867.839       -1266.914          39.000  
  21752828.522   114311924.150       -1266.788          36.000  
  21588719.885   113449501.470       -1266.777          37.000  
  21748726.698   114290338.488       -1266.758          36.000  
  21686600.015   113963895.910       -1266.854          39.000  
  21600149.040   113509538.836       -1266.767          32.000  
  21720007.066   114139375.953       -1266.749          39.000  
  21469739.833   112824274.835       -1266.821          41.000  
  21618610.470   113606610.962       -1266.797          36.000  
  21647622.531   113759095.776       -1266.933          38.000  
  21551501.814   113253960.212       -1266.868          40.000  
  21454503.622   112744210.202       -1266.898          38.000  
  21506077.133   113015251.337       -1266.896          41.000  
  21539193.558   113189264.740       -1266.869          38.000  
 25  8 13  9 51 20.6000000  0 30G 1G 2G 3G 4G 5G 7G 6G 8G14G 9G24G12
                                G10G11G32G26G27G19G23G16G18G29G30G17
                                G31G20G21G13G28G15
  21599998.105   113508723.995       -1266.864          44.000  
  21599936.422   113508278.736       -1266.854          49.000  
  21600000.456   113508725.342       -1266.831          49.000  
  21599885.206   113508209.637       -1266.783          49.000  
  21599790.925   113507724.516       -1266.896          49.000  
  21599825.054   113507766.761       -1266.992          45.000  
  21599898.372   113508262.799       -1266.910          49.000  
  21599905.244   113508377.676       -1266.754          48.000  
  21777490.278   114441486.607       -1266.693          39.000  
  21520192.963   113089436.419       -1266.923          38.000  
  21454546.716   112744438.578       -1266.901          38.000  
  21725619.987   114168900.824       -1266.793          37.000  
  21733243.134   114208963.527       -1266.858          36.000  
  21518146.336   113078648.866       -1266.864          36.000  
  21516967.861   113072457.783       -1266.964          41.000  
  21614849.008   113586767.284       -1266.896          37.000  
  21671992.394   113887121.223       -1266.919          39.000  
  21752876.735   114312177.540       -1266.982          36.000  
  21588768.107   113449754.873       -1266.822          37.000  
  21748774.951   114290591.880       -1266.924          36.000  
  21686648.250   113964149.296       -1266.875          39.000  
  21600197.187   113509792.246       -1267.041          32.000  
  21720055.333   114139629.348       -1266.858          39.000  
  21469788.045   112824528.224       -1266.862          41.000  
  21618658.669   113606864.353       -1266.863          36.000  
  21647670.770   113759349.163       -1266.990          38.000  
  21551550.023   113254213.599       -1266.884          40.000  
  21454551.861   112744463.576       -1266.876          38.000  
  21506125.353   113015504.730       -1266.946          41.000  
  21539241.803   113189518.123       -1266.816          38.000  
 25  8 13  9 51 20.8000000  0 30G 1G 2G 3G 4G 5G 7G 6G 8G14G 9G24G12
                                G10G11G32G26G27G19G23G16G18G29G30G17
                                G31G20G21G13G28G15
  21600046.335   113508977.364       -1266.983          44.000  
  21599984.642   113508532.106       -1266.934          49.000  
  21600047.877   113508978.719       -1267.099          49.000  
  21599933.429   113508463.016       -1267.033          49.000  
  21599839.313   113507977.888       -1266.985          49.000  
  21599873.310   113508020.122       -1266.939          45.000  
  21599946.668   113508516.169       -1267.103          48.000  
  21599953.499   113508631.049       -1267.016          48.000  
  21777538.496   114441739.990       -1267.082          39.000  
  21520241.159   113089689.789       -1266.997          38.000  
  21454594.916   112744691.947       -1266.913          38.000  
  21725668.199   114169154.203       -1267.096          37.000  
  21733291.361   114209216.900       -1267.129          36.000  
  21518194.526   113078902.241       -1267.095          36.000  
  21517016.122   113072711.149       -1267.067          41.000  
  21614897.224   113587020.658       -1267.074          37.000  
  21672040.629   113887374.600       -1267.038          39.000  
  21752924.997   114312430.911       -1267.008          36.000  
  21588816.337   113450008.256       -1267.277          37.000  
  21748823.235   114290845.256       -1267.026          36.000  
  21686696.441   113964402.671       -1267.067          39.000  
  21600245.329   113510045.617       -1267.177          32.000  
  21720103.541   114139882.724       -1267.108          39.000  
  21469836.269   112824781.594       -1267.028          41.000  
  21618706.919   113607117.731       -1267.133          36.000  
  21647718.992   113759602.529       -1267.007          38.000  
  21551598.241   113254466.968       -1266.969          40.000  
  21454600.066   112744716.949       -1266.949          38.000  
  21506173.554   113015758.098       -1267.039          41.000  
  21539290.057   113189771.495       -1266.980          38.000  
 25  8 13  9 51 21.0000000  0 30G 1G 2G 3G 4G 5G 7G 6G 8G14G 9G24G12
                                G10G11G32G26G27G19G23G16G18G29G30G17
                                G31G20G21G13G28G15
  21600094.604   113509230.745       -1266.975          44.000  
  21600032.865   113508785.474       -1266.856          49.000  
  21600095.196   113509232.078       -1266.921          49.000  
  21599981.641   113508716.375       -1266.836          49.000  
  21599887.253   113508231.253       -1266.960          49.000  
  21599921.525   113508273.492       -1266.951          45.000  
  21599994.915   113508769.530       -1266.817          48.000  
  21600001.741   113508884.421       -1266.943          48.000  
  21777586.703   114441993.333       -1266.656          39.000  
  21520289.419   113089943.165       -1267.014          38.000  
  21454643.114   112744945.324       -1266.982          38.000  
  21725716.394   114169407.538       -1266.454          37.000  
  21733339.575   114209470.258       -1266.917          36.000  
  21518242.737   113079155.594       -1266.831          36.000  
  21517064.346   113072964.509       -1266.810          41.000  
  21614945.425   113587274.026       -1266.917          37.000  
  21672088.875   113887627.971       -1266.976          39.000  
  21752973.225   114312684.272       -1266.935          36.000  
  21588864.486   113450261.592       -1266.559          37.000  
  21748871.512   114291098.619       -1266.920          36.000  
  21686744.659   113964656.037       -1266.919          39.000  
  21600293.519   113510298.957       -1266.672          32.000  
  21720151.742   114140136.081       -1266.872          39.000  
  21469884.456   112825034.959       -1266.888          41.000  
  21618755.106   113607371.084       -1266.837          36.000  
  21647767.193   113759855.899       -1266.947          38.000  
  21551646.442   113254720.340       -1266.979          40.000  
  21454648.291   112744970.329       -1267.129          38.000  
  21506221.809   113016011.463       -1266.947          41.000  
  21539338.251   113190024.862       -1266.974          38.000  
 25  8 13  9 51 21.2000000  0 30G 1G 2G 3G 4G 5G 7G 6G 8G14G 9G24G12
                                G10G11G32G26G27G19G23G16G18G29G30G17
                                G31G20G21G13G28G15
  21600142.859   113509484.107       -1266.975          44.000  
  21600081.084   113509038.855       -1266.938          49.000  
  21600143.679   113509485.464       -1266.885          49.000  
  21600029.859   113508969.762       -1266.813          49.000  
  21599934.249   113508484.637       -1266.831          49.000  
  21599969.739   113508526.876       -1266.797          45.000  
  21600043.176   113509022.912       -1266.880          48.000  
  21600050.003   113509137.798       -1267.040          48.000  
  21777634.912   114442246.717       -1266.933          39.000  
  21520337.588   113090196.505       -1267.256          38.000  
  21454691.357   112745198.690       -1267.129          38.000  
  21725764.610   114169660.965       -1266.875          37.000  
  21733387.791   114209723.601       -1267.141          36.000  
  21518291.029   113079409.046       -1266.382          36.000  
  21517112.595   113073217.886       -1267.003          40.000  
  21614993.600   113587527.386       -1267.135          37.000  
  21672137.071   113887881.351       -1266.842          38.000  
  21753021.394   114312937.664       -1266.873          36.000  
  21588912.696   113450514.986       -1266.842          37.000  
  21748919.751   114291351.977       -1267.014          36.000  
  21686792.871   113964909.421       -1266.779          39.000  
  21600341.699   113510552.384       -1266.637          32.000  
  21720200.002   114140389.455       -1266.902          39.000  
  21469932.697   112825288.374       -1266.755          41.000  
  21618803.329   113607624.497       -1266.696          36.000  
  21647815.408   113760109.284       -1266.945          38.000  
  21551694.670   113254973.781       -1266.558          40.000  
  21454696.487   112745223.695       -1266.865          38.000  
  21506270.022   113016264.842       -1266.920          41.000  
  21539386.470   113190278.245       -1266.858          38.000  
 25  8 13  9 51 21.4000000  0 30G 1G 2G 3G 4G 5G 7G 6G 8G14G 9G24G12
                                G10G11G32G26G27G19G23G16G18G29G30G17
                                G31G20G21G13G28G15
  21600191.053   113509737.474       -1266.845          44.000  
  21600129.303   113509292.219       -1266.788          49.000  
  21600192.543   113509738.833       -1266.933          49.000  
  21600078.090   113509223.133       -1266.952          49.000  
  21599981.216   113508738.007       -1266.871          49.000  
  21600017.983   113508780.247       -1266.894          45.000  
  21600091.331   113509276.280       -1266.900          49.000  
  21600098.203   113509391.163       -1266.927          48.000  
  21777683.151   114442500.095       -1267.203          39.000  
  21520385.785   113090449.862       -1266.593          38.000  
  21454739.577   112745452.053       -1266.890          38.000  
  21725812.827   114169914.327       -1267.103          37.000  
  21733436.006   114209976.970       -1266.897          36.000  
  21518339.276   113079662.427       -1267.146          36.000  
  21517160.828   113073471.249       -1266.827          40.000  
  21615041.746   113587780.750       -1266.915          37.000  
  21672185.273   113888134.718       -1266.848          38.000  
  21753069.605   114313191.028       -1266.836          37.000  
  21588960.900   113450768.352       -1266.976          38.000  
  21748967.944   114291605.339       -1266.751          37.000  
  21686841.052   113965162.787       -1266.801          39.000  
  21600389.895   113510805.758       -1267.053          33.000  
  21720248.149   114140642.823       -1266.893          38.000  
  21469980.881   112825541.745       -1267.073          41.000  
  21618851.544   113607877.867       -1266.968          35.000  
  21647863.629   113760362.649       -1266.894          38.000  
  21551742.891   113255227.154       -1267.164          39.000  
  21454744.661   112745477.073       -1266.913          38.000  
  21506318.277   113016518.213       -1266.934          41.000  
  21539434.679   113190531.620       -1266.964          38.000  
 25  8 13  9 51 21.6000000  0 30G 1G 2G 3G 4G 5G 7G 6G 8G14G 9G24G12
                                G10G11G32G26G27G19G23G16G18G29G30G17
                                G31G20G21G13G28G15
  21600239.309   113509990.866       -1266.881          44.000  
  21600177.529   113509545.608       -1266.954          49.000  
  21600241.041   113509992.217       -1266.968          49.000  
  21600126.309   113509476.520       -1266.971          49.000  
  21600028.438   113508991.396       -1266.990          49.000  
  21600066.178   113509033.638       -1266.976          45.000  
  21600139.596   113509529.674       -1267.081          49.000  
  21600146.421   113509644.548       -1266.927          48.000  
  21777731.403   114442753.467       -1266.939          39.000  
  21520434.034   113090703.260       -1266.897          38.000  
  21454787.796   112745705.441       -1266.891          38.000  
  21725861.045   114170167.708       -1266.928          38.000  
  21733484.179   114210230.350       -1266.907          36.000  
  21518387.523   113079915.800       -1266.936          36.000  
  21517209.020   113073724.641       -1266.989          40.000  
  21615089.901   113588034.134       -1266.871          38.000  
  21672233.463   113888388.115       -1267.074          38.000  
  21753117.781   114313444.414       -1266.835          37.000  
  21589009.128   113451021.728       -1266.932          38.000  
  21749016.144   114291858.735       -1267.024          37.000  
  21686889.269   113965416.183       -1267.021          39.000  
  21600438.123   113511059.134       -1266.843          33.000  
  21720296.441   114140896.210       -1266.990          38.000  
  21470029.102   112825795.121       -1266.862          41.000  
  21618899.726   113608131.250       -1266.973          35.000  
  21647911.860   113760616.040       -1266.984          38.000  
  21551791.086   113255480.531       -1266.869          39.000  
  21454792.885   112745730.464       -1267.012          38.000  
  21506366.428   113016771.609       -1267.096          40.000  
  21539482.950   113190785.007       -1266.979          38.000  
 25  8 13  9 51 21.8000000  0 30G 1G 2G 3G 4G 5G 7G 6G 8G14G 9G24G12
                                G10G11G32G26G27G19G23G16G18G29G30G17
                                G31G20G21G13G28G15
  21600287.538   113510244.243       -1266.717          44.000  
  21600225.754   113509798.980       -1266.747          49.000  
  21600289.833   113510245.588       -1266.754          49.000  
  21600174.516   113509729.890       -1266.741          49.000  
  21600075.590   113509244.768       -1266.765          49.000  
  21600114.452   113509287.013       -1266.782          45.000  
  21600187.766   113509783.036       -1266.726          49.000  
  21600194.647   113509897.924       -1266.816          48.000  
  21777779.625   114443006.837       -1266.772          39.000  
  21520482.192   113090956.632       -1266.753          38.000  
  21454836.010   112745958.814       -1266.732          38.000  
  21725909.248   114170421.078       -1266.777          38.000  
  21733532.307   114210483.715       -1266.659          36.000  
  21518435.795   113080169.177       -1266.758          36.000  
  21517257.221   113073978.011       -1266.827          40.000  
  21615138.148   113588287.504       -1266.721          38.000  
  21672281.703   113888641.481       -1266.748          38.000  
  21753165.952   114313697.784       -1266.629          37.000  
  21589057.347   113451275.090       -1266.708          38.000  
  21749064.328   114292112.104       -1266.719          37.000  
  21686937.490   113965669.556       -1266.812          39.000  
  21600486.358   113511312.513       -1266.913          33.000  
  21720344.669   114141149.584       -1266.781          38.000  
  21470077.304   112826048.493       -1266.754          41.000  
  21618947.910   113608384.622       -1266.666          35.000  
  21647960.050   113760869.413       -1266.810          38.000  
  21551839.265   113255733.906       -1266.779          39.000  
  21454841.096   112745983.844       -1266.807          38.000  
  21506414.646   113017024.976       -1266.731          40.000  
  21539531.131   113191038.382       -1266.818          38.000  
 25  8 13  9 51 22.0000000  0 30G 1G 2G 3G 4G 5G 7G 6G 8G14G 9G24G12
                                G10G11G32G26G27G19G23G16G18G29G30G17
                                G31G20G21G13G28G15
  21600335.794   113510497.586       -1266.826          44.000  
  21600273.972   113510052.337       -1266.951          49.000  
  21600338.548   113510498.932       -1266.746          49.000  
  21600222.724   113509983.239       -1266.916          49.000  
  21600123.337   113509498.103       -1266.717          49.000  
  21600162.654   113509540.347       -1266.791          45.000  
  21600235.960   113510036.389       -1266.870          49.000  
  21600242.927   113510151.276       -1267.025          48.000  
  21777827.842   114443260.206       -1267.258          39.000  
  21520530.440   113091210.043       -1267.751          38.000  
  21454884.228   112746212.182       -1267.159          38.000  
  21725957.415   114170674.397       -1266.439          38.000  
  21733580.464   114210737.144       -1268.000          36.000  
  21518484.020   113080422.430       -1265.548          36.000  
  21517305.456   113074231.364       -1266.975          40.000  
  21615186.408   113588540.904       -1267.632          38.000  
  21672329.955   113888894.835       -1266.927          38.000  
  21753214.218   114313951.143       -1266.966          37.000  
  21589105.547   113451528.447       -1266.812          38.000  
  21749112.528   114292365.454       -1266.891          37.000  
  21686985.707   113965922.900       -1266.819          39.000  
  21600534.617   113511565.791       -1265.974          33.000  
  21720392.889   114141402.940       -1266.987          38.000  
  21470125.517   112826301.817       -1266.569          41.000  
  21618996.163   113608637.961       -1266.730          35.000  
  21648008.261   113761122.744       -1266.718          38.000  
  21551887.475   113255987.197       -1266.124          39.000  
  21454889.312   112746237.176       -1266.779          38.000  
  21506462.868   113017278.327       -1266.952          40.000  
  21539579.378   113191291.704       -1266.600          38.000  
 25  8 13  9 51 22.2000000  0 30G 1G 2G 3G 4G 5G 7G 6G 8G14G 9G24G12
                                G10G11G32G26G27G19G23G16G18G29G30G17
                                G31G20G21G13G28G15
  21600384.012   113510750.924       -1266.600          44.000  
  21600322.180   113510305.673       -1266.607          49.000  
  21600385.889   113510752.276       -1266.605          49.000  
  21600270.924   113510236.577       -1266.524          49.000  
  21600172.352   113509751.449       -1266.645          49.000  
  21600210.855   113509793.696       -1266.631          45.000  
  21600284.154   113510289.730       -1266.615          49.000  
  21600291.079   113510404.615       -1266.607          48.000  
  21777876.059   114443513.542       -1266.686          39.000  
  21520578.635   113091463.360       -1266.542          38.000  
  21454932.456   112746465.514       -1266.550          38.000  
  21726005.587   114170927.758       -1266.702          38.000  
  21733628.671   114210990.456       -1266.480          35.000  
  21518532.228   113080675.816       -1266.802          36.000  
  21517353.641   113074484.709       -1266.626          40.000  
  21615234.641   113588794.224       -1266.515          38.000  
  21672378.166   113889148.172       -1266.597          38.000  
  21753262.404   114314204.476       -1266.617          37.000  
  21589153.767   113451781.799       -1266.717          38.000  
  21749160.771   114292618.797       -1266.625          37.000  
  21687033.895   113966176.239       -1266.562          39.000  
  21600582.868   113511819.166       -1266.743          33.000  
  21720441.087   114141656.280       -1266.541          39.000  
  21470173.774   112826555.175       -1266.625          41.000  
  21619044.357   113608891.307       -1266.598          36.000  
  21648056.460   113761376.093       -1266.671          38.000  
  21551935.704   113256240.559       -1266.648          41.000  
  21454937.547   112746490.516       -1266.565          38.000  
  21506511.025   113017531.669       -1266.599          40.000  
  21539627.578   113191545.050       -1266.589          38.000  
 25  8 13  9 51 22.4000000  0 30G 1G 2G 3G 4G 5G 7G 6G 8G14G 9G24G12
                                G10G11G32G26G27G19G23G16G18G29G30G17
                                G31G20G21G13G28G15
  21600432.244   113511004.278       -1266.851          44.000  
  21600370.388   113510559.019       -1266.717          49.000  
  21600433.482   113511005.627       -1266.766          49.000  
  21600319.151   113510489.929       -1266.694          49.000  
  21600221.137   113510004.798       -1266.834          49.000  
  21600259.088   113510047.046       -1266.868          45.000  
  21600332.388   113510543.081       -1266.785          49.000  
  21600339.310   113510657.968       -1266.813          48.000  
  21777924.241   114443766.890       -1266.800          40.000  
  21520626.867   113091716.713       -1266.693          38.000  
  21454980.664   112746718.871       -1266.844          38.000  
  21726053.785   114171181.106       -1266.813          38.000  
  21733676.888   114211243.817       -1266.685          35.000  
  21518580.392   113080929.157       -1266.949          36.000  
  21517401.863   113074738.059       -1266.807          40.000  
  21615282.896   113589047.582       -1266.758          37.000  
  21672426.430   113889401.527       -1266.805          38.000  
  21753310.648   114314457.823       -1266.661          37.000  
  21589201.948   113452035.146       -1266.747          38.000  
  21749208.984   114292872.144       -1266.774          37.000  
  21687082.102   113966429.592       -1266.750          39.000  
  21600631.091   113512072.499       -1266.699          33.000  
  21720489.289   114141909.635       -1266.857          39.000  
  21470222.004   112826808.523       -1266.866          41.000  
  21619092.585   113609144.659       -1266.779          36.000  
  21648104.691   113761629.438       -1266.789          38.000  
  21551983.927   113256493.902       -1266.836          40.000  
  21454985.728   112746743.869       -1266.886          38.000  
  21506559.271   113017785.019       -1266.895          41.000  
  21539675.767   113191798.398       -1266.754          38.000  
 25  8 13  9 51 22.6000000  0 30G 1G 2G 3G 4G 5G 7G 6G 8G14G 9G24G12
                                G10G11G32G26G27G19G23G16G18G29G30G17
                                G31G20G21G13G28G15
  21600480.475   113511257.616       -1266.462          44.000  
  21600418.592   113510812.357       -1266.504          49.000  
  21600481.294   113511258.961       -1266.489          49.000  
  21600367.362   113510743.265       -1266.442          49.000  
  21600269.799   113510258.135       -1266.534          49.000  
  21600307.267   113510300.384       -1266.572          45.000  
  21600380.603   113510796.418       -1266.586          49.000  
  21600387.522   113510911.303       -1266.548          48.000  
  21777972.433   114444020.230       -1266.513          40.000  
  21520675.054   113091970.050       -1266.503          38.000  
  21455028.902   112746972.206       -1266.506          38.000  
  21726101.988   114171434.439       -1266.542          38.000  
  21733725.036   114211497.151       -1266.579          35.000  
  21518628.654   113081182.492       -1266.451          36.000  
  21517450.082   113074991.394       -1266.592          40.000  
  21615331.133   113589300.915       -1266.488          37.000  
  21672474.658   113889654.862       -1266.529          39.000  
  21753358.859   114314711.164       -1266.640          37.000  
  21589250.187   113452288.477       -1266.535          38.000  
  21749257.185   114293125.478       -1266.530          36.000  
  21687130.277   113966682.928       -1266.536          39.000  
  21600679.314   113512325.846       -1266.698          33.000  
  21720537.553   114142162.964       -1266.562          39.000  
  21470270.235   112827061.857       -1266.605          41.000  
  21619140.780   113609398.001       -1266.585          36.000  
  21648152.871   113761882.776       -1266.515          38.000  
  21552032.150   113256747.239       -1266.481          41.000  
  21455033.936   112746997.209       -1266.505          38.000  
  21506607.411   113018038.354       -1266.565          41.000  
  21539724.030   113192051.740       -1266.534          39.000  
 25  8 13  9 51 22.8000000  0 30G 1G 2G 3G 4G 5G 7G 6G 8G14G 9G24G12
                                G10G11G32G26G27G19G23G16G18G29G30G17
                                G31G20G21G13G28G15
  21600528.692   113511510.941       -1266.582          44.000  
  21600466.798   113511065.675       -1266.457          49.000  
  21600528.961   113511512.289       -1266.670          49.000  
  21600415.592   113510996.588       -1266.546          49.000  
  21600318.475   113510511.460       -1266.649          49.000  
  21600355.509   113510553.702       -1266.607          45.000  
  21600428.838   113511049.736       -1266.613          49.000  
  21600435.750   113511164.627       -1266.652          48.000  
  21778020.639   114444273.552       -1266.678          40.000  
  21520723.249   113092223.370       -1266.578          38.000  
  21455077.101   112747225.523       -1266.559          38.000  
  21726150.181   114171687.768       -1266.691          38.000  
  21733773.230   114211750.474       -1266.633          35.000  
  21518676.842   113081435.822       -1266.615          36.000  
  21517498.306   113075244.720       -1266.752          40.000  
  21615379.391   113589554.245       -1266.642          37.000  
  21672522.887   113889908.180       -1266.566          39.000  
  21753407.127   114314964.488       -1266.710          37.000  
  21589298.361   113452541.805       -1266.818          38.000  
  21749305.360   114293378.800       -1266.624          36.000  
  21687178.454   113966936.247       -1266.533          39.000  
  21600727.551   113512579.176       -1266.770          33.000  
  21720585.720   114142416.287       -1266.604          39.000  
  21470318.401   112827315.183       -1266.731          41.000  
  21619188.986   113609651.319       -1266.638          36.000  
  21648201.080   113762136.102       -1266.685          38.000  
  21552080.352   113257000.557       -1266.566          40.000  
  21455082.143   112747250.525       -1266.580          38.000  
  21506655.656   113018291.672       -1266.608          41.000  
  21539772.260   113192305.064       -1266.642          38.000  
 25  8 13  9 51 23.0000000  0 30G 1G 2G 3G 4G 5G 7G 6G 8G14G 9G24G12
                                G10G11G32G26G27G19G23G16G18G29G30G17
                                G31G20G21G13G28G15
  21600576.910   113511764.254       -1266.803          44.000  
  21600515.006   113511318.993       -1266.662          49.000  
  21600577.866   113511765.608       -1266.760          49.000  
  21600463.808   113511249.911       -1266.666          49.000  
  21600366.717   113510764.785       -1266.691          49.000  
  21600403.705   113510807.029       -1266.716          45.000  
  21600477.055   113511303.062       -1266.759          49.000  
  21600483.960   113511417.940       -1266.836          48.000  
  21778068.852   114444526.874       -1266.753          40.000  
  21520771.434   113092476.660       -1266.986          38.000  
  21455125.287   112747478.837       -1266.906          38.000  
  21726198.397   114171941.094       -1266.660          38.000  
  21733821.437   114212003.792       -1266.935          35.000  
  21518725.067   113081689.161       -1266.616          36.000  
  21517546.495   113075498.018       -1266.781          40.000  
  21615427.550   113589807.538       -1266.937          37.000  
  21672571.103   113890161.512       -1266.783          38.000  
  21753455.365   114315217.806       -1266.686          37.000  
  21589346.576   113452795.133       -1266.652          38.000  
  21749353.534   114293632.122       -1266.800          36.000  
  21687226.677   113967189.578       -1266.762          39.000  
  21600775.744   113512832.527       -1266.217          33.000  
  21720633.943   114142669.610       -1266.740          39.000  
  21470366.596   112827568.508       -1266.665          41.000  
  21619237.188   113609904.632       -1266.870          36.000  
  21648249.332   113762389.423       -1266.774          38.000  
  21552128.542   113257253.907       -1266.549          40.000  
  21455130.337   112747503.851       -1266.738          38.000  
  21506703.841   113018544.992       -1266.783          41.000  
  21539820.497   113192558.397       -1266.592          38.000  
 25  8 13  9 51 23.2000000  0 30G 1G 2G 3G 4G 5G 7G 6G 8G14G 9G24G12
                                G10G11G32G26G27G19G23G16G18G29G30G17
                                G31G20G21G13G28G15
  21600625.094   113512017.558       -1266.636          44.000  
  21600563.209   113511572.311       -1266.751          49.000  
  21600626.876   113512018.917       -1266.667          49.000  
  21600512.011   113511503.227       -1266.711          49.000  
  21600414.762   113511018.099       -1266.758          49.000  
  21600451.912   113511060.338       -1266.720          45.000  
  21600525.249   113511556.375       -1266.705          49.000  
  21600532.190   113511671.251       -1266.720          48.000  
  21778117.056   114444780.184       -1266.720          39.000  
  21520819.608   113092729.964       -1266.537          38.000  
  21455173.514   112747732.143       -1266.670          38.000  
  21726246.587   114172194.410       -1266.758          37.000  
  21733869.644   114212257.102       -1266.739          35.000  
  21518773.243   113081942.476       -1266.780          36.000  
  21517594.666   113075751.332       -1266.663          41.000  
  21615475.710   113590060.847       -1266.642          38.000  
  21672619.335   113890414.821       -1266.752          38.000  
  21753503.579   114315471.120       -1266.698          37.000  
  21589394.803   113453048.447       -1266.727          38.000  
  21749401.709   114293885.432       -1266.725          36.000  
  21687274.907   113967442.889       -1266.758          39.000  
  21600823.882   113513085.855       -1266.997          33.000  
  21720682.106   114142922.922       -1266.738          39.000  
  21470414.822   112827821.822       -1266.726          41.000  
  21619285.391   113610157.935       -1266.644          36.000  
  21648297.533   113762642.734       -1266.727          38.000  
  21552176.756   113257507.221       -1266.814          40.000  
  21455178.514   112747757.159       -1266.733          38.000  
  21506752.084   113018798.303       -1266.714          40.000  
  21539868.719   113192811.711       -1266.780          38.000  
 25  8 13  9 51 23.4000000  0 30G 1G 2G 3G 4G 5G 7G 6G 8G14G 9G24G12
                                G10G11G32G26G27G19G23G16G18G29G30G17
                                G31G20G21G13G28G15
  21600673.348   113512270.878       -1266.645          44.000  
  21600611.421   113511825.623       -1266.588          49.000  
  21600675.721   113512272.235       -1266.598          49.000  
  21600560.205   113511756.541       -1266.645          49.000  
  21600462.758   113511271.414       -1266.573          49.000  
  21600500.170   113511313.661       -1266.549          45.000  
  21600573.519   113511809.687       -1266.561          49.000  
  21600580.335   113511924.566       -1266.560          48.000  
  21778165.241   114445033.501       -1266.612          39.000  
  21520867.903   113092983.289       -1266.582          38.000  
  21455221.687   112747985.465       -1266.676          38.000  
  21726294.787   114172447.720       -1266.556          37.000  
  21733917.858   114212510.413       -1266.565          35.000  
  21518821.434   113082195.787       -1266.533          36.000  
  21517642.841   113076004.650       -1266.626          41.000  
  21615523.864   113590314.166       -1266.557          38.000  
  21672667.567   113890668.137       -1266.631          38.000  
  21753551.779   114315724.438       -1266.597          37.000  
  21589442.994   113453301.765       -1266.583          38.000  
  21749449.944   114294138.751       -1266.703          36.000  
  21687323.119   113967696.201       -1266.588          39.000  
  21600872.030   113513339.156       -1266.497          33.000  
  21720730.297   114143176.239       -1266.593          39.000  
  21470463.028   112828075.137       -1266.593          41.000  
  21619333.547   113610411.255       -1266.543          36.000  
  21648345.709   113762896.054       -1266.670          38.000  
  21552224.955   113257760.535       -1266.581          40.000  
  21455226.684   112748010.473       -1266.471          38.000  
  21506800.281   113019051.616       -1266.552          40.000  
  21539916.899   113193065.026       -1266.600          38.000  
 25  8 13  9 51 23.6000000  0 30G 1G 2G 3G 4G 5G 7G 6G 8G14G 9G24G12
                                G10G11G32G26G27G19G23G16G18G29G30G17
                                G31G20G21G13G28G15
  21600721.586   113512524.183       -1266.469          44.000  
  21600659.632   113512078.934       -1266.508          49.000  
  21600724.798   113512525.542       -1266.451          49.000  
  21600608.397   113512009.850       -1266.521          49.000  
  21600510.729   113511524.724       -1266.530          49.000  
  21600548.375   113511566.973       -1266.729          45.000  
  21600621.725   113512063.000       -1266.480          49.000  
  21600628.531   113512177.879       -1266.558          49.000  
  21778213.446   114445286.808       -1266.543          39.000  
  21520916.069   113093236.599       -1266.534          38.000  
  21455269.905   112748238.771       -1266.577          38.000  
  21726342.972   114172701.029       -1266.421          37.000  
  21733966.102   114212763.722       -1266.449          35.000  
  21518869.596   113082449.098       -1266.455          36.000  
  21517691.039   113076257.962       -1266.567          41.000  
  21615572.015   113590567.475       -1266.515          38.000  
  21672715.773   113890921.445       -1266.567          38.000  
  21753599.982   114315977.746       -1266.527          37.000  
  21589491.249   113453555.074       -1266.473          38.000  
  21749498.126   114294392.056       -1266.523          36.000  
  21687371.326   113967949.513       -1266.474          39.000  
  21600920.222   113513592.476       -1266.664          33.000  
  21720778.497   114143429.547       -1266.489          38.000  
  21470511.242   112828328.448       -1266.570          41.000  
  21619381.726   113610664.567       -1266.560          36.000  
  21648393.899   113763149.359       -1266.548          38.000  
  21552273.129   113258013.846       -1266.566          40.000  
  21455274.878   112748263.787       -1266.603          38.000  
  21506848.463   113019304.928       -1266.527          40.000  
  21539965.107   113193318.337       -1266.570          38.000  
 25  8 13  9 51 23.8000000  0 30G 1G 2G 3G 4G 5G 7G 6G 8G14G 9G24G12
                                G10G11G32G26G27G19G23G16G18G29G30G17
                                G31G20G21G13G28G15
  21600769.815   113512777.501       -1266.530          44.000  
  21600707.841   113512332.240       -1266.562          49.000  
  21600773.555   113512778.848       -1266.591          49.000  
  21600656.606   113512263.154       -1266.465          49.000  
  21600558.701   113511778.022       -1266.408          49.000  
  21600596.588   113511820.269       -1266.477          45.000  
  21600669.942   113512316.304       -1266.513          49.000  
  21600676.689   113512431.182       -1266.558          49.000  
  21778261.668   114445540.121       -1266.929          39.000  
  21520964.297   113093489.930       -1266.875          38.000  
  21455318.116   112748492.070       -1266.304          38.000  
  21726391.144   114172954.344       -1266.821          37.000  
  21734014.336   114213017.054       -1267.037          35.000  
  21518917.785   113082702.402       -1266.595          36.000  
  21517739.267   113076511.266       -1266.647          41.000  
  21615620.246   113590820.794       -1266.851          38.000  
  21672764.007   113891174.739       -1266.291          38.000  
  21753648.185   114316231.044       -1266.529          37.000  
  21589539.443   113453808.377       -1266.833          37.000  
  21749546.324   114294645.355       -1266.382          36.000  
  21687419.522   113968202.829       -1266.678          39.000  
  21600968.435   113513845.774       -1266.843          32.000  
  21720826.653   114143682.847       -1266.534          38.000  
  21470559.464   112828581.741       -1266.423          41.000  
  21619429.988   113610917.866       -1266.612          36.000  
  21648442.069   113763402.651       -1266.217          38.000  
  21552321.352   113258267.128       -1266.207          40.000  
  21455323.078   112748517.094       -1266.259          38.000  
  21506896.681   113019558.234       -1266.519          40.000  
  21540013.328   113193571.626       -1266.338          38.000  
 25  8 13  9 51 24.0000000  0 30G 1G 2G 3G 4G 5G 7G 6G 8G14G 9G24G12
                                G10G11G32G26G27G19G23G16G18G29G30G17
                                G31G20G21G13G28G15
  21600818.062   113513030.788       -1266.543          44.000  
  21600756.048   113512585.528       -1266.452          49.000  
  21600821.627   113513032.132       -1266.474          49.000  
  21600704.795   113512516.443       -1266.477          49.000  
  21600606.792   113512031.318       -1266.547          49.000  
  21600644.797   113512073.562       -1266.430          45.000  
  21600718.177   113512569.594       -1266.462          49.000  
  21600724.900   113512684.471       -1266.437          49.000  
  21778309.816   114445793.380       -1266.177          39.000  
  21521012.506   113093743.209       -1266.516          38.000  
  21455366.369   112748745.372       -1266.603          38.000  
  21726439.372   114173207.610       -1266.271          37.000  
  21734062.512   114213270.324       -1266.404          36.000  
  21518966.007   113082955.685       -1266.465          36.000  
  21517787.486   113076764.548       -1266.407          41.000  
  21615668.459   113591074.074       -1266.441          37.000  
  21672812.205   113891428.041       -1266.585          38.000  
  21753696.319   114316484.330       -1266.417          36.000  
  21589587.655   113454061.642       -1266.218          37.000  
  21749594.522   114294898.652       -1266.559          36.000  
  21687467.757   113968456.113       -1266.412          39.000  
  21601016.611   113514099.041       -1266.118          32.000  
  21720874.907   114143936.132       -1266.405          39.000  
  21470607.648   112828835.029       -1266.405          41.000  
  21619478.214   113611171.150       -1266.389          36.000  
  21648490.276   113763655.952       -1266.511          38.000  
  21552369.549   113258520.430       -1266.638          40.000  
  21455371.287   112748770.396       -1266.731          37.000  
  21506944.806   113019811.519       -1266.427          40.000  
  21540061.526   113193824.917       -1266.448          38.000  
 25  8 13  9 51 24.2000000  0 30G 1G 2G 3G 4G 5G 7G 6G 8G14G 9G24G12
                                G10G11G32G26G27G19G23G16G18G29G30G17
                                G31G20G21G13G28G15
  21600866.280   113513284.077       -1266.590          44.000  
  21600804.252   113512838.818       -1266.550          49.000  
  21600869.323   113513285.423       -1266.525          49.000  
  21600752.998   113512769.730       -1266.526          49.000  
  21600654.955   113512284.598       -1266.508          49.000  
  21600693.006   113512326.846       -1266.593          45.000  
  21600766.367   113512822.879       -1266.499          49.000  
  21600773.112   113512937.760       -1266.571          49.000  
  21778358.014   114446046.683       -1266.323          39.000  
  21521060.680   113093996.490       -1266.471          37.000  
  21455414.527   112748998.651       -1266.608          38.000  
  21726487.589   114173460.909       -1266.342          37.000  
  21734110.702   114213523.616       -1266.547          36.000  
  21519014.189   113083208.973       -1266.560          36.000  
  21517835.669   113077017.837       -1266.471          41.000  
  21615716.709   113591327.367       -1266.578          37.000  
  21672860.414   113891681.322       -1266.566          38.000  
  21753744.523   114316737.625       -1266.543          36.000  
  21589635.843   113454314.945       -1266.469          37.000  
  21749642.693   114295151.941       -1266.639          36.000  
  21687515.969   113968709.401       -1266.498          39.000  
  21601064.813   113514352.346       -1266.445          32.000  
  21720923.056   114144189.424       -1266.518          39.000  
  21470655.836   112829088.316       -1266.545          41.000  
  21619526.444   113611424.445       -1266.530          36.000  
  21648538.477   113763909.235       -1266.546          38.000  
  21552417.760   113258773.705       -1266.531          40.000  
  21455419.515   112749023.659       -1266.489          37.000  
  21506993.038   113020064.807       -1266.500          40.000  
  21540109.736   113194078.201       -1266.483          38.000  
 25  8 13  9 51 24.4000000  0 30G 1G 2G 3G 4G 5G 7G 6G 8G14G 9G24G12
                                G10G11G32G26G27G19G23G16G18G29G30G17
                                G31G20G21G13G28G15
  21600914.521   113513537.367       -1266.597          44.000  
  21600852.467   113513092.116       -1266.564          49.000  
  21600916.985   113513538.730       -1266.699          49.000  
  21600801.206   113513023.030       -1266.584          49.000  
  21600703.240   113512537.899       -1266.637          49.000  
  21600741.234   113512580.144       -1266.533          45.000  
  21600814.540   113513076.183       -1266.637          49.000  
  21600821.332   113513191.062       -1266.649          48.000  
  21778406.181   114446299.999       -1266.607          39.000  
  21521108.927   113094249.790       -1266.620          37.000  
  21455462.703   112749251.949       -1266.655          38.000  
  21726535.800   114173714.223       -1266.643          37.000  
  21734158.877   114213776.924       -1266.671          36.000  
  21519062.410   113083462.274       -1266.589          36.000  
  21517883.885   113077271.140       -1266.650          41.000  
  21615764.888   113591580.663       -1266.584          37.000  
  21672908.619   113891934.620       -1266.600          39.000  
  21753792.731   114316990.925       -1266.725          36.000  
  21589684.063   113454568.253       -1266.668          37.000  
  21749690.902   114295405.233       -1266.595          35.000  
  21687564.208   113968962.704       -1266.686          39.000  
  21601113.010   113514605.654       -1266.603          32.000  
  21720971.291   114144442.727       -1266.630          39.000  
  21470704.057   112829341.617       -1266.597          41.000  
  21619574.684   113611677.751       -1266.672          36.000  
  21648586.683   113764162.535       -1266.626          38.000  
  21552465.983   113259027.005       -1266.615          40.000  
  21455467.738   112749276.959       -1266.577          37.000  
  21507041.200   113020318.111       -1266.604          40.000  
  21540157.962   113194331.509       -1266.598          38.000  
 25  8 13  9 51 24.6000000  0 30G 1G 2G 3G 4G 5G 7G 6G 8G14G 9G24G12
                                G10G11G32G26G27G19G23G16G18G29G30G17
                                G31G20G21G13G28G15
  21600962.773   113513790.677       -1266.699          44.000  
  21600900.680   113513345.413       -1266.521          49.000  
  21600965.266   113513792.017       -1266.492          49.000  
  21600849.413   113513276.316       -1266.504          49.000  
  21600751.555   113512791.195       -1266.560          49.000  
  21600789.461   113512833.437       -1266.529          45.000  
  21600862.726   113513329.470       -1266.511          49.000  
  21600869.567   113513444.354       -1266.569          48.000  
  21778454.387   114446553.272       -1266.254          39.000  
  21521157.068   113094503.086       -1266.570          37.000  
  21455510.905   112749505.246       -1266.622          38.000  
  21726584.029   114173967.501       -1266.359          37.000  
  21734207.047   114214030.211       -1266.489          36.000  
  21519110.577   113083715.570       -1266.575          36.000  
  21517932.100   113077524.429       -1266.476          41.000  
  21615813.106   113591833.958       -1266.498          37.000  
  21672956.809   113892187.913       -1266.543          39.000  
  21753840.951   114317244.217       -1266.600          36.000  
  21589732.271   113454821.535       -1266.485          37.000  
  21749739.120   114295658.534       -1266.614          35.000  
  21687612.415   113969215.997       -1266.540          39.000  
  21601161.186   113514858.928       -1266.374          32.000  
  21721019.481   114144696.015       -1266.502          39.000  
  21470752.236   112829594.905       -1266.503          41.000  
  21619622.864   113611931.036       -1266.525          36.000  
  21648634.840   113764415.832       -1266.640          37.000  
  21552514.190   113259280.299       -1266.578          40.000  
  21455515.915   112749530.264       -1266.693          37.000  
  21507089.411   113020571.398       -1266.459          40.000  
  21540206.174   113194584.795       -1266.527          38.000  
 25  8 13  9 51 24.8000000  0 30G 1G 2G 3G 4G 5G 7G 6G 8G14G 9G24G12
                                G10G11G32G26G27G19G23G16G18G29G30G17
                                G31G20G21G13G28G15
  21601010.994   113514043.955       -1266.569          44.000  
  21600948.885   113513598.706       -1266.514          49.000  
  21601013.632   113514045.316       -1266.395          49.000  
  21600897.617   113513529.614       -1266.591          49.000  
  21600800.306   113513044.492       -1266.528          49.000  
  21600837.679   113513086.726       -1266.590          45.000  
  21600910.918   113513582.763       -1266.655          49.000  
  21600917.751   113513697.647       -1266.515          48.000  
  21778502.575   114446806.576       -1266.546          39.000  
  21521205.333   113094756.374       -1266.526          38.000  
  21455559.094   112749758.551       -1266.433          38.000  
  21726632.218   114174220.785       -1266.502          37.000  
  21734255.205   114214283.475       -1266.841          36.000  
  21519158.773   113083968.850       -1266.583          36.000  
  21517980.290   113077777.738       -1266.360          41.000  
  21615861.305   113592087.249       -1266.497          37.000  
  21673005.042   113892441.203       -1266.802          38.000  
  21753889.121   114317497.496       -1266.389          36.000  
  21589780.474   113455074.820       -1266.290          37.000  
  21749787.318   114295911.835       -1266.378          36.000  
  21687660.604   113969469.264       -1266.793          39.000  
  21601209.401   113515112.189       -1266.392          32.000  
  21721067.702   114144949.306       -1266.598          38.000  
  21470800.439   112829848.209       -1266.439          41.000  
  21619671.064   113612184.341       -1266.339          36.000  
  21648683.070   113764669.129       -1266.526          38.000  
  21552562.403   113259533.581       -1266.555          40.000  
  21455564.121   112749783.559       -1266.678          37.000  
  21507137.628   113020824.698       -1266.620          40.000  
  21540254.425   113194838.121       -1266.376          38.000  
 25  8 13  9 51 25.0000000  0 30G 1G 2G 3G 4G 5G 7G 6G 8G14G 9G24G12
                                G10G11G32G26G27G19G23G16G18G29G30G17
                                G31G20G21G13G28G15
  21601059.247   113514297.243       -1266.373          44.000  
  21600997.090   113513851.993       -1266.393          49.000  
  21601062.093   113514298.600       -1266.399          49.000  
  21600945.802   113513782.894       -1266.350          49.000  
  21600848.891   113513297.777       -1266.366          49.000  
  21600885.856   113513340.014       -1266.452          45.000  
  21600959.061   113513836.040       -1266.318          49.000  
  21600965.927   113513950.928       -1266.349          48.000  
  21778550.774   114447059.859       -1266.375          39.000  
  21521253.479   113095009.660       -1266.339          38.000  
  21455607.318   112750011.840       -1266.521          38.000  
  21726680.389   114174474.069       -1266.327          37.000  
  21734303.378   114214536.748       -1266.205          36.000  
  21519206.965   113084222.133       -1266.321          36.000  
  21518028.470   113078031.022       -1266.345          41.000  
  21615909.489   113592340.532       -1266.379          37.000  
  21673053.192   113892694.478       -1266.333          38.000  
  21753937.343   114317750.788       -1266.301          36.000  
  21589828.699   113455328.117       -1266.444          37.000  
  21749835.525   114296165.121       -1266.360          36.000  
  21687708.751   113969722.546       -1266.343          39.000  
  21601257.618   113515365.482       -1266.247          32.000  
  21721115.869   114145202.586       -1266.341          38.000  
  21470848.636   112830101.495       -1266.459          41.000  
  21619719.326   113612437.632       -1266.465          36.000  
  21648731.297   113764922.412       -1266.427          38.000  
  21552610.603   113259786.865       -1266.315          40.000  
  21455612.312   112750036.836       -1266.375          37.000  
  21507185.815   113021077.973       -1266.360          40.000  
  21540302.623   113195091.406       -1266.512          38.000  
 25  8 13  9 51 25.2000000  0 30G 1G 2G 3G 4G 5G 7G 6G 8G14G 9G24G12
                                G10G11G32G26G27G19G23G16G18G29G30G17
                                G31G20G21G13G28G15
  21601107.453   113514550.517       -1266.290          45.000  
  21601045.293   113514105.268       -1266.353          49.000  
  21601110.097   113514551.876       -1266.211          49.000  
  21600994.014   113514036.168       -1266.114          49.000  
  21600897.594   113513551.055       -1266.314          49.000  
  21600934.088   113513593.282       -1266.249          45.000  
  21601007.284   113514089.320       -1266.220          49.000  
  21601014.136   113514204.210       -1266.394          48.000  
  21778598.981   114447313.143       -1266.418          39.000  
  21521301.705   113095262.935       -1266.240          38.000  
  21455655.513   112750265.103       -1266.104          38.000  
  21726728.581   114174727.351       -1266.350          37.000  
  21734351.588   114214790.039       -1266.397          36.000  
  21519255.167   113084475.412       -1266.246          36.000  
  21518076.675   113078284.299       -1266.240          41.000  
  21615957.684   113592593.806       -1266.292          38.000  
  21673101.412   113892947.752       -1266.196          38.000  
  21753985.545   114318004.059       -1266.201          36.000  
  21589876.881   113455581.391       -1266.286          37.000  
  21749883.728   114296418.396       -1266.193          36.000  
  21687756.947   113969975.823       -1266.277          39.000  
  21601305.814   113515618.754       -1266.235          33.000  
  21721164.075   114145455.862       -1266.185          38.000  
  21470896.811   112830354.768       -1266.265          41.000  
  21619767.548   113612690.903       -1266.266          36.000  
  21648779.458   113765175.688       -1266.256          38.000  
  21552658.820   113260040.146       -1266.274          40.000  
  21455660.501   112750290.106       -1266.161          38.000  
  21507234.035   113021331.250       -1266.208          40.000  
  21540350.758   113195344.680       -1266.265          39.000  
 25  8 13  9 51 25.4000000  0 30G 1G 2G 3G 4G 5G 7G 6G 8G14G 9G24G12
                                G10G11G32G26G27G19G23G16G18G29G30G17
                                G31G20G21G13G28G15
  21601155.673   113514803.795       -1266.474          45.000  
  21601093.489   113514358.550       -1266.481          49.000  
  21601157.806   113514805.171       -1266.658          49.000  
  21601042.226   113514289.457       -1266.523          49.000  
  21600946.095   113513804.337       -1266.585          49.000  
  21600982.301   113513846.567       -1266.357          45.000  
  21601055.534   113514342.609       -1266.628          49.000  
  21601062.378   113514457.490       -1266.440          48.000  
  21778647.194   114447566.422       -1266.545          39.000  
  21521349.868   113095516.220       -1266.531          38.000  
  21455703.703   112750518.394       -1266.520          38.000  
  21726776.743   114174980.631       -1266.501          37.000  
  21734399.765   114215043.314       -1266.645          36.000  
  21519303.370   113084728.698       -1266.580          36.000  
  21518124.880   113078537.585       -1266.565          41.000  
  21616005.871   113592847.088       -1266.458          38.000  
  21673149.566   113893201.038       -1266.589          38.000  
  21754033.763   114318257.353       -1266.563          36.000  
  21589925.109   113455834.681       -1266.561          38.000  
  21749931.953   114296671.689       -1266.589          37.000  
  21687805.152   113970229.110       -1266.609          39.000  
  21601353.976   113515872.041       -1266.362          33.000  
  21721212.281   114145709.153       -1266.570          38.000  
  21470945.011   112830608.055       -1266.564          41.000  
  21619815.792   113612944.194       -1266.611          36.000  
  21648827.696   113765428.978       -1266.580          39.000  
  21552707.021   113260293.431       -1266.531          40.000  
  21455708.691   112750543.398       -1266.549          38.000  
  21507282.218   113021584.537       -1266.550          40.000  
  21540398.958   113195597.970       -1266.630          39.000  
 25  8 13  9 51 25.6000000  0 30G 1G 2G 3G 4G 5G 7G 6G 8G14G 9G24G12
                                G10G11G32G26G27G19G23G16G18G29G30G17
                                G31G20G21G13G28G15
  21601203.923   113515057.071       -1266.577          45.000  
  21601141.690   113514611.813       -1266.339          49.000  
  21601205.913   113515058.434       -1266.453          49.000  
  21601090.426   113514542.726       -1266.429          49.000  
  21600994.996   113514057.593       -1266.305          49.000  
  21601030.515   113514099.843       -1266.606          45.000  
  21601103.747   113514595.884       -1266.560          49.000  
  21601110.587   113514710.762       -1266.536          48.000  
  21778695.405   114447819.702       -1266.596          39.000  
  21521398.038   113095769.496       -1266.611          38.000  
  21455751.878   112750771.650       -1266.379          38.000  
  21726824.958   114175233.920       -1266.664          37.000  
  21734447.972   114215296.622       -1267.062          35.000  
  21519351.543   113084981.951       -1266.288          36.000  
  21518173.108   113078790.863       -1266.621          41.000  
  21616054.104   113593100.374       -1266.654          38.000  
  21673197.787   113893454.308       -1266.517          38.000  
  21754082.017   114318510.636       -1266.728          36.000  
  21589973.317   113456087.953       -1266.472          38.000  
  21749980.220   114296924.952       -1266.386          37.000  
  21687853.318   113970482.388       -1266.560          39.000  
  21601402.153   113516125.301       -1266.222          33.000  
  21721260.462   114145962.432       -1266.633          38.000  
  21470993.196   112830861.300       -1266.149          41.000  
  21619863.977   113613197.463       -1266.480          36.000  
  21648875.881   113765682.235       -1266.329          39.000  
  21552755.167   113260546.687       -1266.299          40.000  
  21455756.858   112750796.645       -1266.205          38.000  
  21507330.436   113021837.818       -1266.613          40.000  
  21540447.133   113195851.195       -1265.966          39.000  
 25  8 13  9 51 25.8000000  0 30G 1G 2G 3G 4G 5G 7G 6G 8G14G 9G24G12
                                G10G11G32G26G27G19G23G16G18G29G30G17
                                G31G20G21G13G28G15
  21601252.149   113515310.344       -1266.302          45.000  
  21601189.901   113514865.096       -1266.394          49.000  
  21601253.642   113515311.710       -1266.442          49.000  
  21601138.630   113514796.005       -1266.448          49.000  
  21601044.071   113514310.877       -1266.426          49.000  
  21601078.705   113514353.120       -1266.435          45.000  
  21601152.005   113514849.158       -1266.384          49.000  
  21601158.772   113514964.042       -1266.468          48.000  
  21778743.579   114448072.972       -1266.545          39.000  
  21521446.261   113096022.770       -1266.217          38.000  
  21455800.060   112751024.930       -1266.228          38.000  
  21726873.183   114175487.197       -1266.650          37.000  
  21734496.193   114215549.876       -1266.316          35.000  
  21519399.755   113085235.235       -1266.636          36.000  
  21518221.252   113079044.136       -1266.423          41.000  
  21616102.303   113593353.651       -1266.422          38.000  
  21673245.994   113893707.583       -1266.271          38.000  
  21754130.237   114318763.908       -1266.471          36.000  
  21590021.545   113456341.240       -1266.814          38.000  
  21750028.403   114297178.238       -1266.521          36.000  
  21687901.511   113970735.665       -1266.411          39.000  
  21601450.372   113516378.598       -1266.822          33.000  
  21721308.677   114146215.708       -1266.429          39.000  
  21471041.392   112831114.589       -1266.437          41.000  
  21619912.163   113613450.744       -1266.632          36.000  
  21648924.087   113765935.522       -1266.440          39.000  
  21552803.363   113260799.972       -1266.360          40.000  
  21455805.108   112751049.932       -1266.193          38.000  
  21507378.608   113022091.094       -1266.477          40.000  
  21540495.344   113196104.485       -1266.431          39.000  
 25  8 13  9 51 26.0000000  0 30G 1G 2G 3G 4G 5G 7G 6G 8G14G 9G24G12
                                G10G11G32G26G27G19G23G16G18G29G30G17
                                G31G20G21G13G28G15
  21601300.358   113515563.625       -1266.205          45.000  
  21601238.099   113515118.372       -1266.246          49.000  
  21601301.054   113515564.984       -1266.263          49.000  
  21601186.823   113515049.282       -1266.263          49.000  
  21601093.153   113514564.152       -1266.245          49.000  
  21601126.917   113514606.392       -1266.194          45.000  
  21601200.180   113515102.436       -1266.261          49.000  
  21601206.957   113515217.322       -1266.281          48.000  
  21778791.804   114448326.257       -1266.311          39.000  
  21521494.395   113096276.055       -1266.229          38.000  
  21455848.273   112751278.207       -1266.218          38.000  
  21726921.371   114175740.472       -1266.224          37.000  
  21734544.384   114215803.160       -1266.182          35.000  
  21519447.936   113085488.502       -1266.169          36.000  
  21518269.441   113079297.414       -1266.299          41.000  
  21616150.541   113593606.927       -1266.202          37.000  
  21673294.212   113893960.866       -1266.211          38.000  
  21754178.421   114319017.182       -1266.190          36.000  
  21590069.732   113456594.510       -1266.350          38.000  
  21750076.621   114297431.504       -1266.291          36.000  
  21687949.708   113970988.938       -1266.222          39.000  
  21601498.574   113516631.859       -1266.306          33.000  
  21721356.893   114146468.983       -1266.205          39.000  
  21471089.570   112831367.863       -1266.276          41.000  
  21619960.336   113613704.013       -1266.263          36.000  
  21648972.272   113766188.800       -1266.260          38.000  
  21552851.586   113261053.247       -1266.232          40.000  
  21455853.289   112751303.209       -1266.261          38.000  
  21507426.811   113022344.369       -1266.194          41.000  
  21540543.505   113196357.757       -1266.273          39.000  
 25  8 13  9 51 26.2000000  0 30G 1G 2G 3G 4G 5G 7G 6G 8G14G 9G24G12
                                G10G11G32G26G27G19G23G16G18G29G30G17
                                G31G20G21G13G28G15
  21601348.591   113515816.902       -1266.494          45.000  
  21601286.299   113515371.645       -1266.430          49.000  
  21601348.576   113515818.256       -1266.496          49.000  
  21601235.037   113515302.558       -1266.443          49.000  
  21601142.227   113514817.423       -1266.477          49.000  
  21601175.117   113514859.666       -1266.514          45.000  
  21601248.463   113515355.708       -1266.483          48.000  
  21601255.166   113515470.597       -1266.528          48.000  
  21778839.981   114448579.526       -1266.482          39.000  
  21521542.645   113096529.333       -1266.521          38.000  
  21455896.490   112751531.483       -1266.421          38.000  
  21726969.582   114175993.742       -1266.476          37.000  
  21734592.617   114216056.442       -1266.460          35.000  
  21519496.100   113085741.774       -1266.405          36.000  
  21518317.610   113079550.688       -1266.552          41.000  
  21616198.758   113593860.203       -1266.426          37.000  
  21673342.402   113894214.145       -1266.531          38.000  
  21754226.653   114319270.457       -1266.502          37.000  
  21590117.926   113456847.778       -1266.557          38.000  
  21750124.860   114297684.776       -1266.485          36.000  
  21687997.923   113971242.213       -1266.488          39.000  
  21601546.718   113516885.131       -1266.567          33.000  
  21721405.072   114146722.256       -1266.483          39.000  
  21471137.784   112831621.139       -1266.503          41.000  
  21620008.598   113613957.284       -1266.535          36.000  
  21649020.474   113766442.076       -1266.580          38.000  
  21552899.773   113261306.522       -1266.476          40.000  
  21455901.455   112751556.487       -1266.528          38.000  
  21507475.023   113022597.647       -1266.488          41.000  
  21540591.699   113196611.031       -1266.462          39.000  
 25  8 13  9 51 26.4000000  0 30G 1G 2G 3G 4G 5G 7G 6G 8G14G 9G24G12
                                G10G11G32G26G27G19G23G16G18G29G30G17
                                G31G20G21G13G28G15
  21601396.805   113516070.155       -1266.257          45.000  
  21601334.491   113515624.900       -1266.263          49.000  
  21601396.241   113516071.503       -1266.225          49.000  
  21601283.211   113515555.809       -1266.244          49.000  
  21601190.853   113515070.674       -1266.222          49.000  
  21601223.333   113515112.917       -1266.229          45.000  
  21601296.595   113515608.959       -1266.238          48.000  
  21601303.311   113515723.845       -1266.199          48.000  
  21778888.171   114448832.768       -1266.234          40.000  
  21521590.821   113096782.588       -1266.254          38.000  
  21455944.718   112751784.750       -1266.281          38.000  
  21727017.769   114176246.981       -1266.166          37.000  
  21734640.836   114216309.694       -1266.216          35.000  
  21519544.279   113085995.020       -1266.219          36.000  
  21518365.819   113079803.932       -1266.146          41.000  
  21616246.977   113594113.458       -1266.215          37.000  
  21673390.582   113894467.397       -1266.245          38.000  
  21754274.852   114319523.701       -1266.215          37.000  
  21590166.128   113457101.018       -1266.208          38.000  
  21750173.111   114297938.024       -1266.171          36.000  
  21688046.081   113971495.464       -1266.250          39.000  
  21601594.892   113517138.379       -1266.186          33.000  
  21721453.242   114146975.510       -1266.237          39.000  
  21471185.947   112831874.388       -1266.163          41.000  
  21620056.786   113614210.527       -1266.276          36.000  
  21649068.659   113766695.325       -1266.256          38.000  
  21552947.971   113261559.781       -1266.256          40.000  
  21455949.669   112751809.746       -1266.293          38.000  
  21507523.151   113022850.894       -1266.244          41.000  
  21540639.860   113196864.281       -1266.266          39.000  
 25  8 13  9 51 26.6000000  0 30G 1G 2G 3G 4G 5G 7G 6G 8G14G 9G24G12
                                G10G11G32G26G27G19G23G16G18G29G30G17
                                G31G20G21G13G28G15
  21601445.040   113516323.406       -1266.290          45.000  
  21601382.691   113515878.160       -1266.392          49.000  
  21601445.148   113516324.771       -1266.288          49.000  
  21601331.417   113515809.073       -1266.330          49.000  
  21601238.507   113515323.952       -1266.317          49.000  
  21601271.540   113515366.182       -1266.271          45.000  
  21601344.754   113515862.224       -1266.302          48.000  
  21601351.489   113515977.104       -1266.413          48.000  
  21778936.385   114449086.033       -1266.290          39.000  
  21521638.992   113097035.817       -1266.483          38.000  
  21455992.920   112752037.997       -1266.372          38.000  
  21727066.000   114176500.259       -1266.336          37.000  
  21734689.046   114216562.952       -1266.321          35.000  
  21519592.441   113086248.326       -1266.123          36.000  
  21518414.042   113080057.184       -1266.459          41.000  
  21616295.174   113594366.705       -1266.536          37.000  
  21673438.813   113894720.669       -1266.245          38.000  
  21754323.025   114319776.976       -1266.302          37.000  
  21590214.300   113457354.300       -1266.207          38.000  
  21750221.319   114298191.276       -1266.367          36.000  
  21688094.268   113971748.741       -1266.249          39.000  
  21601643.079   113517391.692       -1266.027          33.000  
  21721501.426   114147228.768       -1266.298          39.000  
  21471234.111   112832127.673       -1266.246          41.000  
  21620104.962   113614463.788       -1266.364          36.000  
  21649116.834   113766948.583       -1266.353          38.000  
  21552996.146   113261813.067       -1266.199          40.000  
  21455997.859   112752063.004       -1266.373          38.000  
  21507571.392   113023104.156       -1266.372          41.000  
  21540688.049   113197117.563       -1266.246          38.000  
 25  8 13  9 51 26.8000000  0 30G 1G 2G 3G 4G 5G 7G 6G 8G14G 9G24G12
                                G10G11G32G26G27G19G23G16G18G29G30G17
                                G31G20G21G13G28G15
  21601493.260   113516576.639       -1266.048          45.000  
  21601430.875   113516131.387       -1266.093          49.000  
  21601494.397   113516577.998       -1266.093          49.000  
  21601379.603   113516062.298       -1266.042          49.000  
  21601285.523   113515577.176       -1266.095          49.000  
  21601319.742   113515619.421       -1266.109          45.000  
  21601392.909   113516115.451       -1266.115          49.000  
  21601399.689   113516230.329       -1266.055          49.000  
  21778984.555   114449339.268       -1266.196          39.000  
  21521687.172   113097289.041       -1265.913          38.000  
  21456041.103   112752291.226       -1266.047          38.000  
  21727114.195   114176753.488       -1266.196          37.000  
  21734737.230   114216816.181       -1266.078          35.000  
  21519640.650   113086501.553       -1266.105          36.000  
  21518462.210   113080310.408       -1266.036          41.000  
  21616343.343   113594619.927       -1266.059          37.000  
  21673486.983   113894973.901       -1266.136          38.000  
  21754371.178   114320030.203       -1266.100          36.000  
  21590262.507   113457607.530       -1266.155          37.000  
  21750269.522   114298444.504       -1266.077          36.000  
  21688142.463   113972001.968       -1266.128          39.000  
  21601691.267   113517644.934       -1266.376          33.000  
  21721549.631   114147482.003       -1266.109          39.000  
  21471282.316   112832380.903       -1266.199          41.000  
  21620153.139   113614717.021       -1266.163          36.000  
  21649165.040   113767201.809       -1266.071          38.000  
  21553044.348   113262066.295       -1266.130          40.000  
  21456046.067   112752316.230       -1266.039          38.000  
  21507619.552   113023357.379       -1266.050          40.000  
  21540736.266   113197370.789       -1266.167          38.000  
 25  8 13  9 51 27.0000000  0 30G 1G 2G 3G 4G 5G 7G 6G 8G14G 9G24G12
                                G10G11G32G26G27G19G23G16G18G29G30G17
                                G31G20G21G13G28G15
  21601541.470   113516829.881       -1266.194          45.000  
  21601479.065   113516384.619       -1266.065          49.000  
  21601543.527   113516831.237       -1266.040          49.000  
  21601427.805   113516315.538       -1266.094          49.000  
  21601332.697   113515830.420       -1266.144          49.000  
  21601367.960   113515872.657       -1266.109          45.000  
  21601441.094   113516368.695       -1266.131          49.000  
  21601447.878   113516483.572       -1266.165          49.000  
  21779032.754   114449592.483       -1265.872          39.000  
  21521735.327   113097542.292       -1266.162          38.000  
  21456089.268   112752544.470       -1266.174          38.000  
  21727162.412   114177006.712       -1265.913          37.000  
  21734785.446   114217069.416       -1266.088          35.000  
  21519688.826   113086754.784       -1266.003          36.000  
  21518510.411   113080563.652       -1266.128          41.000  
  21616391.547   113594873.164       -1266.009          38.000  
  21673535.192   113895227.143       -1266.125          38.000  
  21754419.357   114320283.442       -1266.119          37.000  
  21590310.649   113457860.755       -1265.901          37.000  
  21750317.696   114298697.747       -1266.065          36.000  
  21688190.677   113972255.209       -1266.113          39.000  
  21601739.440   113517898.135       -1265.705          32.000  
  21721597.806   114147735.237       -1266.062          39.000  
  21471330.494   112832634.136       -1266.021          41.000  
  21620201.336   113614970.248       -1265.925          36.000  
  21649213.203   113767455.052       -1266.131          38.000  
  21553092.475   113262319.539       -1266.178          40.000  
  21456094.259   112752569.491       -1266.399          38.000  
  21507667.792   113023610.627       -1266.129          40.000  
  21540784.451   113197624.026       -1266.119          38.000  
 25  8 13  9 51 27.2000000  0 30G 1G 2G 3G 4G 5G 7G 6G 8G14G 9G24G12
                                G10G11G32G26G27G19G23G16G18G29G30G17
                                G31G20G21G13G28G15
  21601589.703   113517083.115       -1266.274          44.000  
  21601527.263   113516637.862       -1266.188          49.000  
  21601592.544   113517084.483       -1266.302          49.000  
  21601475.998   113516568.779       -1266.213          49.000  
  21601380.433   113516083.658       -1266.280          49.000  
  21601416.171   113516125.896       -1266.286          45.000  
  21601489.392   113516621.936       -1266.305          49.000  
  21601496.101   113516736.812       -1266.257          49.000  
  21779080.941   114449845.749       -1266.255          39.000  
  21521783.569   113097795.525       -1266.229          38.000  
  21456137.458   112752797.710       -1266.315          38.000  
  21727210.640   114177259.969       -1266.266          37.000  
  21734833.639   114217322.662       -1266.203          35.000  
  21519736.977   113087008.030       -1266.161          36.000  
  21518558.586   113080816.890       -1266.254          41.000  
  21616439.682   113595126.412       -1266.266          38.000  
  21673583.404   113895480.377       -1266.196          38.000  
  21754467.560   114320536.680       -1266.254          37.000  
  21590358.831   113458114.008       -1266.227          37.000  
  21750365.927   114298950.989       -1266.324          36.000  
  21688238.885   113972508.449       -1266.298          39.000  
  21601787.634   113518151.405       -1266.204          32.000  
  21721646.002   114147988.482       -1266.243          38.000  
  21471378.672   112832887.381       -1266.251          41.000  
  21620249.519   113615223.494       -1266.151          36.000  
  21649261.394   113767708.294       -1266.292          38.000  
  21553140.670   113262572.775       -1266.261          39.000  
  21456142.446   112752822.710       -1266.233          38.000  
  21507715.953   113023863.866       -1266.327          40.000  
  21540832.673   113197877.265       -1266.205          38.000  
 25  8 13  9 51 27.4000000  0 30G 1G 2G 3G 4G 5G 7G 6G 8G14G 9G24G12
                                G10G11G32G26G27G19G23G16G18G29G30G17
                                G31G20G21G13G28G15
  21601637.906   113517336.345       -1266.251          44.000  
  21601575.465   113516891.102       -1266.360          49.000  
  21601640.909   113517337.718       -1266.422          49.000  
  21601524.190   113516822.001       -1266.156          49.000  
  21601428.042   113516336.884       -1266.228          49.000  
  21601464.400   113516379.120       -1266.201          45.000  
  21601537.546   113516875.148       -1266.068          49.000  
  21601544.333   113516990.039       -1266.266          49.000  
  21779129.136   114450098.973       -1266.521          39.000  
  21521831.709   113098048.759       -1266.249          38.000  
  21456185.665   112753050.942       -1266.313          38.000  
  21727258.867   114177513.209       -1266.571          38.000  
  21734881.786   114217575.829       -1265.485          35.000  
  21519785.198   113087261.288       -1266.809          36.000  
  21518606.778   113081070.136       -1266.514          41.000  
  21616487.850   113595379.631       -1266.236          38.000  
  21673631.548   113895733.569       -1265.674          38.000  
  21754515.709   114320789.897       -1266.039          37.000  
  21590407.033   113458367.236       -1266.362          37.000  
  21750414.124   114299204.239       -1266.561          38.000  
  21688287.059   113972761.653       -1265.951          39.000  
  21601835.810   113518404.643       -1266.568          33.000  
  21721694.185   114148241.715       -1266.390          36.000  
  21471426.850   112833140.604       -1266.223          41.000  
  21620297.735   113615476.741       -1266.541          36.000  
  21649309.596   113767961.540       -1266.550          38.000  
  21553188.794   113262825.978       -1265.894          39.000  
  21456190.623   112753075.940       -1266.130          38.000  
  21507764.140   113024117.068       -1265.913          40.000  
  21540880.852   113198130.502       -1266.350          38.000  
 25  8 13  9 51 27.6000000  0 30G 1G 2G 3G 4G 5G 7G 6G 8G14G 9G24G12
                                G10G11G32G26G27G19G23G16G18G29G30G17
                                G31G20G21G13G28G15
  21601686.113   113517589.585       -1266.262          45.000  
  21601623.655   113517144.329       -1266.178          49.000  
  21601688.126   113517590.944       -1266.128          49.000  
  21601572.370   113517075.237       -1266.204          49.000  
  21601475.235   113516590.117       -1266.178          49.000  
  21601512.604   113516632.356       -1266.218          45.000  
  21601585.751   113517128.388       -1266.195          49.000  
  21601592.510   113517243.271       -1266.166          48.000  
  21779177.326   114450352.191       -1266.133          39.000  
  21521879.922   113098301.992       -1266.118          38.000  
  21456233.831   112753304.174       -1266.125          38.000  
  21727307.059   114177766.426       -1266.115          38.000  
  21734929.959   114217829.076       -1266.172          36.000  
  21519833.399   113087514.506       -1266.195          35.000  
  21518654.955   113081323.365       -1266.215          40.000  
  21616536.000   113595632.858       -1266.093          38.000  
  21673679.772   113895986.822       -1266.199          38.000  
  21754563.863   114321043.130       -1266.065          37.000  
  21590455.189   113458620.457       -1266.047          38.000  
  21750462.312   114299457.466       -1266.187          38.000  
  21688335.242   113973014.896       -1266.242          39.000  
  21601884.066   113518657.859       -1266.069          33.000  
  21721742.365   114148494.948       -1266.236          36.000  
  21471475.008   112833393.833       -1266.146          41.000  
  21620345.942   113615729.970       -1266.219          36.000  
  21649357.814   113768214.768       -1266.141          39.000  
  21553236.983   113263079.216       -1266.093          39.000  
  21456238.817   112753329.189       -1266.368          38.000  
  21507812.327   113024370.312       -1266.193          40.000  
  21540929.031   113198383.734       -1266.157          38.000  
 25  8 13  9 51 27.8000000  0 30G 1G 2G 3G 4G 5G 7G 6G 8G14G 9G24G12
                                G10G11G32G26G27G19G23G16G18G29G30G17
                                G31G20G21G13G28G15
  21601734.322   113517842.802       -1265.983          45.000  
  21601671.844   113517397.540       -1265.934          49.000  
  21601735.630   113517844.162       -1265.966          49.000  
  21601620.546   113517328.449       -1265.967          49.000  
  21601522.531   113516843.330       -1265.967          49.000  
  21601560.792   113516885.570       -1265.967          45.000  
  21601633.901   113517381.601       -1265.985          49.000  
  21601640.655   113517496.486       -1265.966          48.000  
  21779225.524   114450605.405       -1265.957          39.000  
  21521928.031   113098555.204       -1265.948          38.000  
  21456282.023   112753557.388       -1265.950          38.000  
  21727355.195   114178019.643       -1265.923          38.000  
  21734978.047   114218082.280       -1265.984          36.000  
  21519881.640   113087767.726       -1266.016          35.000  
  21518703.154   113081576.582       -1266.002          40.000  
  21616584.192   113595886.067       -1265.891          38.000  
  21673727.943   113896240.036       -1266.009          37.000  
  21754612.055   114321296.338       -1265.951          37.000  
  21590503.414   113458873.669       -1265.978          38.000  
  21750510.540   114299710.683       -1265.985          38.000  
  21688383.391   113973268.108       -1265.979          39.000  
  21601932.314   113518911.078       -1265.926          33.000  
  21721790.556   114148748.168       -1266.030          36.000  
  21471523.200   112833647.050       -1266.012          41.000  
  21620394.128   113615983.183       -1266.033          35.000  
  21649406.044   113768467.988       -1265.976          39.000  
  21553285.136   113263332.427       -1265.986          39.000  
  21456287.005   112753582.404       -1265.979          38.000  
  21507860.481   113024623.526       -1265.977          40.000  
  21540977.227   113198636.948       -1265.970          38.000  
 25  8 13  9 51 28.0000000  0 30G 1G 2G 3G 4G 5G 7G 6G 8G14G 9G24G12
                                G10G11G32G26G27G19G23G16G18G29G30G17
                                G31G20G21G13G28G15
  21601782.580   113518096.031       -1266.236          45.000  
  21601720.040   113517650.767       -1266.125          49.000  
  21601783.409   113518097.393       -1266.255          49.000  
  21601668.745   113517581.677       -1266.163          49.000  
  21601570.078   113517096.560       -1266.234          49.000  
  21601609.011   113517138.802       -1266.254          45.000  
  21601682.119   113517634.830       -1266.230          49.000  
  21601688.838   113517749.716       -1266.222          48.000  
  21779273.733   114450858.634       -1266.262          39.000  
  21521976.187   113098808.433       -1266.155          38.000  
  21456330.235   112753810.615       -1266.180          37.000  
  21727403.388   114178272.877       -1266.208          38.000  
  21735026.166   114218335.512       -1266.270          36.000  
  21519929.877   113088020.952       -1266.183          35.000  
  21518751.344   113081829.807       -1266.251          40.000  
  21616632.438   113596139.308       -1266.319          38.000  
  21673776.132   113896493.263       -1266.210          37.000  
  21754660.283   114321549.570       -1266.173          37.000  
  21590551.587   113459126.899       -1266.202          38.000  
  21750558.772   114299963.912       -1266.242          38.000  
  21688431.554   113973521.338       -1266.254          39.000  
  21601980.618   113519164.311       -1266.288          33.000  
  21721838.722   114149001.399       -1266.283          36.000  
  21471571.365   112833900.280       -1266.262          41.000  
  21620442.298   113616236.408       -1266.136          35.000  
  21649454.232   113768721.217       -1266.268          39.000  
  21553333.324   113263585.656       -1266.189          39.000  
  21456335.183   112753835.634       -1266.323          39.000  
  21507908.697   113024876.757       -1266.262          40.000  
  21541025.417   113198890.179       -1266.287          38.000  
 25  8 13  9 51 28.2000000  0 30G 1G 2G 3G 4G 5G 7G 6G 8G14G 9G24G12
                                G10G11G32G26G27G19G23G16G18G29G30G17
                                G31G20G21G13G28G15
  21601830.809   113518349.232       -1266.044          45.000  
  21601768.226   113517903.977       -1266.000          49.000  
  21601831.196   113518350.597       -1266.053          49.000  
  21601716.929   113517834.885       -1266.029          49.000  
  21601617.821   113517349.766       -1266.063          49.000  
  21601657.178   113517392.004       -1266.022          45.000  
  21601730.249   113517888.034       -1266.021          49.000  
  21601737.043   113518002.920       -1266.028          48.000  
  21779321.940   114451111.844       -1266.194          39.000  
  21522024.360   113099061.644       -1265.984          38.000  
  21456378.436   112754063.824       -1266.063          37.000  
  21727451.548   114178526.088       -1266.119          38.000  
  21735074.269   114218588.723       -1266.081          36.000  
  21519978.092   113088274.151       -1266.093          35.000  
  21518799.501   113082083.010       -1266.017          40.000  
  21616680.671   113596392.515       -1266.091          38.000  
  21673824.292   113896746.467       -1266.002          37.000  
  21754708.415   114321802.785       -1265.998          37.000  
  21590599.784   113459380.110       -1266.053          38.000  
  21750606.970   114300217.115       -1266.016          38.000  
  21688479.725   113973774.541       -1266.043          39.000  
  21602028.845   113519417.515       -1266.097          33.000  
  21721886.921   114149254.602       -1266.014          36.000  
  21471619.574   112834153.487       -1266.034          41.000  
  21620490.486   113616489.614       -1266.125          35.000  
  21649502.453   113768974.421       -1266.024          39.000  
  21553381.513   113263838.861       -1266.016          39.000  
  21456383.381   112754088.826       -1265.969          39.000  
  21507956.852   113025129.958       -1266.029          40.000  
  21541073.606   113199143.382       -1266.002          38.000  
 25  8 13  9 51 28.4000000  0 30G 1G 2G 3G 4G 5G 7G 6G 8G14G 9G24G12
                                G10G11G32G26G27G19G23G16G18G29G30G17
                                G31G20G21G13G28G15
  21601879.045   113518602.429       -1266.059          44.000  
  21601816.410   113518157.173       -1266.032          49.000  
  21601879.039   113518603.789       -1266.061          49.000  
  21601765.109   113518088.089       -1265.957          49.000  
  21601666.042   113517602.964       -1266.064          49.000  
  21601705.396   113517645.204       -1266.052          45.000  
  21601778.443   113518141.242       -1265.947          49.000  
  21601785.195   113518256.120       -1266.024          48.000  
  21779370.138   114451365.052       -1266.061          39.000  
  21522072.506   113099314.851       -1265.986          38.000  
  21456426.578   112754317.008       -1266.207          37.000  
  21727499.722   114178779.270       -1266.084          37.000  
  21735122.464   114218841.970       -1265.612          36.000  
  21520026.297   113088527.343       -1266.201          35.000  
  21518847.668   113082336.190       -1266.132          40.000  
  21616728.847   113596645.725       -1265.927          37.000  
  21673872.501   113896999.676       -1265.973          38.000  
  21754756.586   114322055.979       -1265.976          37.000  
  21590647.972   113459633.304       -1266.067          38.000  
  21750655.076   114300470.289       -1266.189          36.000  
  21688527.895   113974027.762       -1265.889          39.000  
  21602077.033   113519670.704       -1266.069          33.000  
  21721935.105   114149507.798       -1266.072          38.000  
  21471667.704   112834406.688       -1266.042          41.000  
  21620538.636   113616742.814       -1265.798          35.000  
  21649550.625   113769227.587       -1266.304          39.000  
  21553429.671   113264092.086       -1265.870          40.000  
  21456431.561   112754342.021       -1266.217          36.000  
  21508005.071   113025383.179       -1265.955          40.000  
  21541121.795   113199396.571       -1266.193          38.000  
 25  8 13  9 51 28.6000000  0 30G 1G 2G 3G 4G 5G 7G 6G 8G14G 9G24G12
                                G10G11G32G26G27G19G23G16G18G29G30G17
                                G31G20G21G13G28G15
  21601927.231   113518855.614       -1265.707          44.000  
  21601864.595   113518410.357       -1265.708          49.000  
  21601927.069   113518856.974       -1265.732          49.000  
  21601813.293   113518341.274       -1265.701          49.000  
  21601714.391   113517856.151       -1265.718          49.000  
  21601753.611   113517898.389       -1265.719          45.000  
  21601826.699   113518394.431       -1265.790          49.000  
  21601833.375   113518509.306       -1265.752          48.000  
  21779418.299   114451618.233       -1265.765          39.000  
  21522120.713   113099568.036       -1265.771          37.000  
  21456474.741   112754570.189       -1265.659          38.000  
  21727547.923   114179032.456       -1265.737          37.000  
  21735170.617   114219095.158       -1265.914          36.000  
  21520074.528   113088780.522       -1265.676          36.000  
  21518895.838   113082589.375       -1265.664          40.000  
  21616777.065   113596898.911       -1265.710          37.000  
  21673920.662   113897252.863       -1265.784          38.000  
  21754804.720   114322309.169       -1265.824          37.000  
  21590696.115   113459886.483       -1265.708          38.000  
  21750703.171   114300723.473       -1265.654          36.000  
  21688576.100   113974280.951       -1265.850          39.000  
  21602125.256   113519923.888       -1265.786          33.000  
  21721983.312   114149760.982       -1265.691          38.000  
  21471715.888   112834659.875       -1265.781          41.000  
  21620586.794   113616996.004       -1265.765          36.000  
  21649598.776   113769480.766       -1265.622          39.000  
  21553477.904   113264345.278       -1265.820          41.000  
  21456479.770   112754595.211       -1265.675          36.000  
  21508053.223   113025636.369       -1265.833          41.000  
  21541169.984   113199649.754       -1265.675          38.000  
 25  8 13  9 51 28.8000000  0 30G 1G 2G 3G 4G 5G 7G 6G 8G14G 9G24G12
                                G10G11G32G26G27G19G23G16G18G29G30G17
                                G31G20G21G13G28G15
  21601975.428   113519108.798       -1265.980          44.000  
  21601912.788   113518663.540       -1265.953          49.000  
  21601975.156   113519110.163       -1266.147          49.000  
  21601861.480   113518594.458       -1265.950          49.000  
  21601762.800   113518109.337       -1266.074          49.000  
  21601801.820   113518151.575       -1266.067          45.000  
  21601874.903   113518647.615       -1266.081          49.000  
  21601881.559   113518762.492       -1266.073          49.000  
  21779466.484   114451871.422       -1266.109          39.000  
  21522168.848   113099821.216       -1265.989          37.000  
  21456522.909   112754823.378       -1265.981          38.000  
  21727596.097   114179285.646       -1266.173          37.000  
  21735218.802   114219348.345       -1266.189          36.000  
  21520122.739   113089033.707       -1266.003          36.000  
  21518944.023   113082842.566       -1266.154          40.000  
  21616825.280   113597152.095       -1266.039          37.000  
  21673968.820   113897506.044       -1266.070          38.000  
  21754852.935   114322562.359       -1266.212          37.000  
  21590744.287   113460139.675       -1266.260          38.000  
  21750751.268   114300976.658       -1266.041          36.000  
  21688624.291   113974534.135       -1266.101          39.000  
  21602173.473   113520177.089       -1266.368          32.000  
  21722031.503   114150014.171       -1266.126          39.000  
  21471764.092   112834913.058       -1266.099          41.000  
  21620634.969   113617249.192       -1266.248          36.000  
  21649647.005   113769733.957       -1266.027          38.000  
  21553526.091   113264598.454       -1265.962          41.000  
  21456527.929   112754848.388       -1265.890          36.000  
  21508101.410   113025889.551       -1266.157          41.000  
  21541218.171   113199902.944       -1266.107          39.000  
 25  8 13  9 51 29.0000000  0 30G 1G 2G 3G 4G 5G 7G 6G 8G14G 9G24G12
                                G10G11G32G26G27G19G23G16G18G29G30G17
                                G31G20G21G13G28G15
  21602023.632   113519361.971       -1266.075          44.000  
  21601960.970   113518916.719       -1265.981          49.000  
  21602022.987   113519363.333       -1265.991          49.000  
  21601909.670   113518847.635       -1265.980          49.000  
  21601811.434   113518362.508       -1266.036          49.000  
  21601850.001   113518404.746       -1266.023          45.000  
  21601923.140   113518900.789       -1266.041          49.000  
  21601929.728   113519015.664       -1266.029          49.000  
  21779514.630   114452124.608       -1265.938          39.000  
  21522217.057   113100074.385       -1266.057          37.000  
  21456571.080   112755076.541       -1266.040          38.000  
  21727644.303   114179538.825       -1265.975          37.000  
  21735267.035   114219601.518       -1266.075          35.000  
  21520170.860   113089286.883       -1266.047          36.000  
  21518992.195   113083095.733       -1265.933          40.000  
  21616873.433   113597405.269       -1266.055          37.000  
  21674017.020   113897759.214       -1266.083          38.000  
  21754901.172   114322815.527       -1266.016          37.000  
  21590792.469   113460392.849       -1265.916          38.000  
  21750799.427   114301229.836       -1266.055          36.000  
  21688672.490   113974787.308       -1266.075          39.000  
  21602221.658   113520430.253       -1265.823          32.000  
  21722079.726   114150267.345       -1266.042          39.000  
  21471812.289   112835166.229       -1265.950          41.000  
  21620683.082   113617502.368       -1266.021          36.000  
  21649695.200   113769987.131       -1266.095          38.000  
  21553574.305   113264851.627       -1266.064          41.000  
  21456576.102   112755101.558       -1266.124          36.000  
  21508149.605   113026142.725       -1266.078          41.000  
  21541266.400   113200156.114       -1265.917          39.000  
 25  8 13  9 51 29.2000000  0 30G 1G 2G 3G 4G 5G 7G 6G 8G14G 9G24G12
                                G10G11G32G26G27G19G23G16G18G29G30G17
                                G31G20G21G13G28G15
  21602071.841   113519615.156       -1265.931          44.000  
  21602009.161   113519169.905       -1265.958          49.000  
  21602071.127   113519616.524       -1265.969          49.000  
  21601957.847   113519100.824       -1266.010          49.000  
  21601859.953   113518615.700       -1266.028          49.000  
  21601898.216   113518657.940       -1266.047          45.000  
  21601971.293   113519153.970       -1265.867          49.000  
  21601977.806   113519268.851       -1265.912          48.000  
  21779562.789   114452377.782       -1265.762          39.000  
  21522265.239   113100327.573       -1266.011          37.000  
  21456619.257   112755329.747       -1266.158          38.000  
  21727692.485   114179792.008       -1265.855          37.000  
  21735315.223   114219854.698       -1265.873          35.000  
  21520218.984   113089540.059       -1265.834          36.000  
  21519040.404   113083348.929       -1266.044          40.000  
  21616921.595   113597658.447       -1265.855          37.000  
  21674065.209   113898012.421       -1266.221          38.000  
  21754949.402   114323068.733       -1266.186          36.000  
  21590840.684   113460646.039       -1265.957          38.000  
  21750847.560   114301483.012       -1265.783          36.000  
  21688720.681   113975040.478       -1265.706          39.000  
  21602269.830   113520683.449       -1266.143          32.000  
  21722127.896   114150520.525       -1265.883          39.000  
  21471860.472   112835419.422       -1266.029          41.000  
  21620731.279   113617755.545       -1265.855          36.000  
  21649743.374   113770240.326       -1266.106          38.000  
  21553622.493   113265104.822       -1266.116          41.000  
  21456624.274   112755354.766       -1266.343          36.000  
  21508197.771   113026395.924       -1266.145          41.000  
  21541314.579   113200409.311       -1266.034          39.000  
 25  8 13  9 51 29.4000000  0 30G 1G 2G 3G 4G 5G 7G 6G 8G14G 9G24G12
                                G10G11G32G26G27G19G23G16G18G29G30G17
                                G31G20G21G13G28G15
  21602120.021   113519868.330       -1265.942          44.000  
  21602057.345   113519423.081       -1265.971          49.000  
  21602119.821   113519869.694       -1265.908          49.000  
  21602006.028   113519353.995       -1265.933          49.000  
  21601908.361   113518868.868       -1265.895          49.000  
  21601946.401   113518911.109       -1265.922          45.000  
  21602019.444   113519407.145       -1265.926          49.000  
  21602025.968   113519522.023       -1265.906          48.000  
  21779610.983   114452630.959       -1265.968          39.000  
  21522313.418   113100580.740       -1265.896          37.000  
  21456667.405   112755582.912       -1265.891          38.000  
  21727740.684   114180045.185       -1266.016          37.000  
  21735363.431   114220107.875       -1265.952          35.000  
  21520267.100   113089793.234       -1265.968          36.000  
  21519088.579   113083602.095       -1265.823          40.000  
  21616969.697   113597911.622       -1265.946          37.000  
  21674113.405   113898265.582       -1265.885          38.000  
  21754997.560   114323321.899       -1265.876          36.000  
  21590888.850   113460899.211       -1265.960          38.000  
  21750895.701   114301736.186       -1265.864          36.000  
  21688768.871   113975293.655       -1265.958          39.000  
  21602317.968   113520936.619       -1265.914          32.000  
  21722176.052   114150773.700       -1265.958          39.000  
  21471908.632   112835672.590       -1265.902          41.000  
  21620779.405   113618008.718       -1265.920          36.000  
  21649791.559   113770493.495       -1265.916          39.000  
  21553670.674   113265357.989       -1265.912          40.000  
  21456672.442   112755607.926       -1265.902          36.000  
  21508245.979   113026649.089       -1265.879          40.000  
  21541362.702   113200662.481       -1265.922          39.000  
 25  8 13  9 51 29.6000000  0 30G 1G 2G 3G 4G 5G 7G 6G 8G14G 9G24G12
                                G10G11G32G26G27G19G23G16G18G29G30G17
                                G31G20G21G13G28G15
  21602168.244   113520121.485       -1265.615          44.000  
  21602105.521   113519676.233       -1265.671          49.000  
  21602168.548   113520122.850       -1265.602          49.000  
  21602054.193   113519607.150       -1265.676          49.000  
  21601956.666   113519122.024       -1265.589          49.000  
  21601994.600   113519164.262       -1265.570          45.000  
  21602067.581   113519660.297       -1265.590          49.000  
  21602074.146   113519775.178       -1265.609          48.000  
  21779659.160   114452884.109       -1265.551          39.000  
  21522361.606   113100833.900       -1265.647          37.000  
  21456715.572   112755836.066       -1265.533          38.000  
  21727788.888   114180298.337       -1265.661          37.000  
  21735411.627   114220361.022       -1265.530          35.000  
  21520315.252   113090046.387       -1265.614          36.000  
  21519136.756   113083855.256       -1265.632          40.000  
  21617017.835   113598164.779       -1265.734          37.000  
  21674161.524   113898518.736       -1265.518          38.000  
  21755045.724   114323575.056       -1265.631          36.000  
  21590936.999   113461152.363       -1265.650          38.000  
  21750943.852   114301989.345       -1265.747          36.000  
  21688817.024   113975546.807       -1265.664          39.000  
  21602366.129   113521189.776       -1265.730          32.000  
  21722224.241   114151026.851       -1265.610          39.000  
  21471956.822   112835925.748       -1265.640          41.000  
  21620827.597   113618261.870       -1265.620          36.000  
  21649839.741   113770746.649       -1265.589          39.000  
  21553718.821   113265611.146       -1265.620          40.000  
  21456720.612   112755861.084       -1265.601          37.000  
  21508294.169   113026902.243       -1265.560          40.000  
  21541410.906   113200915.636       -1265.593          39.000  
 25  8 13  9 51 29.8000000  0 30G 1G 2G 3G 4G 5G 7G 6G 8G14G 9G24G12
                                G10G11G32G26G27G19G23G16G18G29G30G17
                                G31G20G21G13G28G15
  21602216.425   113520374.632       -1265.623          44.000  
  21602153.699   113519929.380       -1265.765          49.000  
  21602217.505   113520375.999       -1265.810          49.000  
  21602102.380   113519860.295       -1265.699          49.000  
  21602004.905   113519375.172       -1265.703          49.000  
  21602042.775   113519417.414       -1265.723          45.000  
  21602115.761   113519913.447       -1265.722          49.000  
  21602122.254   113520028.326       -1265.724          48.000  
  21779707.338   114453137.263       -1266.082          39.000  
  21522409.718   113101087.044       -1265.603          37.000  
  21456763.746   112756089.219       -1265.676          38.000  
  21727837.040   114180551.484       -1265.977          37.000  
  21735459.849   114220614.178       -1266.014          35.000  
  21520363.445   113090299.532       -1265.717          36.000  
  21519184.990   113084108.406       -1265.842          40.000  
  21617066.007   113598417.923       -1265.792          37.000  
  21674209.719   113898771.891       -1265.661          38.000  
  21755093.939   114323828.205       -1265.923          36.000  
  21590985.159   113461405.514       -1266.081          38.000  
  21750992.002   114302242.484       -1265.644          36.000  
  21688865.173   113975799.956       -1265.623          39.000  
  21602414.328   113521442.924       -1266.115          32.000  
  21722272.355   114151279.999       -1265.712          39.000  
  21472004.994   112836178.894       -1265.812          41.000  
  21620875.759   113618515.020       -1265.790          36.000  
  21649887.933   113770999.797       -1265.698          39.000  
  21553767.004   113265864.294       -1265.691          40.000  
  21456768.747   112756114.231       -1265.361          37.000  
  21508342.356   113027155.396       -1265.714          40.000  
  21541459.065   113201168.783       -1265.698          39.000  
 25  8 13  9 51 30.0000000  0 30G 1G 2G 3G 4G 5G 7G 6G 8G14G 9G24G12
                                G10G11G32G26G27G19G23G16G18G29G30G17
                                G31G20G21G13G28G15
  21602264.622   113520627.793       -1265.968          44.000  
  21602201.878   113520182.534       -1265.852          49.000  
  21602266.314   113520629.150       -1265.861          49.000  
  21602150.571   113520113.451       -1265.858          49.000  
  21602053.165   113519628.330       -1265.936          49.000  
  21602090.971   113519670.571       -1265.948          45.000  
  21602163.976   113520166.605       -1265.943          49.000  
  21602170.454   113520281.483       -1265.923          48.000  
  21779755.505   114453390.399       -1265.757          39.000  
  21522457.902   113101340.216       -1266.077          37.000  
  21456811.924   112756342.378       -1265.991          38.000  
  21727885.228   114180804.626       -1265.739          37.000  
  21735508.015   114220867.317       -1265.828          35.000  
  21520411.597   113090552.684       -1265.790          36.000  
  21519233.143   113084361.559       -1265.955          40.000  
  21617114.166   113598671.077       -1265.859          37.000  
  21674257.874   113899025.053       -1266.020          37.000  
  21755142.097   114324081.355       -1265.876          36.000  
  21591033.343   113461658.649       -1265.676          37.000  
  21751040.179   114302495.651       -1266.062          36.000  
  21688913.359   113976053.119       -1265.995          39.000  
  21602462.520   113521696.056       -1265.639          32.000  
  21722320.546   114151533.156       -1265.924          39.000  
  21472053.204   112836432.044       -1265.834          41.000  
  21620923.918   113618768.168       -1265.776          36.000  
  21649936.131   113771252.956       -1265.928          39.000  
  21553815.159   113266117.451       -1265.911          40.000  
  21456816.957   112756367.410       -1266.233          37.000  
  21508390.521   113027408.551       -1265.938          40.000  
  21541507.225   113201421.938       -1265.912          39.000  
 25  8 13  9 51 30.2000000  0 30G 1G 2G 3G 4G 5G 7G 6G 8G14G 9G24G12
                                G10G11G32G26G27G19G23G16G18G29G30G17
                                G31G20G21G13G28G15
  21602312.795   113520880.951       -1265.746          44.000  
  21602250.065   113520435.692       -1265.786          49.000  
  21602314.738   113520882.304       -1265.795          49.000  
  21602198.748   113520366.606       -1265.840          49.000  
  21602101.769   113519881.481       -1265.834          49.000  
  21602139.140   113519923.720       -1265.777          45.000  
  21602212.119   113520419.758       -1265.794          49.000  
  21602218.640   113520534.633       -1265.795          48.000  
  21779803.705   114453643.571       -1265.516          39.000  
  21522506.044   113101593.376       -1265.720          37.000  
  21456860.074   112756595.530       -1265.836          38.000  
  21727933.393   114181057.781       -1265.655          37.000  
  21735556.188   114221120.481       -1265.639          35.000  
  21520459.787   113090805.836       -1265.846          36.000  
  21519281.345   113084614.716       -1265.785          40.000  
  21617162.378   113598924.241       -1265.765          37.000  
  21674306.089   113899278.192       -1265.913          38.000  
  21755190.234   114324334.501       -1265.898          36.000  
  21591081.520   113461911.830       -1265.685          37.000  
  21751088.407   114302748.838       -1265.560          36.000  
  21688961.540   113976306.274       -1265.712          39.000  
  21602510.713   113521949.199       -1265.905          33.000  
  21722368.737   114151786.291       -1265.949          39.000  
  21472101.403   112836685.183       -1265.979          41.000  
  21620972.097   113619021.319       -1265.798          36.000  
  21649984.304   113771506.122       -1265.676          39.000  
  21553863.289   113266370.575       -1265.979          40.000  
  21456865.126   112756620.549       -1265.913          37.000  
  21508438.684   113027661.674       -1265.978          40.000  
  21541555.350   113201675.084       -1265.955          39.000  
 25  8 13  9 51 30.4000000  0 30G 1G 2G 3G 4G 5G 7G 6G 8G14G 9G24G12
                                G10G11G32G26G27G19G23G16G18G29G30G17
                                G31G20G21G13G28G15
  21602361.008   113521134.123       -1265.998          44.000  
  21602298.244   113520688.862       -1265.971          49.000  
  21602363.136   113521135.474       -1265.945          49.000  
  21602246.934   113520619.774       -1265.952          49.000  
  21602150.458   113520134.648       -1265.974          49.000  
  21602187.323   113520176.890       -1265.960          45.000  
  21602260.298   113520672.929       -1265.986          49.000  
  21602266.800   113520787.803       -1265.958          48.000  
  21779851.910   114453896.761       -1266.041          39.000  
  21522554.258   113101846.544       -1265.996          37.000  
  21456908.259   112756848.701       -1265.988          38.000  
  21727981.553   114181310.960       -1265.907          37.000  
  21735604.382   114221373.660       -1266.038          36.000  
  21520507.945   113091059.004       -1265.908          36.000  
  21519329.556   113084867.888       -1265.966          40.000  
  21617210.588   113599177.416       -1266.069          37.000  
  21674354.245   113899531.361       -1266.001          38.000  
  21755238.361   114324587.665       -1265.928          36.000  
  21591129.682   113462165.011       -1266.092          37.000  
  21751136.612   114303002.007       -1266.038          35.000  
  21689009.734   113976559.451       -1266.021          39.000  
  21602558.850   113522202.369       -1265.856          33.000  
  21722416.912   114152039.456       -1265.834          39.000  
  21472149.584   112836938.349       -1265.927          41.000  
  21621020.268   113619274.492       -1265.897          36.000  
  21650032.492   113771759.295       -1266.044          38.000  
  21553911.444   113266623.744       -1265.918          40.000  
  21456913.321   112756873.710       -1265.896          37.000  
  21508486.866   113027914.844       -1265.894          41.000  
  21541603.519   113201928.248       -1265.907          38.000  
 25  8 13  9 51 30.6000000  0 30G 1G 2G 3G 4G 5G 7G 6G 8G14G 9G24G12
                                G10G11G32G26G27G19G23G16G18G29G30G17
                                G31G20G21G13G28G15
  21602409.201   113521387.294       -1265.825          44.000  
  21602346.425   113520942.031       -1265.779          49.000  
  21602411.543   113521388.643       -1265.773          49.000  
  21602295.108   113520872.943       -1265.773          49.000  
  21602199.022   113520387.820       -1265.805          49.000  
  21602235.527   113520430.063       -1265.817          45.000  
  21602308.496   113520926.098       -1265.799          49.000  
  21602314.956   113521040.975       -1265.833          48.000  
  21779900.061   114454149.907       -1265.389          39.000  
  21522602.407   113102099.719       -1265.925          37.000  
  21456956.453   112757101.875       -1265.830          38.000  
  21728029.729   114181564.117       -1265.576          37.000  
  21735652.606   114221626.820       -1265.747          36.000  
  21520556.083   113091312.174       -1265.765          36.000  
  21519377.769   113085121.058       -1265.811          40.000  
  21617258.747   113599430.581       -1265.753          37.000  
  21674402.415   113899784.532       -1265.793          38.000  
  21755286.519   114324840.838       -1265.853          36.000  
  21591177.851   113462418.164       -1265.619          37.000  
  21751184.820   114303255.179       -1265.858          35.000  
  21689057.904   113976812.616       -1265.761          40.000  
  21602607.002   113522455.540       -1265.703          33.000  
  21722465.111   114152292.629       -1265.757          39.000  
  21472197.782   112837191.524       -1265.850          41.000  
  21621068.475   113619527.664       -1265.819          36.000  
  21650080.631   113772012.463       -1265.806          38.000  
  21553959.619   113266876.921       -1265.862          40.000  
  21456961.469   112757126.901       -1266.041          37.000  
  21508535.003   113028168.017       -1265.770          41.000  
  21541651.688   113202181.423       -1265.809          38.000  
 25  8 13  9 51 30.8000000  0 30G 1G 2G 3G 4G 5G 7G 6G 8G14G 9G24G12
                                G10G11G32G26G27G19G23G16G18G29G30G17
                                G31G20G21G13G28G15
  21602457.449   113521640.461       -1265.934          44.000  
  21602394.617   113521195.193       -1265.870          49.000  
  21602459.971   113521641.803       -1265.824          49.000  
  21602343.282   113521126.105       -1265.843          49.000  
  21602247.560   113520640.983       -1265.903          49.000  
  21602283.692   113520683.226       -1265.929          45.000  
  21602356.628   113521179.260       -1265.889          49.000  
  21602363.081   113521294.136       -1265.896          49.000  
  21779948.265   114454403.077       -1265.883          39.000  
  21522650.582   113102352.879       -1265.878          37.000  
  21457004.603   112757355.041       -1265.903          38.000  
  21728077.966   114181817.279       -1265.809          37.000  
  21735700.780   114221879.981       -1265.838          36.000  
  21520604.252   113091565.339       -1265.966          36.000  
  21519425.941   113085374.218       -1265.852          40.000  
  21617306.911   113599683.740       -1265.765          37.000  
  21674450.591   113900037.700       -1265.947          38.000  
  21755334.690   114325093.995       -1265.793          36.000  
  21591226.020   113462671.319       -1265.709          37.000  
  21751233.009   114303508.337       -1265.825          35.000  
  21689106.126   113977065.777       -1265.883          40.000  
  21602655.188   113522708.687       -1265.658          33.000  
  21722513.283   114152545.788       -1265.876          39.000  
  21472245.933   112837444.682       -1265.837          41.000  
  21621116.664   113619780.826       -1265.843          36.000  
  21650128.773   113772265.628       -1265.935          38.000  
  21554007.833   113267130.086       -1265.929          40.000  
  21457009.661   112757380.072       -1266.166          37.000  
  21508583.202   113028421.178       -1265.885          41.000  
  21541699.878   113202434.578       -1265.801          38.000  
 25  8 13  9 51 31.0000000  0 30G 1G 2G 3G 4G 5G 7G 6G 8G14G 9G24G12
                                G10G11G32G26G27G19G23G16G18G29G30G17
                                G31G20G21G13G28G15
  21602505.631   113521893.600       -1265.600          44.000  
  21602442.802   113521448.352       -1265.836          49.000  
  21602508.652   113521894.971       -1265.985          49.000  
  21602391.464   113521379.271       -1265.926          49.000  
  21602295.752   113520894.146       -1265.941          49.000  
  21602331.839   113520936.391       -1265.986          45.000  
  21602404.818   113521432.417       -1265.831          49.000  
  21602411.228   113521547.288       -1265.767          49.000  
  21779996.454   114454656.242       -1266.000          39.000  
  21522698.734   113102606.004       -1265.338          38.000  
  21457052.810   112757608.191       -1265.681          38.000  
  21728126.082   114182070.466       -1266.202          37.000  
  21735748.906   114222133.124       -1265.632          36.000  
  21520652.500   113091818.509       -1266.079          36.000  
  21519474.092   113085627.373       -1265.826          40.000  
  21617355.114   113599936.888       -1265.630          37.000  
  21674498.723   113900290.873       -1266.142          38.000  
  21755382.895   114325347.193       -1266.390          36.000  
  21591274.202   113462924.484       -1265.908          37.000  
  21751281.207   114303761.487       -1265.754          35.000  
  21689154.304   113977318.926       -1265.743          39.000  
  21602703.388   113522961.831       -1265.508          33.000  
  21722561.484   114152798.958       -1266.011          39.000  
  21472294.144   112837697.826       -1265.632          41.000  
  21621164.870   113620033.996       -1265.998          36.000  
  21650176.938   113772518.775       -1265.690          38.000  
  21554056.003   113267383.263       -1266.156          40.000  
  21457057.862   112757633.176       -1265.167          37.000  
  21508631.344   113028674.365       -1266.223          41.000  
  21541748.087   113202687.741       -1265.829          38.000  
 25  8 13  9 51 31.2000000  0 30G 1G 2G 3G 4G 5G 7G 6G 8G14G 9G24G12
                                G10G11G32G26G27G19G23G16G18G29G30G17
                                G31G20G21G13G28G15
  21602553.855   113522146.749       -1265.694          44.000  
  21602490.978   113521701.495       -1265.680          49.000  
  21602557.742   113522148.111       -1265.686          49.000  
  21602439.630   113521632.410       -1265.658          49.000  
  21602343.560   113521147.285       -1265.654          49.000  
  21602380.055   113521189.531       -1265.693          45.000  
  21602452.957   113521685.561       -1265.704          49.000  
  21602459.401   113521800.434       -1265.723          48.000  
  21780044.650   114454909.384       -1265.708          39.000  
  21522746.869   113102859.157       -1265.702          38.000  
  21457100.961   112757861.339       -1265.742          38.000  
  21728174.275   114182323.607       -1265.723          37.000  
  21735797.082   114222386.277       -1265.704          36.000  
  21520700.695   113092071.651       -1265.719          36.000  
  21519522.273   113085880.515       -1265.688          40.000  
  21617403.259   113600190.043       -1265.754          37.000  
  21674546.897   113900544.005       -1265.657          38.000  
  21755431.142   114325600.321       -1265.633          36.000  
  21591322.383   113463177.629       -1265.694          37.000  
  21751329.384   114304014.632       -1265.623          35.000  
  21689202.524   113977572.070       -1265.656          39.000  
  21602751.531   113523214.984       -1265.767          33.000  
  21722609.625   114153052.099       -1265.727          39.000  
  21472342.323   112837950.974       -1265.688          41.000  
  21621213.023   113620287.136       -1265.674          35.000  
  21650225.095   113772771.921       -1265.703          38.000  
  21554104.163   113267636.394       -1265.590          40.000  
  21457106.052   112757886.335       -1265.780          37.000  
  21508679.573   113028927.496       -1265.663          41.000  
  21541796.248   113202940.886       -1265.731          38.000  
 25  8 13  9 51 31.4000000  0 30G 1G 2G 3G 4G 5G 7G 6G 8G14G 9G24G12
                                G10G11G32G26G27G19G23G16G18G29G30G17
                                G31G20G21G13G28G15
  21602602.040   113522399.896       -1265.829          44.000  
  21602539.152   113521954.643       -1265.829          49.000  
  21602606.831   113522401.261       -1265.847          49.000  
  21602487.818   113521885.558       -1265.807          49.000  
  21602391.252   113521400.436       -1265.827          49.000  
  21602428.237   113521442.678       -1265.775          45.000  
  21602501.161   113521938.708       -1265.822          49.000  
  21602507.612   113522053.579       -1265.803          48.000  
  21780092.795   114455162.525       -1265.789          39.000  
  21522795.045   113103112.302       -1265.804          38.000  
  21457149.131   112758114.483       -1265.768          38.000  
  21728222.459   114182576.755       -1265.847          37.000  
  21735845.257   114222639.420       -1265.810          35.000  
  21520748.876   113092324.802       -1265.955          36.000  
  21519570.434   113086133.663       -1265.836          40.000  
  21617451.424   113600443.192       -1265.931          38.000  
  21674595.076   113900797.159       -1265.846          38.000  
  21755479.310   114325853.480       -1265.836          36.000  
  21591370.580   113463430.779       -1265.947          37.000  
  21751377.606   114304267.788       -1265.965          36.000  
  21689250.696   113977825.222       -1265.906          39.000  
  21602799.709   113523468.128       -1265.894          34.000  
  21722657.806   114153305.243       -1265.768          38.000  
  21472390.518   112838204.124       -1265.881          41.000  
  21621261.217   113620540.286       -1265.928          35.000  
  21650273.294   113773025.068       -1265.848          38.000  
  21554152.362   113267889.548       -1265.793          40.000  
  21457154.229   112758139.474       -1265.734          37.000  
  21508727.748   113029180.649       -1265.795          41.000  
  21541844.412   113203194.029       -1265.802          38.000  
 25  8 13  9 51 31.6000000  0 30G 1G 2G 3G 4G 5G 7G 6G 8G14G 9G24G12
                                G10G11G32G26G27G19G23G16G18G29G30G17
                                G31G20G21G13G28G15
  21602650.220   113522653.033       -1265.564          44.000  
  21602587.323   113522207.783       -1265.634          49.000  
  21602655.790   113522654.404       -1265.665          49.000  
  21602535.991   113522138.699       -1265.627          49.000  
  21602439.112   113521653.575       -1265.628          49.000  
  21602476.444   113521695.820       -1265.633          45.000  
  21602549.335   113522191.849       -1265.628          49.000  
  21602555.745   113522306.719       -1265.602          48.000  
  21780141.005   114455415.681       -1265.711          39.000  
  21522843.209   113103365.437       -1265.552          38.000  
  21457197.271   112758367.623       -1265.631          38.000  
  21728270.640   114182829.901       -1265.695          37.000  
  21735893.453   114222892.575       -1265.736          35.000  
  21520797.028   113092577.942       -1265.676          36.000  
  21519618.593   113086386.800       -1265.562          40.000  
  21617499.555   113600696.327       -1265.638          38.000  
  21674643.249   113901050.299       -1265.654          38.000  
  21755527.497   114326106.615       -1265.708          37.000  
  21591418.744   113463683.929       -1265.871          37.000  
  21751425.835   114304520.921       -1265.626          36.000  
  21689298.872   113978078.359       -1265.626          39.000  
  21602847.808   113523721.269       -1265.652          34.000  
  21722705.967   114153558.387       -1265.612          38.000  
  21472438.683   112838457.264       -1265.630          41.000  
  21621309.406   113620793.428       -1265.713          35.000  
  21650321.476   113773278.202       -1265.574          39.000  
  21554200.553   113268142.689       -1265.648          40.000  
  21457202.399   112758392.615       -1265.605          37.000  
  21508775.929   113029433.789       -1265.613          41.000  
  21541892.517   113203447.176       -1265.731          38.000  
 25  8 13  9 51 31.8000000  0 30G 1G 2G 3G 4G 5G 7G 6G 8G14G 9G24G12
                                G10G11G32G26G27G19G23G16G18G29G30G17
                                G31G20G21G13G28G15
  21602698.430   113522906.172       -1265.828          44.000  
  21602635.499   113522460.922       -1265.859          49.000  
  21602704.720   113522907.541       -1265.965          49.000  
  21602584.173   113522391.840       -1265.917          49.000  
  21602486.967   113521906.714       -1265.913          49.000  
  21602524.666   113521948.958       -1265.898          45.000  
  21602597.510   113522444.988       -1265.905          49.000  
  21602604.023   113522559.859       -1265.906          48.000  
  21780189.202   114455668.816       -1266.174          39.000  
  21522891.421   113103618.578       -1265.768          38.000  
  21457245.441   112758620.761       -1265.854          38.000  
  21728318.858   114183083.034       -1266.032          36.000  
  21735941.649   114223145.710       -1266.188          35.000  
  21520845.213   113092831.079       -1265.980          36.000  
  21519666.774   113086639.942       -1265.886          40.000  
  21617547.731   113600949.469       -1265.989          38.000  
  21674691.467   113901303.438       -1265.951          38.000  
  21755575.680   114326359.758       -1265.932          37.000  
  21591466.907   113463937.063       -1266.201          37.000  
  21751474.014   114304774.065       -1265.970          36.000  
  21689347.069   113978331.502       -1266.045          39.000  
  21602895.979   113523974.407       -1265.924          34.000  
  21722754.182   114153811.527       -1265.943          38.000  
  21472486.841   112838710.402       -1265.916          41.000  
  21621357.607   113621046.567       -1266.021          35.000  
  21650369.636   113773531.343       -1265.787          39.000  
  21554248.746   113268395.826       -1265.911          40.000  
  21457250.575   112758645.750       -1265.681          37.000  
  21508824.132   113029686.929       -1265.956          41.000  
  21541940.686   113203700.311       -1265.955          38.000  
 25  8 13  9 51 32.0000000  0 30G 1G 2G 3G 4G 5G 7G 6G 8G14G 9G24G12
                                G10G11G32G26G27G19G23G16G18G29G30G17
                                G31G20G21G13G28G15
  21602746.626   113523159.326       -1265.683          45.000  
  21602683.673   113522714.076       -1265.775          49.000  
  21602752.505   113523160.687       -1265.782          49.000  
  21602632.356   113522644.981       -1265.843          49.000  
  21602536.068   113522159.853       -1265.761          49.000  
  21602572.848   113522202.092       -1265.829          45.000  
  21602645.704   113522698.137       -1265.736          49.000  
  21602652.180   113522813.012       -1265.688          48.000  
  21780237.358   114455921.951       -1265.790          39.000  
  21522939.608   113103871.765       -1265.430          38.000  
  21457293.612   112758873.925       -1265.642          38.000  
  21728367.017   114183336.151       -1265.939          37.000  
  21735989.844   114223398.870       -1265.686          36.000  
  21520893.350   113093084.194       -1266.108          36.000  
  21519714.945   113086893.110       -1265.649          40.000  
  21617595.882   113601202.627       -1265.667          38.000  
  21674739.602   113901556.565       -1265.899          38.000  
  21755623.876   114326612.866       -1265.969          37.000  
  21591515.096   113464190.210       -1265.657          37.000  
  21751522.232   114305027.216       -1265.607          36.000  
  21689395.237   113978584.634       -1265.775          39.000  
  21602944.126   113524227.600       -1265.614          34.000  
  21722802.341   114154064.669       -1265.811          38.000  
  21472535.022   112838963.555       -1265.747          41.000  
  21621405.825   113621299.690       -1265.952          36.000  
  21650417.871   113773784.507       -1265.679          38.000  
  21554296.893   113268648.923       -1265.933          40.000  
  21457298.728   112758898.911       -1265.636          37.000  
  21508872.250   113029940.060       -1265.853          41.000  
  21541988.822   113203953.450       -1265.747          38.000  
 25  8 13  9 51 32.2000000  0 30G 1G 2G 3G 4G 5G 7G 6G 8G14G 9G24G12
                                G10G11G32G26G27G19G23G16G18G29G30G17
                                G31G20G21G13G28G15
  21602794.794   113523412.452       -1265.581          45.000  
  21602731.843   113522967.197       -1265.569          49.000  
  21602800.120   113523413.808       -1265.528          49.000  
  21602680.524   113522898.100       -1265.558          49.000  
  21602585.350   113522412.974       -1265.504          49.000  
  21602621.020   113522455.213       -1265.497          45.000  
  21602693.852   113522951.257       -1265.530          49.000  
  21602700.311   113523066.133       -1265.542          48.000  
  21780285.472   114456175.069       -1265.511          39.000  
  21522987.833   113104124.894       -1265.640          38.000  
  21457341.782   112759127.045       -1265.547          38.000  
  21728415.174   114183589.269       -1265.386          37.000  
  21736038.014   114223651.988       -1265.609          36.000  
  21520941.441   113093337.311       -1265.477          36.000  
  21519763.118   113087146.231       -1265.656          40.000  
  21617644.055   113601455.747       -1265.569          38.000  
  21674787.760   113901809.682       -1265.458          38.000  
  21755671.980   114326865.981       -1265.393          37.000  
  21591563.247   113464443.335       -1265.569          37.000  
  21751570.466   114305280.334       -1265.531          36.000  
  21689443.397   113978837.755       -1265.463          39.000  
  21602992.260   113524480.719       -1265.633          34.000  
  21722850.469   114154317.791       -1265.576          38.000  
  21472583.134   112839216.674       -1265.529          41.000  
  21621453.970   113621552.807       -1265.432          36.000  
  21650466.023   113774037.626       -1265.544          38.000  
  21554345.028   113268902.042       -1265.356          40.000  
  21457346.913   112759152.033       -1265.575          37.000  
  21508920.443   113030193.177       -1265.490          41.000  
  21542036.957   113204206.572       -1265.574          38.000  
 25  8 13  9 51 32.4000000  0 30G 1G 2G 3G 4G 5G 7G 6G 8G14G 9G24G12
                                G10G11G32G26G27G19G23G16G18G29G30G17
                                G31G20G21G13G28G15
  21602843.009   113523665.580       -1265.698          45.000  
  21602780.022   113523220.322       -1265.660          49.000  
  21602847.569   113523666.935       -1265.691          49.000  
  21602728.683   113523151.227       -1265.694          49.000  
  21602634.232   113522666.103       -1265.683          49.000  
  21602669.183   113522708.345       -1265.703          45.000  
  21602742.022   113523204.384       -1265.691          49.000  
  21602748.535   113523319.260       -1265.691          49.000  
  21780333.605   114456428.191       -1265.793          39.000  
  21523036.029   113104378.019       -1265.699          38.000  
  21457390.016   112759380.178       -1265.756          38.000  
  21728463.340   114183842.395       -1265.673          37.000  
  21736086.221   114223905.117       -1265.772          36.000  
  21520989.621   113093590.445       -1265.804          36.000  
  21519811.310   113087399.354       -1265.646          40.000  
  21617692.249   113601708.866       -1265.530          38.000  
  21674835.890   113902062.819       -1265.776          38.000  
  21755720.200   114327119.115       -1265.683          37.000  
  21591611.406   113464696.448       -1265.584          37.000  
  21751618.711   114305533.465       -1265.596          36.000  
  21689491.608   113979090.885       -1265.711          39.000  
  21603040.461   113524733.838       -1265.723          34.000  
  21722898.640   114154570.918       -1265.677          38.000  
  21472631.316   112839469.806       -1265.662          41.000  
  21621502.138   113621805.941       -1265.783          36.000  
  21650514.198   113774290.757       -1265.719          38.000  
  21554393.193   113269155.184       -1265.800          40.000  
  21457395.089   112759405.167       -1265.715          38.000  
  21508968.560   113030446.306       -1265.695          41.000  
  21542085.148   113204459.700       -1265.688          37.000  
 25  8 13  9 51 32.6000000  0 30G 1G 2G 3G 4G 5G 7G 6G 8G14G 9G24G12
                                G10G11G32G26G27G19G23G16G18G29G30G17
                                G31G20G21G13G28G15
  21602891.220   113523918.706       -1265.673          45.000  
  21602828.203   113523473.451       -1265.658          49.000  
  21602894.888   113523920.066       -1265.668          49.000  
  21602776.838   113523404.356       -1265.678          49.000  
  21602682.936   113522919.231       -1265.699          49.000  
  21602717.393   113522961.472       -1265.705          45.000  
  21602790.145   113523457.511       -1265.652          49.000  
  21602796.689   113523572.388       -1265.679          48.000  
  21780381.785   114456681.322       -1265.552          39.000  
  21523084.171   113104631.142       -1265.687          38.000  
  21457438.173   112759633.293       -1265.674          38.000  
  21728511.504   114184095.532       -1265.640          37.000  
  21736134.395   114224158.248       -1265.750          36.000  
  21521037.745   113093843.573       -1265.708          36.000  
  21519859.470   113087652.485       -1265.691          40.000  
  21617740.466   113601962.005       -1265.723          38.000  
  21674884.082   113902315.941       -1265.679          38.000  
  21755768.404   114327372.240       -1265.653          37.000  
  21591659.565   113464949.590       -1265.619          37.000  
  21751666.912   114305786.593       -1265.794          36.000  
  21689539.751   113979344.014       -1265.732          39.000  
  21603088.649   113524986.978       -1265.719          34.000  
  21722946.755   114154824.051       -1265.730          38.000  
  21472679.469   112839722.933       -1265.659          41.000  
  21621550.319   113622059.062       -1265.532          36.000  
  21650562.316   113774543.884       -1265.694          38.000  
  21554441.327   113269408.297       -1265.701          40.000  
  21457443.254   112759658.282       -1265.665          38.000  
  21509016.757   113030699.433       -1265.659          41.000  
  21542133.304   113204712.825       -1265.626          37.000  
 25  8 13  9 51 32.8000000  0 30G 1G 2G 3G 4G 5G 7G 6G 8G14G 9G24G12
                                G10G11G32G26G27G19G23G16G18G29G30G17
                                G31G20G21G13G28G15
  21602939.412   113524171.823       -1265.441          45.000  
  21602876.376   113523726.575       -1265.584          49.000  
  21602942.644   113524173.192       -1265.587          49.000  
  21602825.021   113523657.490       -1265.698          49.000  
  21602731.025   113523172.369       -1265.727          49.000  
  21602765.585   113523214.616       -1265.798          45.000  
  21602838.299   113523710.637       -1265.548          49.000  
  21602844.885   113523825.517       -1265.613          48.000  
  21780429.937   114456934.462       -1265.694          39.000  
  21523132.377   113104884.228       -1265.023          38.000  
  21457486.351   112759886.420       -1265.531          38.000  
  21728559.687   114184348.697       -1266.136          37.000  
  21736182.601   114224411.383       -1265.741          36.000  
  21521085.874   113094096.724       -1265.903          36.000  
  21519907.654   113087905.590       -1265.264          40.000  
  21617788.648   113602215.113       -1265.371          38.000  
  21674932.263   113902569.097       -1266.030          38.000  
  21755816.593   114327625.424       -1266.417          37.000  
  21591707.743   113465202.714       -1265.531          37.000  
  21751715.114   114306039.692       -1265.268          36.000  
  21689587.935   113979597.155       -1265.800          39.000  
  21603136.802   113525240.066       -1265.033          34.000  
  21722994.967   114155077.207       -1266.010          38.000  
  21472727.635   112839976.082       -1265.880          41.000  
  21621598.542   113622312.228       -1266.076          36.000  
  21650610.514   113774796.987       -1265.222          38.000  
  21554489.536   113269661.494       -1266.508          40.000  
  21457491.478   112759911.439       -1265.891          38.000  
  21509064.938   113030952.585       -1265.957          41.000  
  21542181.517   113204965.995       -1266.134          37.000  
 25  8 13  9 51 33.0000000  0 30G 1G 2G 3G 4G 5G 7G 6G 8G14G 9G24G12
                                G10G11G32G26G27G19G23G16G18G29G30G17
                                G31G20G21G13G28G15
  21602987.595   113524424.945       -1265.564          45.000  
  21602924.552   113523979.684       -1265.445          49.000  
  21602991.585   113524426.298       -1265.364          49.000  
  21602873.191   113523910.597       -1265.438          49.000  
  21602778.281   113523425.475       -1265.423          49.000  
  21602813.804   113523467.725       -1265.480          45.000  
  21602886.406   113523963.749       -1265.456          49.000  
  21602893.045   113524078.628       -1265.442          48.000  
  21780478.085   114457187.546       -1265.199          39.000  
  21523180.530   113105137.364       -1265.576          38.000  
  21457534.540   112760139.533       -1265.428          38.000  
  21728607.845   114184601.781       -1265.246          37.000  
  21736230.753   114224664.477       -1265.262          36.000  
  21521133.993   113094349.817       -1265.320          35.000  
  21519955.800   113088158.708       -1265.409          40.000  
  21617836.797   113602468.224       -1265.383          37.000  
  21674980.432   113902822.195       -1265.362          38.000  
  21755864.747   114327878.508       -1265.275          36.000  
  21591755.921   113465455.808       -1265.255          37.000  
  21751763.254   114306292.802       -1265.281          36.000  
  21689636.065   113979850.259       -1265.386          39.000  
  21603184.937   113525493.182       -1265.324          34.000  
  21723043.095   114155330.302       -1265.384          38.000  
  21472775.816   112840229.182       -1265.342          41.000  
  21621646.711   113622565.311       -1265.270          36.000  
  21650658.678   113775050.115       -1265.568          38.000  
  21554537.701   113269914.578       -1265.330          40.000  
  21457539.641   112760164.560       -1265.630          37.000  
  21509113.101   113031205.686       -1265.392          41.000  
  21542229.690   113205219.088       -1265.356          38.000  
 25  8 13  9 51 33.2000000  0 30G 1G 2G 3G 4G 5G 7G 6G 8G14G 9G24G12
                                G10G11G32G26G27G19G23G16G18G29G30G17
                                G31G20G21G13G28G15
  21603035.789   113524678.020       -1265.353          45.000  
  21602972.719   113524232.772       -1265.417          49.000  
  21603040.297   113524679.385       -1265.288          49.000  
  21602921.361   113524163.683       -1265.344          49.000  
  21602825.726   113523678.559       -1265.303          49.000  
  21602861.958   113523720.806       -1265.278          45.000  
  21602934.553   113524216.833       -1265.323          49.000  
  21602941.202   113524331.711       -1265.317          48.000  
  21780526.195   114457440.649       -1265.308          39.000  
  21523228.727   113105390.438       -1265.428          38.000  
  21457582.668   112760392.612       -1265.162          38.000  
  21728656.000   114184854.879       -1265.265          37.000  
  21736278.933   114224917.572       -1265.235          36.000  
  21521182.116   113094602.907       -1265.187          35.000  
  21520003.950   113088411.793       -1265.376          40.000  
  21617884.953   113602721.313       -1265.288          38.000  
  21675028.622   113903075.284       -1265.301          38.000  
  21755912.895   114328131.602       -1265.249          36.000  
  21591804.065   113465708.908       -1265.236          37.000  
  21751811.422   114306545.898       -1265.406          36.000  
  21689684.250   113980103.347       -1265.348          39.000  
  21603233.109   113525746.271       -1265.255          34.000  
  21723091.306   114155583.392       -1265.281          38.000  
  21472823.965   112840482.275       -1265.304          41.000  
  21621694.886   113622818.406       -1265.206          36.000  
  21650706.841   113775303.189       -1265.348          38.000  
  21554585.879   113270167.672       -1265.239          40.000  
  21457587.817   112760417.628       -1265.236          37.000  
  21509161.274   113031458.770       -1265.297          41.000  
  21542277.888   113205472.179       -1265.190          38.000  
 25  8 13  9 51 33.4000000  0 30G 1G 2G 3G 4G 5G 7G 6G 8G14G 9G24G12
                                G10G11G32G26G27G19G23G16G18G29G30G17
                                G31G20G21G13G28G15
  21603083.979   113524931.104       -1265.309          44.000  
  21603020.885   113524485.857       -1265.440          49.000  
  21603089.057   113524932.473       -1265.445          49.000  
  21602969.534   113524416.768       -1265.400          49.000  
  21602873.230   113523931.646       -1265.380          49.000  
  21602910.119   113523973.893       -1265.359          45.000  
  21602982.700   113524469.917       -1265.367          49.000  
  21602989.419   113524584.797       -1265.365          48.000  
  21780574.369   114457693.742       -1265.656          39.000  
  21523276.854   113105643.521       -1265.270          38.000  
  21457630.853   112760645.706       -1265.389          38.000  
  21728704.175   114185107.967       -1265.535          37.000  
  21736327.125   114225170.662       -1265.477          35.000  
  21521230.239   113094855.999       -1265.476          35.000  
  21520052.115   113088664.875       -1265.381          40.000  
  21617933.124   113602974.400       -1265.470          38.000  
  21675076.778   113903328.371       -1265.404          38.000  
  21755961.120   114328384.687       -1265.415          36.000  
  21591852.270   113465962.002       -1265.671          37.000  
  21751859.558   114306798.979       -1265.373          36.000  
  21689732.432   113980356.432       -1265.438          39.000  
  21603281.264   113525999.364       -1265.530          34.000  
  21723139.494   114155836.475       -1265.379          39.000  
  21472872.159   112840735.361       -1265.458          41.000  
  21621743.049   113623071.500       -1265.542          36.000  
  21650755.026   113775556.278       -1265.367          38.000  
  21554634.058   113270420.761       -1265.437          40.000  
  21457636.014   112760670.713       -1265.166          37.000  
  21509209.438   113031711.853       -1265.320          41.000  
  21542326.039   113205725.266       -1265.424          38.000  
 25  8 13  9 51 33.6000000  0 30G 1G 2G 3G 4G 5G 7G 6G 8G14G 9G24G12
                                G10G11G32G26G27G19G23G16G18G29G30G17
                                G31G20G21G13G28G15
  21603132.174   113525184.184       -1265.486          44.000  
  21603069.044   113524738.921       -1265.278          49.000  
  21603137.794   113525185.539       -1265.377          49.000  
  21603017.698   113524669.838       -1265.349          49.000  
  21602920.880   113524184.719       -1265.434          49.000  
  21602958.305   113524226.969       -1265.482          45.000  
  21603030.849   113524722.991       -1265.434          49.000  
  21603037.582   113524837.870       -1265.421          48.000  
  21780622.534   114457946.798       -1265.458          39.000  
  21523325.063   113105896.599       -1265.400          38.000  
  21457678.985   112760898.778       -1265.457          38.000  
  21728752.328   114185361.030       -1265.424          37.000  
  21736375.290   114225423.723       -1265.331          35.000  
  21521278.394   113095109.067       -1265.460          35.000  
  21520100.247   113088917.946       -1265.314          40.000  
  21617981.275   113603227.466       -1265.417          38.000  
  21675124.958   113903581.442       -1265.449          38.000  
  21756009.290   114328637.753       -1265.250          36.000  
  21591900.385   113466215.054       -1265.408          37.000  
  21751907.707   114307052.047       -1265.333          36.000  
  21689780.553   113980609.501       -1265.409          39.000  
  21603329.427   113526252.420       -1265.260          34.000  
  21723187.605   114156089.546       -1265.383          39.000  
  21472920.277   112840988.430       -1265.431          41.000  
  21621791.174   113623324.562       -1265.364          36.000  
  21650803.200   113775809.352       -1265.497          38.000  
  21554682.224   113270673.830       -1265.450          40.000  
  21457684.213   112760923.809       -1265.715          37.000  
  21509257.607   113031964.935       -1265.546          40.000  
  21542374.149   113205978.334       -1265.425          38.000  
 25  8 13  9 51 33.8000000  0 30G 1G 2G 3G 4G 5G 7G 6G 8G14G 9G24G12
                                G10G11G32G26G27G19G23G16G18G29G30G17
                                G31G20G21G13G28G15
  21603180.336   113525437.241       -1265.509          44.000  
  21603117.212   113524991.985       -1265.516          49.000  
  21603186.578   113525438.595       -1265.479          49.000  
  21603065.856   113524922.899       -1265.537          49.000  
  21602968.534   113524437.776       -1265.498          49.000  
  21603006.464   113524480.022       -1265.471          45.000  
  21603079.014   113524976.046       -1265.491          49.000  
  21603085.766   113525090.926       -1265.504          48.000  
  21780670.698   114458199.850       -1265.453          40.000  
  21523373.231   113106149.656       -1265.519          38.000  
  21457727.196   112761151.832       -1265.490          38.000  
  21728800.487   114185614.083       -1265.469          37.000  
  21736423.434   114225676.778       -1265.529          35.000  
  21521326.568   113095362.119       -1265.470          35.000  
  21520148.414   113089171.001       -1265.476          40.000  
  21618029.406   113603480.521       -1265.500          37.000  
  21675173.105   113903834.499       -1265.559          38.000  
  21756057.454   114328890.811       -1265.542          36.000  
  21591948.556   113466468.104       -1265.370          37.000  
  21751955.819   114307305.107       -1265.537          36.000  
  21689828.728   113980862.557       -1265.472          39.000  
  21603377.636   113526505.476       -1265.454          34.000  
  21723235.827   114156342.606       -1265.491          39.000  
  21472968.463   112841241.486       -1265.507          41.000  
  21621839.333   113623577.621       -1265.537          36.000  
  21650851.396   113776062.407       -1265.491          38.000  
  21554730.353   113270926.887       -1265.499          40.000  
  21457732.409   112761176.857       -1265.455          37.000  
  21509305.710   113032217.987       -1265.494          41.000  
  21542422.334   113206231.390       -1265.475          38.000  
 25  8 13  9 51 34.0000000  0 30G 1G 2G 3G 4G 5G 7G 6G 8G14G 9G24G12
                                G10G11G32G26G27G19G23G16G18G29G30G17
                                G31G20G21G13G28G15
  21603228.514   113525690.321       -1265.275          44.000  
  21603165.371   113525245.065       -1265.347          49.000  
  21603235.453   113525691.679       -1265.299          49.000  
  21603113.997   113525175.980       -1265.373          49.000  
  21603016.315   113524690.859       -1265.321          49.000  
  21603054.628   113524733.109       -1265.351          45.000  
  21603127.116   113525229.129       -1265.334          49.000  
  21603133.880   113525344.010       -1265.333          48.000  
  21780718.849   114458452.936       -1265.332          40.000  
  21523421.344   113106402.736       -1265.300          38.000  
  21457775.383   112761404.914       -1265.309          38.000  
  21728848.605   114185867.167       -1265.267          37.000  
  21736471.564   114225929.856       -1265.188          35.000  
  21521374.719   113095615.206       -1265.330          35.000  
  21520196.581   113089424.087       -1265.269          40.000  
  21618077.566   113603733.608       -1265.379          37.000  
  21675221.290   113904087.580       -1265.287          38.000  
  21756105.565   114329143.894       -1265.271          36.000  
  21591996.677   113466721.192       -1265.285          37.000  
  21752003.898   114307558.188       -1265.374          36.000  
  21689876.845   113981115.642       -1265.338          39.000  
  21603425.850   113526758.563       -1265.373          34.000  
  21723283.952   114156595.689       -1265.334          39.000  
  21473016.564   112841494.570       -1265.344          41.000  
  21621887.484   113623830.703       -1265.380          36.000  
  21650899.551   113776315.489       -1265.267          38.000  
  21554778.472   113271179.970       -1265.332          40.000  
  21457780.587   112761429.944       -1265.304          36.000  
  21509353.888   113032471.071       -1265.306          41.000  
  21542470.457   113206484.478       -1265.411          38.000  
 25  8 13  9 51 34.2000000  0 30G 1G 2G 3G 4G 5G 7G 6G 8G14G 9G24G12
                                G10G11G32G26G27G19G23G16G18G29G30G17
                                G31G20G21G13G28G15
  21603276.665   113525943.377       -1265.247          44.000  
  21603213.537   113525498.125       -1265.307          49.000  
  21603284.067   113525944.737       -1265.245          49.000  
  21603162.162   113525429.036       -1265.260          49.000  
  21603064.164   113524943.915       -1265.266          49.000  
  21603102.787   113524986.161       -1265.227          45.000  
  21603175.293   113525482.185       -1265.226          49.000  
  21603182.043   113525597.066       -1265.246          48.000  
  21780766.999   114458705.995       -1265.358          40.000  
  21523469.556   113106655.796       -1265.217          38.000  
  21457823.551   112761657.976       -1265.262          38.000  
  21728896.736   114186120.230       -1265.329          37.000  
  21736519.718   114226182.924       -1265.337          35.000  
  21521422.845   113095868.259       -1265.262          35.000  
  21520244.732   113089677.146       -1265.250          40.000  
  21618125.726   113603986.667       -1265.252          38.000  
  21675269.451   113904340.636       -1265.233          38.000  
  21756153.705   114329396.955       -1265.188          36.000  
  21592044.833   113466974.257       -1265.334          37.000  
  21752052.030   114307811.248       -1265.324          37.000  
  21689925.020   113981368.702       -1265.347          39.000  
  21603474.038   113527011.627       -1265.262          34.000  
  21723332.115   114156848.745       -1265.293          39.000  
  21473064.781   112841747.626       -1265.253          41.000  
  21621935.660   113624083.761       -1265.267          36.000  
  21650947.725   113776568.545       -1265.315          38.000  
  21554826.607   113271433.026       -1265.255          40.000  
  21457828.764   112761682.984       -1265.205          36.000  
  21509402.029   113032724.126       -1265.276          41.000  
  21542518.630   113206737.530       -1265.253          38.000  
 25  8 13  9 51 34.4000000  0 30G 1G 2G 3G 4G 5G 7G 6G 8G14G 9G24G12
                                G10G11G32G26G27G19G23G16G18G29G30G17
                                G31G20G21G13G28G15
  21603324.846   113526196.448       -1265.317          44.000  
  21603261.706   113525751.188       -1265.242          49.000  
  21603332.572   113526197.807       -1265.284          49.000  
  21603210.335   113525682.102       -1265.227          49.000  
  21603112.074   113525196.983       -1265.285          49.000  
  21603150.975   113525239.233       -1265.304          45.000  
  21603223.395   113525735.255       -1265.271          49.000  
  21603230.213   113525850.137       -1265.332          48.000  
  21780815.162   114458959.063       -1265.353          39.000  
  21523517.662   113106908.866       -1265.298          38.000  
  21457871.707   112761911.047       -1265.334          38.000  
  21728944.909   114186373.294       -1265.300          37.000  
  21736567.900   114226435.992       -1265.345          35.000  
  21521470.990   113096121.330       -1265.272          35.000  
  21520292.872   113089930.218       -1265.336          40.000  
  21618173.918   113604239.731       -1265.226          37.000  
  21675317.615   113904593.708       -1265.271          38.000  
  21756201.905   114329650.023       -1265.179          36.000  
  21592093.015   113467227.321       -1265.286          37.000  
  21752100.205   114308064.307       -1265.161          36.000  
  21689973.167   113981621.767       -1265.300          39.000  
  21603522.169   113527264.691       -1265.221          34.000  
  21723380.278   114157101.816       -1265.358          39.000  
  21473112.948   112842000.696       -1265.297          41.000  
  21621983.806   113624336.826       -1265.218          36.000  
  21650995.904   113776821.612       -1265.225          38.000  
  21554874.791   113271686.096       -1265.291          40.000  
  21457876.921   112761936.062       -1265.358          36.000  
  21509450.211   113032977.197       -1265.330          40.000  
  21542566.782   113206990.598       -1265.271          38.000  
 25  8 13  9 51 34.6000000  0 30G 1G 2G 3G 4G 5G 7G 6G 8G14G 9G24G12
                                G10G11G32G26G27G19G23G16G18G29G30G17
                                G31G20G21G13G28G15
  21603373.007   113526449.495       -1265.458          44.000  
  21603309.869   113526004.234       -1265.352          49.000  
  21603381.084   113526450.854       -1265.531          49.000  
  21603258.506   113525935.151       -1265.410          49.000  
  21603160.045   113525450.026       -1265.421          49.000  
  21603199.135   113525492.275       -1265.413          45.000  
  21603271.614   113525988.303       -1265.518          49.000  
  21603278.364   113526103.175       -1265.383          48.000  
  21780863.313   114459212.120       -1265.685          40.000  
  21523565.848   113107161.906       -1265.463          38.000  
  21457919.872   112762164.083       -1265.458          38.000  
  21728993.104   114186626.335       -1265.408          37.000  
  21736616.007   114226689.004       -1265.136          35.000  
  21521519.182   113096374.375       -1265.396          35.000  
  21520341.040   113090183.247       -1265.371          40.000  
  21618222.109   113604492.782       -1265.516          37.000  
  21675365.769   113904846.742       -1265.346          38.000  
  21756250.105   114329903.067       -1265.559          36.000  
  21592141.146   113467480.358       -1265.449          37.000  
  21752148.321   114308317.367       -1265.654          37.000  
  21690021.317   113981874.818       -1265.542          39.000  
  21603570.348   113527517.722       -1265.257          34.000  
  21723428.445   114157354.845       -1265.273          39.000  
  21473161.102   112842253.712       -1265.081          41.000  
  21622031.941   113624589.881       -1265.553          36.000  
  21651044.075   113777074.660       -1265.454          38.000  
  21554922.964   113271939.148       -1265.601          40.000  
  21457925.119   112762189.060       -1264.684          36.000  
  21509498.381   113033230.248       -1265.548          41.000  
  21542614.926   113207243.626       -1265.156          38.000  
 25  8 13  9 51 34.8000000  0 30G 1G 2G 3G 4G 5G 7G 6G 8G14G 9G24G12
                                G10G11G32G26G27G19G23G16G18G29G30G17
                                G31G20G21G13G28G15
  21603421.146   113526702.543       -1265.108          44.000  
  21603358.030   113526257.290       -1265.240          49.000  
  21603429.115   113526703.907       -1265.228          49.000  
  21603306.660   113526188.204       -1265.207          49.000  
  21603208.094   113525703.078       -1265.148          49.000  
  21603247.326   113525745.328       -1265.161          45.000  
  21603319.791   113526241.353       -1265.174          49.000  
  21603326.486   113526356.230       -1265.187          48.000  
  21780911.495   114459465.168       -1265.232          39.000  
  21523613.970   113107414.954       -1265.122          38.000  
  21457968.043   112762417.138       -1265.265          38.000  
  21729041.242   114186879.394       -1265.298          37.000  
  21736664.128   114226942.075       -1265.406          34.000  
  21521567.373   113096627.430       -1265.214          35.000  
  21520389.167   113090436.305       -1265.198          40.000  
  21618270.274   113604745.838       -1265.240          37.000  
  21675413.928   113905099.798       -1265.199          38.000  
  21756298.199   114330156.123       -1265.266          36.000  
  21592189.311   113467733.415       -1265.278          37.000  
  21752196.496   114308570.415       -1265.268          37.000  
  21690069.466   113982127.869       -1265.208          39.000  
  21603618.522   113527770.786       -1265.409          34.000  
  21723476.595   114157607.900       -1265.187          39.000  
  21473209.284   112842506.780       -1265.320          41.000  
  21622080.056   113624842.932       -1265.163          36.000  
  21651092.218   113777327.708       -1265.148          38.000  
  21554971.100   113272192.196       -1265.149          40.000  
  21457973.285   112762442.128       -1265.101          36.000  
  21509546.508   113033483.293       -1265.054          41.000  
  21542663.080   113207496.683       -1265.150          38.000  
 25  8 13  9 51 35.0000000  0 30G 1G 2G 3G 4G 5G 7G 6G 8G14G 9G24G12
                                G10G11G32G26G27G19G23G16G18G29G30G17
                                G31G20G21G13G28G15
  21603469.331   113526955.582       -1265.292          44.000  
  21603406.188   113526510.325       -1265.141          49.000  
  21603476.780   113526956.947       -1265.232          49.000  
  21603354.823   113526441.242       -1265.152          49.000  
  21603256.347   113525956.117       -1265.227          49.000  
  21603295.493   113525998.369       -1265.257          45.000  
  21603367.856   113526494.393       -1265.245          49.000  
  21603374.662   113526609.268       -1265.264          48.000  
  21780959.640   114459718.216       -1265.181          40.000  
  21523662.149   113107667.992       -1265.254          38.000  
  21458016.165   112762670.172       -1265.315          38.000  
  21729089.410   114187132.434       -1265.178          37.000  
  21736712.287   114227195.112       -1265.233          34.000  
  21521615.477   113096880.471       -1265.225          36.000  
  21520437.308   113090689.339       -1265.209          40.000  
  21618318.435   113604998.879       -1265.185          37.000  
  21675462.071   113905352.835       -1265.281          38.000  
  21756346.395   114330409.163       -1265.199          36.000  
  21592237.453   113467986.458       -1265.112          37.000  
  21752244.612   114308823.454       -1265.171          37.000  
  21690117.582   113982380.906       -1265.212          39.000  
  21603666.678   113528023.815       -1265.102          34.000  
  21723524.718   114157860.939       -1265.205          39.000  
  21473257.416   112842759.813       -1265.275          41.000  
  21622128.235   113625095.977       -1265.135          36.000  
  21651140.354   113777580.748       -1265.326          39.000  
  21555019.250   113272445.238       -1265.245          40.000  
  21458021.423   112762695.157       -1265.378          36.000  
  21509594.734   113033736.337       -1265.265          41.000  
  21542711.254   113207749.725       -1265.293          38.000  
 25  8 13  9 51 35.2000000  0 30G 1G 2G 3G 4G 5G 7G 6G 8G14G 9G24G12
                                G10G11G32G26G27G19G23G16G18G29G30G17
                                G31G20G21G13G28G15
  21603517.483   113527208.595       -1265.079          44.000  
  21603454.343   113526763.343       -1265.077          49.000  
  21603524.461   113527209.962       -1265.071          49.000  
  21603402.965   113526694.259       -1265.077          49.000  
  21603304.592   113526209.132       -1265.077          49.000  
  21603343.593   113526251.382       -1265.077          45.000  
  21603416.045   113526747.407       -1265.077          49.000  
  21603422.842   113526862.283       -1265.083          48.000  
  21781007.786   114459971.230       -1265.056          40.000  
  21523710.318   113107921.005       -1265.037          38.000  
  21458064.315   112762923.189       -1265.164          38.000  
  21729137.567   114187385.451       -1265.076          37.000  
  21736760.445   114227448.125       -1265.104          34.000  
  21521663.598   113097133.487       -1265.117          36.000  
  21520485.442   113090942.357       -1265.118          40.000  
  21618366.564   113605251.897       -1265.136          37.000  
  21675510.203   113905605.849       -1265.019          38.000  
  21756394.546   114330662.181       -1265.142          36.000  
  21592285.625   113468239.477       -1265.081          37.000  
  21752292.771   114309076.474       -1265.135          37.000  
  21690165.708   113982633.920       -1265.065          39.000  
  21603714.792   113528276.835       -1265.072          34.000  
  21723572.892   114158113.956       -1265.124          39.000  
  21473305.570   112843012.829       -1265.110          41.000  
  21622176.397   113625348.994       -1265.143          36.000  
  21651188.505   113777833.758       -1265.031          39.000  
  21555067.366   113272698.250       -1265.093          40.000  
  21458069.556   112762948.172       -1265.084          36.000  
  21509642.825   113033989.349       -1265.063          41.000  
  21542759.463   113208002.739       -1265.132          38.000  
 25  8 13  9 51 35.4000000  0 30G 1G 2G 3G 4G 5G 7G 6G 8G14G 9G24G12
                                G10G11G32G26G27G19G23G16G18G29G30G17
                                G31G20G21G13G28G15
  21603565.645   113527461.638       -1265.157          44.000  
  21603502.496   113527016.386       -1265.213          49.000  
  21603572.161   113527463.006       -1265.196          49.000  
  21603451.123   113526947.300       -1265.179          49.000  
  21603352.882   113526462.176       -1265.204          49.000  
  21603391.754   113526504.426       -1265.211          45.000  
  21603464.200   113527000.452       -1265.210          49.000  
  21603470.967   113527115.326       -1265.197          48.000  
  21781055.930   114460224.276       -1265.204          40.000  
  21523758.490   113108174.049       -1265.143          38.000  
  21458112.471   112763176.230       -1265.245          38.000  
  21729185.729   114187638.495       -1265.196          37.000  
  21736808.651   114227701.170       -1265.130          34.000  
  21521711.710   113097386.533       -1265.242          36.000  
  21520533.601   113091195.396       -1265.125          40.000  
  21618414.722   113605504.939       -1265.211          37.000  
  21675558.386   113905858.895       -1265.237          38.000  
  21756442.713   114330915.216       -1265.129          36.000  
  21592333.801   113468492.520       -1265.191          37.000  
  21752340.907   114309329.513       -1265.185          37.000  
  21690213.857   113982886.967       -1265.209          39.000  
  21603762.892   113528529.878       -1265.197          34.000  
  21723621.001   114158366.998       -1265.178          39.000  
  21473353.684   112843265.871       -1265.170          41.000  
  21622224.560   113625602.034       -1265.197          36.000  
  21651236.628   113778086.803       -1265.178          39.000  
  21555115.503   113272951.293       -1265.160          40.000  
  21458117.674   112763201.223       -1265.327          36.000  
  21509691.034   113034242.396       -1265.223          41.000  
  21542807.588   113208255.780       -1265.187          38.000  
 25  8 13  9 51 35.6000000  0 30G 1G 2G 3G 4G 5G 7G 6G 8G14G 9G24G12
                                G10G11G32G26G27G19G23G16G18G29G30G17
                                G31G20G21G13G28G15
  21603613.851   113527714.678       -1265.260          44.000  
  21603550.645   113527269.422       -1265.227          49.000  
  21603619.383   113527716.039       -1265.262          49.000  
  21603499.280   113527200.340       -1265.254          49.000  
  21603401.442   113526715.211       -1265.241          49.000  
  21603439.887   113526757.452       -1265.365          45.000  
  21603512.414   113527253.494       -1265.205          49.000  
  21603519.085   113527368.371       -1265.197          48.000  
  21781104.081   114460477.319       -1265.186          39.000  
  21523806.700   113108427.089       -1265.267          38.000  
  21458160.603   112763429.250       -1265.393          38.000  
  21729233.892   114187891.531       -1265.360          37.000  
  21736856.851   114227954.217       -1265.152          35.000  
  21521759.791   113097639.582       -1265.067          36.000  
  21520581.756   113091448.444       -1265.149          40.000  
  21618462.840   113605757.969       -1265.168          37.000  
  21675606.502   113906111.925       -1265.251          38.000  
  21756490.908   114331168.234       -1265.342          36.000  
  21592381.963   113468745.564       -1265.204          37.000  
  21752389.054   114309582.542       -1265.357          36.000  
  21690262.028   113983140.014       -1265.190          39.000  
  21603810.994   113528782.937       -1265.085          34.000  
  21723669.165   114158620.049       -1265.184          39.000  
  21473401.839   112843518.932       -1265.100          41.000  
  21622272.759   113625855.076       -1265.208          36.000  
  21651284.780   113778339.835       -1265.329          39.000  
  21555163.647   113273204.333       -1265.276          40.000  
  21458165.855   112763454.261       -1265.286          36.000  
  21509739.145   113034495.427       -1265.320          41.000  
  21542855.742   113208508.816       -1265.233          38.000  
 25  8 13  9 51 35.8000000  0 30G 1G 2G 3G 4G 5G 7G 6G 8G14G 9G24G12
                                G10G11G32G26G27G19G23G16G18G29G30G17
                                G31G20G21G13G28G15
  21603662.012   113527967.730       -1265.237          44.000  
  21603598.801   113527522.474       -1265.318          49.000  
  21603666.742   113527969.093       -1265.417          49.000  
  21603547.442   113527453.391       -1265.344          49.000  
  21603449.904   113526968.265       -1265.323          49.000  
  21603488.052   113527010.503       -1265.271          45.000  
  21603560.569   113527506.548       -1265.382          49.000  
  21603567.251   113527621.425       -1265.363          48.000  
  21781152.276   114460730.376       -1265.655          39.000  
  21523854.792   113108680.141       -1265.175          37.000  
  21458208.736   112763682.297       -1265.073          38.000  
  21729282.037   114188144.582       -1265.622          37.000  
  21736904.975   114228207.270       -1265.528          35.000  
  21521807.946   113097892.640       -1265.410          36.000  
  21520629.904   113091701.500       -1265.457          40.000  
  21618511.034   113606011.027       -1265.383          37.000  
  21675654.659   113906364.984       -1265.282          38.000  
  21756539.028   114331421.287       -1265.350          36.000  
  21592430.110   113468998.622       -1265.761          37.000  
  21752437.153   114309835.595       -1265.443          36.000  
  21690310.177   113983393.068       -1265.416          39.000  
  21603859.146   113529036.005       -1265.916          33.000  
  21723717.313   114158873.105       -1265.501          39.000  
  21473450.007   112843771.989       -1265.482          41.000  
  21622320.933   113626108.127       -1265.570          36.000  
  21651332.935   113778592.883       -1265.259          38.000  
  21555211.756   113273457.387       -1265.237          40.000  
  21458214.005   112763707.313       -1265.002          36.000  
  21509787.290   113034748.478       -1265.256          41.000  
  21542903.896   113208761.873       -1265.453          38.000  
 25  8 13  9 51 36.0000000  0 30G 1G 2G 3G 4G 5G 7G 6G 8G14G 9G24G12
                                G10G11G32G26G27G19G23G16G18G29G30G17
                                G31G20G21G13G28G15
  21603710.222   113528220.773       -1265.230          44.000  
  21603646.958   113527775.511       -1265.114          49.000  
  21603714.062   113528222.125       -1265.057          49.000  
  21603595.604   113527706.427       -1265.094          49.000  
  21603498.325   113527221.303       -1265.172          49.000  
  21603536.213   113527263.543       -1265.152          45.000  
  21603608.725   113527759.584       -1265.141          49.000  
  21603615.364   113527874.462       -1265.133          48.000  
  21781200.397   114460983.390       -1264.895          39.000  
  21523902.999   113108933.190       -1265.306          37.000  
  21458256.905   112763935.351       -1265.223          38.000  
  21729330.213   114188397.606       -1264.999          37.000  
  21736953.167   114228460.292       -1264.945          35.000  
  21521856.091   113098145.668       -1264.994          36.000  
  21520678.059   113091954.531       -1265.061          40.000  
  21618559.218   113606264.062       -1265.087          37.000  
  21675702.756   113906618.030       -1265.293          38.000  
  21756587.137   114331674.327       -1265.078          37.000  
  21592478.244   113469251.639       -1264.951          37.000  
  21752485.251   114310088.625       -1265.123          36.000  
  21690358.327   113983646.102       -1265.108          39.000  
  21603907.267   113529289.011       -1264.931          33.000  
  21723765.512   114159126.135       -1265.084          39.000  
  21473498.155   112844025.024       -1265.139          41.000  
  21622369.090   113626361.148       -1264.913          36.000  
  21651381.084   113778845.926       -1265.169          38.000  
  21555259.935   113273710.431       -1265.209          40.000  
  21458262.182   112763960.378       -1265.477          36.000  
  21509835.448   113035001.520       -1265.157          41.000  
  21542952.024   113209014.903       -1265.049          38.000  
 25  8 13  9 51 36.2000000  0 30G 1G 2G 3G 4G 5G 7G 6G 8G14G 9G24G12
                                G10G11G32G26G27G19G23G16G18G29G30G17
                                G31G20G21G13G28G15
  21603758.378   113528473.796       -1265.262          44.000  
  21603695.118   113528028.537       -1265.115          49.000  
  21603761.435   113528475.160       -1265.258          49.000  
  21603643.769   113527959.457       -1265.188          49.000  
  21603546.637   113527474.331       -1265.281          49.000  
  21603584.414   113527516.572       -1265.287          45.000  
  21603656.926   113528012.614       -1265.266          49.000  
  21603663.566   113528127.492       -1265.273          48.000  
  21781248.557   114461236.427       -1265.040          39.000  
  21523951.097   113109186.216       -1265.366          37.000  
  21458305.043   112764188.374       -1265.317          38.000  
  21729378.343   114188650.642       -1265.139          37.000  
  21737001.334   114228713.336       -1265.204          35.000  
  21521904.242   113098398.701       -1265.227          36.000  
  21520726.224   113092207.562       -1265.260          40.000  
  21618607.354   113606517.094       -1265.271          37.000  
  21675750.898   113906871.054       -1265.301          38.000  
  21756635.285   114331927.360       -1265.307          37.000  
  21592526.440   113469504.685       -1265.234          37.000  
  21752533.370   114310341.659       -1265.239          36.000  
  21690406.512   113983899.132       -1265.246          39.000  
  21603955.408   113529542.057       -1265.099          32.000  
  21723813.694   114159379.168       -1265.218          39.000  
  21473546.348   112844278.056       -1265.300          41.000  
  21622417.252   113626614.192       -1265.184          35.000  
  21651429.260   113779098.954       -1265.299          38.000  
  21555308.076   113273963.459       -1265.281          40.000  
  21458310.348   112764213.389       -1265.387          36.000  
  21509883.573   113035254.550       -1265.253          41.000  
  21543000.183   113209267.936       -1265.227          39.000  
 25  8 13  9 51 36.4000000  0 30G 1G 2G 3G 4G 5G 7G 6G 8G14G 9G24G12
                                G10G11G32G26G27G19G23G16G18G29G30G17
                                G31G20G21G13G28G15
  21603806.543   113528726.816       -1265.186          44.000  
  21603743.277   113528281.565       -1265.178          49.000  
  21603809.128   113528728.185       -1265.269          49.000  
  21603691.921   113528212.481       -1265.165          49.000  
  21603594.888   113527727.358       -1265.291          49.000  
  21603632.598   113527769.598       -1265.285          45.000  
  21603705.114   113528265.630       -1265.135          49.000  
  21603711.694   113528380.512       -1265.167          48.000  
  21781296.709   114461489.439       -1264.852          39.000  
  21523999.276   113109439.230       -1265.273          37.000  
  21458353.172   112764441.405       -1265.459          38.000  
  21729426.514   114188903.666       -1265.064          37.000  
  21737049.504   114228966.368       -1265.378          35.000  
  21521952.389   113098651.727       -1265.204          36.000  
  21520774.394   113092460.592       -1265.364          40.000  
  21618655.476   113606770.106       -1265.136          37.000  
  21675799.076   113907124.071       -1265.129          38.000  
  21756683.483   114332180.392       -1265.352          37.000  
  21592574.587   113469757.693       -1265.049          37.000  
  21752581.507   114310594.664       -1265.020          36.000  
  21690454.684   113984152.139       -1264.995          39.000  
  21604003.570   113529795.118       -1265.599          32.000  
  21723861.815   114159632.188       -1265.145          39.000  
  21473594.465   112844531.081       -1265.251          41.000  
  21622465.383   113626867.210       -1265.117          36.000  
  21651477.418   113779351.988       -1265.452          38.000  
  21555356.213   113274216.480       -1265.254          40.000  
  21458358.495   112764466.411       -1265.306          36.000  
  21509931.760   113035507.584       -1265.367          41.000  
  21543048.323   113209520.974       -1265.380          39.000  
 25  8 13  9 51 36.6000000  0 30G 1G 2G 3G 4G 5G 7G 6G 8G14G 9G24G12
                                G10G11G32G26G27G19G23G16G18G29G30G17
                                G31G20G21G13G28G15
  21603854.689   113528979.834       -1265.195          44.000  
  21603791.432   113528534.578       -1265.071          49.000  
  21603857.376   113528981.194       -1265.073          49.000  
  21603740.075   113528465.496       -1265.137          49.000  
  21603643.053   113527980.369       -1265.120          49.000  
  21603680.768   113528022.610       -1265.146          45.000  
  21603753.236   113528518.645       -1265.123          49.000  
  21603759.870   113528633.526       -1265.117          48.000  
  21781344.872   114461742.444       -1264.885          39.000  
  21524047.422   113109692.244       -1265.214          37.000  
  21458401.332   112764694.415       -1265.088          38.000  
  21729474.643   114189156.674       -1264.959          37.000  
  21737097.649   114229219.362       -1264.978          35.000  
  21522000.535   113098904.740       -1265.066          36.000  
  21520822.516   113092713.600       -1265.076          40.000  
  21618703.599   113607023.128       -1265.188          37.000  
  21675847.195   113907377.086       -1265.117          38.000  
  21756731.644   114332433.407       -1265.198          36.000  
  21592622.755   113470010.703       -1265.071          37.000  
  21752629.577   114310847.685       -1265.264          36.000  
  21690502.865   113984405.162       -1265.170          39.000  
  21604051.676   113530048.113       -1264.973          32.000  
  21723909.996   114159885.203       -1265.130          39.000  
  21473642.646   112844784.091       -1265.079          41.000  
  21622513.542   113627120.219       -1265.073          36.000  
  21651525.592   113779604.994       -1265.081          38.000  
  21555404.364   113274469.492       -1265.106          40.000  
  21458406.593   112764719.431       -1265.133          36.000  
  21509979.919   113035760.594       -1265.150          41.000  
  21543096.468   113209773.980       -1265.092          39.000  
 25  8 13  9 51 36.8000000  0 30G 1G 2G 3G 4G 5G 7G 6G 8G14G 9G24G12
                                G10G11G32G26G27G19G23G16G18G29G30G17
                                G31G20G21G13G28G15
  21603902.840   113529232.868       -1265.254          44.000  
  21603839.593   113528787.612       -1265.244          49.000  
  21603905.834   113529234.226       -1265.157          49.000  
  21603788.232   113528718.528       -1265.204          49.000  
  21603691.093   113528233.405       -1265.208          49.000  
  21603728.923   113528275.644       -1265.189          45.000  
  21603801.360   113528771.680       -1265.209          49.000  
  21603807.985   113528886.558       -1265.197          48.000  
  21781393.043   114461995.483       -1265.296          39.000  
  21524095.546   113109945.278       -1265.171          37.000  
  21458449.463   112764947.447       -1265.084          38.000  
  21729522.801   114189409.705       -1265.151          37.000  
  21737145.842   114229472.388       -1264.942          35.000  
  21522048.717   113099157.770       -1265.144          36.000  
  21520870.671   113092966.634       -1265.116          40.000  
  21618751.737   113607276.160       -1265.295          37.000  
  21675895.366   113907630.121       -1265.190          38.000  
  21756779.765   114332686.428       -1265.069          36.000  
  21592670.874   113470263.730       -1265.121          37.000  
  21752677.692   114311100.712       -1265.191          36.000  
  21690550.980   113984658.194       -1265.223          39.000  
  21604099.832   113530301.139       -1265.097          32.000  
  21723958.119   114160138.232       -1265.163          39.000  
  21473690.773   112845037.125       -1265.178          41.000  
  21622561.688   113627373.249       -1265.157          36.000  
  21651573.767   113779858.026       -1265.096          39.000  
  21555452.514   113274722.529       -1265.245          40.000  
  21458454.735   112764972.476       -1265.365          37.000  
  21510028.104   113036013.629       -1265.175          40.000  
  21543144.611   113210027.014       -1265.183          39.000  
 25  8 13  9 51 37.0000000  0 30G 1G 2G 3G 4G 5G 7G 6G 8G14G 9G24G12
                                G10G11G32G26G27G19G23G16G18G29G30G17
                                G31G20G21G13G28G15
  21603951.010   113529485.898       -1265.130          44.000  
  21603887.749   113529040.643       -1265.109          49.000  
  21603954.414   113529487.262       -1265.173          49.000  
  21603836.360   113528971.560       -1265.149          49.000  
  21603739.089   113528486.436       -1265.127          49.000  
  21603777.091   113528528.675       -1265.089          45.000  
  21603849.535   113529024.712       -1265.135          49.000  
  21603856.124   113529139.592       -1265.162          49.000  
  21781441.172   114462248.511       -1265.148          39.000  
  21524143.739   113110198.311       -1265.145          37.000  
  21458497.626   112765200.482       -1265.100          38.000  
  21729570.949   114189662.742       -1265.146          37.000  
  21737193.996   114229725.437       -1265.174          35.000  
  21522096.917   113099410.805       -1265.216          36.000  
  21520918.834   113093219.673       -1265.245          40.000  
  21618799.878   113607529.188       -1265.131          37.000  
  21675943.509   113907883.153       -1265.087          38.000  
  21756827.931   114332939.475       -1265.301          36.000  
  21592719.007   113470516.772       -1265.243          37.000  
  21752725.793   114311353.749       -1265.177          36.000  
  21690599.148   113984911.229       -1265.179          39.000  
  21604148.064   113530554.181       -1265.239          32.000  
  21724006.289   114160391.264       -1265.069          39.000  
  21473738.968   112845290.159       -1265.193          41.000  
  21622609.809   113627626.283       -1265.134          36.000  
  21651621.928   113780111.062       -1265.129          39.000  
  21555500.692   113274975.559       -1265.115          40.000  
  21458502.848   112765225.494       -1264.985          37.000  
  21510076.254   113036266.660       -1265.115          40.000  
  21543192.818   113210280.048       -1265.132          39.000  
 25  8 13  9 51 37.2000000  0 30G 1G 2G 3G 4G 5G 7G 6G 8G14G 9G24G12
                                G10G11G32G26G27G19G23G16G18G29G30G17
                                G31G20G21G13G28G15
  21603999.194   113529738.912       -1265.076          44.000  
  21603935.896   113529293.657       -1265.078          49.000  
  21604002.751   113529740.275       -1265.085          49.000  
  21603884.514   113529224.574       -1265.071          49.000  
  21603787.245   113528739.451       -1265.123          49.000  
  21603825.265   113528781.690       -1265.116          45.000  
  21603897.695   113529277.726       -1265.116          49.000  
  21603904.309   113529392.605       -1265.083          49.000  
  21781489.312   114462501.528       -1265.061          39.000  
  21524191.849   113110451.326       -1265.135          37.000  
  21458545.788   112765453.501       -1265.143          38.000  
  21729619.094   114189915.759       -1265.090          37.000  
  21737242.152   114229978.451       -1265.150          35.000  
  21522145.071   113099663.814       -1265.033          36.000  
  21520966.979   113093472.678       -1265.062          40.000  
  21618848.005   113607782.206       -1265.149          37.000  
  21675991.696   113908136.168       -1265.190          37.000  
  21756876.099   114333192.480       -1265.038          36.000  
  21592767.101   113470769.783       -1265.154          37.000  
  21752773.949   114311606.762       -1265.056          36.000  
  21690647.315   113985164.238       -1265.125          39.000  
  21604196.248   113530807.193       -1265.067          33.000  
  21724054.413   114160644.282       -1265.123          39.000  
  21473787.141   112845543.173       -1265.118          41.000  
  21622657.954   113627879.297       -1265.139          36.000  
  21651670.071   113780364.077       -1265.128          39.000  
  21555548.855   113275228.573       -1265.085          40.000  
  21458551.025   112765478.516       -1265.151          37.000  
  21510124.422   113036519.675       -1265.138          40.000  
  21543240.889   113210533.062       -1265.118          39.000  
