     2.10           OBSERVATION DATA    M (MIXED)           RINEX VERSION / TYPE
RTKCONV 2.4.2                           20200424 140720 UTC PGM / RUN BY / DATE 
log: G:\54\GPS\0424\gps-6-2                                 COMMENT             
format: u-blox                                              COMMENT             
                                                            MARKER NAME         
                                                            MARKER NUMBER       
                                                            OBSERVER / AGENCY   
                                                            REC # / TYPE / VERS 
                                                            ANT # / TYPE        
        0.0000        0.0000        0.0000                  APPROX POSITION XYZ 
        0.0000        0.0000        0.0000                  ANTENNA: DELTA H/E/N
     1     1                                                WAVELENGTH FACT L1/2
     4    C1    L1    D1    S1                              # / TYPES OF OBSERV 
  2025     8    13     8    56   49.0020000     GPS         TIME OF FIRST OBS   
  2025     8    13     8    58   22.0020000     GPS         TIME OF LAST OBS    
                                                            END OF HEADER       
 25  8 13  8 56 49.0020000  0 27G 1G 8G 3G21G 6G 2G30G29G14G 5G28G19
                                G11G17G27G 7G 4G23G18G20G15G12G31G16
                                G 9G24G32
  22400322.419   117714554.656       -1221.483          50.000  
  22400297.583   117714539.017       -1221.514          50.000  
  22400387.306   117714611.588       -1221.541          50.000  
  22371908.265   117565171.5522      -1221.516          36.000  
  22400297.586   117714564.009       -1221.508          50.000  
  22400323.975   117714549.263       -1221.504          50.000  
  22410896.954   117769989.579       -1221.587          35.000  
  22441361.397   117930163.656       -1221.423          39.000  
  22437550.515   117910121.500       -1221.538          35.000  
  22400330.735   117714530.640       -1221.518          48.000  
  22428183.153   117860894.6232      -1221.481          41.000  
  22481510.687   118141135.391       -1221.417          32.000  
  22328833.730   117338832.071       -1221.454          39.000  
  22463343.992   118045670.018       -1221.509          35.000  
  22425541.263   117847062.603       -1221.519          40.000  
  22400325.408   117714534.065       -1221.489          50.000  
  22400328.426   117714518.756       -1221.440          48.000  
  22429344.091   117866985.073       -1221.512          38.000  
  22270807.951   117033879.5612      -1221.522          40.000  
  22382457.123   117620627.177       -1221.394          39.000  
  22339970.273   117397363.608       -1221.520          41.000  
  22414697.527   117790064.580       -1221.631          35.000  
  22355202.809   117477404.599       -1221.532          39.000  
  22254100.081   116946105.551       -1221.582          39.000  
  22320624.184   117295697.658       -1221.537          39.000  
  22510349.344   118292678.627       -1221.522          37.000  
  22463932.929   118048764.1362      -1221.520          40.000  
 25  8 13  8 56 49.2020000  0 27G 1G 8G 3G21G 6G 2G30G29G14G 5G28G19
                                G11G17G27G 7G 4G23G18G20G15G12G31G16
                                G 9G24G32
  22400368.898   117714798.939       -1221.679          50.000  
  22400344.042   117714783.299       -1221.700          50.000  
  22400434.018   117714855.869       -1221.680          50.000  
  22371954.726   117565415.8312      -1221.569          36.000  
  22400344.019   117714808.287       -1221.669          50.000  
  22400370.502   117714793.549       -1221.672          50.000  
  22410943.512   117770233.850       -1221.654          35.000  
  22441407.846   117930407.942       -1221.720          39.000  
  22437596.987   117910365.778       -1221.676          35.000  
  22400377.223   117714774.920       -1221.715          48.000  
  22428229.559   117861138.9052      -1221.714          41.000  
  22481557.177   118141379.670       -1221.626          32.000  
  22328880.186   117339076.356       -1221.705          39.000  
  22463390.491   118045914.301       -1221.685          35.000  
  22425587.770   117847306.885       -1221.713          40.000  
  22400371.924   117714778.353       -1221.725          50.000  
  22400374.962   117714763.036       -1221.694          48.000  
  22429390.556   117867229.363       -1221.771          38.000  
  22270854.433   117034123.8412      -1221.675          40.000  
  22382503.603   117620871.463       -1221.702          39.000  
  22340016.711   117397607.889       -1221.716          41.000  
  22414744.077   117790308.854       -1221.738          35.000  
  22355249.262   117477648.884       -1221.831          39.000  
  22254146.571   116946349.827       -1221.683          39.000  
  22320670.638   117295941.938       -1221.677          40.000  
  22510395.836   118292922.909       -1221.683          37.000  
  22463979.378   118049008.4152      -1221.683          40.000  
 25  8 13  8 56 49.4020000  0 27G 1G 8G 3G21G 6G 2G30G29G14G 5G28G19
                                G11G17G27G 7G 4G23G18G20G15G12G31G16
                                G 9G24G32
  22400415.390   117715043.235       -1221.436          50.000  
  22400389.984   117715027.589       -1221.426          50.000  
  22400480.976   117715100.158       -1221.450          50.000  
  22372001.242   117565659.6381      -1221.409          36.000  
  22400390.021   117715052.580       -1221.411          50.000  
  22400416.963   117715037.839       -1221.489          50.000  
  22410989.992   117770478.116       -1221.594          35.000  
  22441454.354   117930652.241       -1221.314          39.000  
  22437643.469   117910610.077       -1221.415          35.000  
  22400423.703   117715019.210       -1221.280          48.000  
  22428275.991   117861382.6941      -1221.497          41.000  
  22481603.652   118141623.942       -1221.693          32.000  
  22328926.673   117339320.656       -1221.280          39.000  
  22463436.957   118046158.582       -1221.587          35.000  
  22425634.192   117847551.169       -1221.348          40.000  
  22400418.411   117715022.644       -1221.555          50.000  
  22400421.485   117715007.333       -1221.436          48.000  
  22429437.038   117867473.654       -1221.385          38.000  
  22270900.847   117034368.134       -1221.423          40.000  
  22382550.061   117621115.761       -1221.337          39.000  
  22340063.145   117397852.173       -1221.406          41.000  
  22414790.583   117790553.138       -1221.484          36.000  
  22355295.742   117477893.180       -1221.329          39.000  
  22254193.040   116946594.116       -1221.328          39.000  
  22320717.117   117296186.235       -1221.350          40.000  
  22510442.334   118293167.190       -1221.375          37.000  
  22464025.867   118049252.2101      -1221.335          40.000  
 25  8 13  8 56 49.6020000  0 27G 1G 8G 3G21G 6G 2G30G29G14G 5G28G19
                                G11G17G27G 7G 4G23G18G20G15G12G31G16
                                G 9G24G32
  22400461.867   117715287.525       -1221.543          50.000  
  22400435.738   117715271.876       -1221.558          50.000  
  22400527.843   117715344.451       -1221.549          50.000  
  22372047.736   117565903.931       -1221.542          36.000  
  22400436.236   117715296.868       -1221.537          50.000  
  22400463.459   117715282.128       -1221.570          50.000  
  22411036.557   117770722.408       -1221.548          36.000  
  22441500.794   117930896.531       -1221.646          39.000  
  22437689.985   117910854.364       -1221.456          35.000  
  22400470.232   117715263.505       -1221.652          48.000  
  22428322.424   117861626.982       -1221.531          41.000  
  22481650.135   118141868.224       -1221.516          32.000  
  22328973.125   117339564.948       -1221.589          39.000  
  22463483.415   118046402.877       -1221.641          35.000  
  22425680.679   117847795.466       -1221.552          40.000  
  22400464.875   117715266.928       -1221.552          50.000  
  22400467.971   117715251.621       -1221.598          48.000  
  22429483.497   117867717.939       -1221.649          38.000  
  22270947.316   117034612.427       -1221.616          40.000  
  22382596.535   117621360.042       -1221.436          40.000  
  22340109.605   117398096.461       -1221.485          41.000  
  22414837.040   117790797.434       -1221.597          36.000  
  22355342.238   117478137.474       -1221.560          39.000  
  22254239.528   116946838.414       -1221.635          39.000  
  22320763.581   117296430.524       -1221.604          40.000  
  22510488.824   118293411.484       -1221.403          37.000  
  22464072.352   118049496.500       -1221.596          40.000  
 25  8 13  8 56 49.8020000  0 27G 1G 8G 3G21G 6G 2G30G29G14G 5G28G19
                                G11G17G27G 7G 4G23G18G20G15G12G31G16
                                G 9G24G32
  22400508.352   117715531.826       -1221.625          50.000  
  22400481.470   117715516.173       -1221.559          50.000  
  22400574.578   117715588.754       -1221.677          50.000  
  22372094.230   117566148.234       -1221.816          36.000  
  22400482.711   117715541.169       -1221.592          50.000  
  22400509.935   117715526.430       -1221.643          50.000  
  22411083.096   117770966.707       -1221.670          36.000  
  22441547.297   117931140.831       -1221.563          39.000  
  22437736.525   117911098.671       -1221.657          35.000  
  22400516.734   117715507.806       -1221.650          48.000  
  22428368.831   117861871.284       -1221.677          41.000  
  22481696.635   118142112.535       -1221.490          32.000  
  22329019.604   117339809.246       -1221.613          39.000  
  22463529.890   118046647.178       -1221.757          35.000  
  22425727.118   117848039.764       -1221.633          40.000  
  22400511.353   117715511.223       -1221.600          50.000  
  22400514.461   117715495.922       -1221.565          48.000  
  22429530.001   117867962.235       -1221.463          38.000  
  22270993.765   117034856.721       -1221.612          40.000  
  22382643.021   117621604.342       -1221.376          40.000  
  22340156.052   117398340.761       -1221.479          42.000  
  22414883.564   117791041.731       -1221.631          36.000  
  22355388.738   117478381.776       -1221.727          39.000  
  22254286.011   116947082.706       -1221.577          39.000  
  22320810.066   117296674.824       -1221.611          40.000  
  22510535.349   118293655.788       -1221.654          37.000  
  22464118.813   118049740.797       -1221.567          40.000  
 25  8 13  8 56 50.0020000  0 27G 1G 8G 3G21G 6G 2G30G29G14G 5G28G19
                                G11G17G27G 7G 4G23G18G20G15G12G31G16
                                G 9G24G32
  22400554.827   117715776.111       -1221.501          50.000  
  22400527.743   117715760.466       -1221.486          50.000  
  22400621.413   117715833.051       -1221.558          50.000  
  22372140.724   117566392.523       -1221.514          36.000  
  22400528.885   117715785.458       -1221.551          50.000  
  22400556.421   117715770.720       -1221.611          50.000  
  22411129.635   117771211.001       -1221.478          36.000  
  22441593.780   117931385.116       -1221.534          39.000  
  22437783.023   117911342.966       -1221.515          35.000  
  22400563.252   117715752.098       -1221.572          48.000  
  22428415.257   117862115.570       -1221.525          41.000  
  22481743.070   118142356.812       -1221.329          32.000  
  22329066.085   117340053.539       -1221.496          39.000  
  22463576.371   118046891.468       -1221.577          35.000  
  22425773.602   117848284.060       -1221.563          40.000  
  22400557.797   117715755.520       -1221.487          50.000  
  22400560.971   117715740.215       -1221.590          48.000  
  22429576.454   117868206.526       -1221.474          38.000  
  22271040.222   117035101.011       -1221.403          40.000  
  22382689.479   117621848.637       -1221.521          40.000  
  22340202.539   117398585.059       -1221.589          42.000  
  22414930.011   117791286.026       -1221.526          36.000  
  22355435.203   117478626.068       -1221.514          39.000  
  22254332.454   116947327.004       -1221.567          39.000  
  22320856.521   117296919.120       -1221.613          40.000  
  22510581.854   118293900.081       -1221.528          37.000  
  22464165.316   118049985.091       -1221.604          41.000  
 25  8 13  8 56 50.2020000  0 27G 1G 8G 3G21G 6G 2G30G29G14G 5G28G19
                                G11G17G27G 7G 4G23G18G20G15G12G31G16
                                G 9G24G32
  22400601.321   117716020.411       -1221.545          50.000  
  22400573.865   117716004.775       -1221.633          50.000  
  22400668.234   117716077.356       -1221.731          50.000  
  22372187.226   117566636.818       -1221.635          36.000  
  22400574.866   117716029.766       -1221.666          50.000  
  22400602.887   117716015.021       -1221.687          50.000  
  22411176.148   117771455.352       -1222.279          36.000  
  22441640.286   117931629.413       -1221.559          39.000  
  22437829.525   117911587.259       -1221.542          35.000  
  22400609.766   117715996.393       -1221.635          48.000  
  22428461.676   117862359.880       -1221.714          41.000  
  22481789.563   118142601.169       -1222.174          32.000  
  22329112.543   117340297.825       -1221.451          39.000  
  22463622.886   118047135.789       -1221.799          35.000  
  22425820.078   117848528.359       -1221.651          40.000  
  22400604.303   117715999.822       -1221.706          50.000  
  22400607.477   117715984.515       -1221.736          48.000  
  22429622.965   117868450.828       -1221.531          38.000  
  22271086.675   117035345.318       -1221.654          40.000  
  22382735.989   117622092.923       -1221.458          40.000  
  22340248.988   117398829.371       -1221.813          42.000  
  22414976.545   117791530.339       -1221.794          36.000  
  22355481.718   117478870.357       -1221.542          39.000  
  22254378.925   116947571.302       -1221.622          39.000  
  22320903.011   117297163.414       -1221.670          40.000  
  22510628.363   118294144.394       -1221.792          37.000  
  22464211.765   118050229.386       -1221.625          41.000  
 25  8 13  8 56 50.4020000  0 27G 1G 8G 3G21G 6G 2G30G29G14G 5G28G19
                                G11G17G27G 7G 4G23G18G20G15G12G31G16
                                G 9G24G32
  22400647.806   117716264.737       -1221.749          50.000  
  22400620.825   117716249.092       -1221.674          50.000  
  22400715.076   117716321.673       -1221.799          50.000  
  22372233.738   117566881.142       -1221.799          36.000  
  22400621.707   117716274.084       -1221.647          50.000  
  22400649.354   117716259.347       -1221.711          50.000  
  22411222.686   117771699.646       -1221.695          36.000  
  22441686.795   117931873.742       -1221.738          39.000  
  22437876.005   117911831.589       -1221.733          35.000  
  22400656.212   117716240.709       -1221.499          47.000  
  22428508.079   117862604.202       -1221.691          41.000  
  22481836.054   118142845.491       -1221.866          32.000  
  22329159.069   117340542.145       -1221.594          39.000  
  22463669.430   118047380.101       -1221.687          35.000  
  22425866.594   117848772.678       -1221.682          40.000  
  22400650.768   117716244.147       -1221.690          50.000  
  22400653.893   117716228.839       -1221.657          48.000  
  22429669.443   117868695.155       -1221.672          38.000  
  22271133.144   117035589.642       -1221.675          40.000  
  22382782.458   117622337.260       -1221.687          39.000  
  22340295.487   117399073.690       -1221.747          42.000  
  22415023.001   117791774.651       -1221.703          36.000  
  22355528.194   117479114.682       -1221.729          39.000  
  22254425.387   116947815.623       -1221.620          39.000  
  22320949.453   117297407.736       -1221.660          40.000  
  22510674.852   118294388.709       -1221.707          37.000  
  22464258.271   118050473.711       -1221.667          40.000  
 25  8 13  8 56 50.6020000  0 27G 1G 8G 3G21G 6G 2G30G29G14G 5G28G19
                                G11G17G27G 7G 4G23G18G20G15G12G31G16
                                G 9G24G32
  22400694.283   117716509.042       -1221.569          50.000  
  22400667.868   117716493.396       -1221.590          50.000  
  22400761.915   117716565.980       -1221.568          50.000  
  22372280.242   117567125.442       -1221.509          36.000  
  22400668.529   117716518.393       -1221.641          50.000  
  22400695.806   117716503.654       -1221.602          50.000  
  22411269.190   117771943.962       -1221.618          36.000  
  22441733.308   117932118.044       -1221.587          39.000  
  22437922.535   117912075.892       -1221.717          35.000  
  22400702.690   117716485.027       -1221.621          47.000  
  22428554.489   117862848.514       -1221.667          41.000  
  22481882.514   118143089.790       -1221.729          32.000  
  22329205.499   117340786.457       -1221.620          39.000  
  22463715.881   118047624.414       -1221.635          35.000  
  22425913.021   117849016.987       -1221.506          40.000  
  22400697.227   117716488.451       -1221.569          50.000  
  22400700.385   117716473.138       -1221.520          48.000  
  22429715.958   117868939.459       -1221.626          38.000  
  22271179.588   117035833.947       -1221.576          40.000  
  22382828.961   117622581.562       -1221.611          39.000  
  22340341.917   117399317.994       -1221.591          41.000  
  22415069.519   117792018.957       -1221.500          36.000  
  22355574.728   117479358.989       -1221.620          39.000  
  22254471.904   116948059.931       -1221.587          39.000  
  22320995.915   117297652.049       -1221.586          40.000  
  22510721.373   118294633.015       -1221.456          37.000  
  22464304.700   118050718.020       -1221.594          40.000  
 25  8 13  8 56 50.8020000  0 27G 1G 8G 3G21G 6G 2G30G29G14G 5G28G19
                                G11G17G27G 7G 4G23G18G20G15G12G31G16
                                G 9G24G32
  22400740.726   117716753.326       -1221.360          50.000  
  22400714.853   117716737.687       -1221.363          50.000  
  22400808.525   117716810.266       -1221.374          50.000  
  22372326.709   117567369.728       -1221.407          36.000  
  22400714.823   117716762.678       -1221.341          50.000  
  22400742.291   117716747.934       -1221.334          50.000  
  22411315.699   117772188.245       -1221.429          36.000  
  22441779.752   117932362.326       -1221.296          39.000  
  22437969.002   117912320.175       -1221.408          35.000  
  22400749.222   117716729.309       -1221.413          47.000  
  22428600.869   117863092.793       -1221.314          41.000  
  22481928.964   118143334.054       -1221.218          32.000  
  22329251.973   117341030.742       -1221.334          39.000  
  22463762.362   118047868.695       -1221.334          35.000  
  22425959.521   117849261.276       -1221.358          40.000  
  22400743.697   117716732.736       -1221.386          50.000  
  22400746.836   117716717.424       -1221.365          48.000  
  22429762.431   117869183.740       -1221.304          38.000  
  22271226.050   117036078.236       -1221.332          40.000  
  22382875.451   117622825.842       -1221.298          39.000  
  22340388.373   117399562.279       -1221.314          41.000  
  22415116.027   117792263.253       -1221.334          36.000  
  22355621.197   117479603.276       -1221.418          39.000  
  22254518.351   116948304.220       -1221.365          39.000  
  22321042.343   117297896.331       -1221.418          40.000  
  22510767.904   118294877.310       -1221.494          38.000  
  22464351.166   118050962.300       -1221.355          40.000  
 25  8 13  8 56 51.0020000  0 27G 1G 8G 3G21G 6G 2G30G29G14G 5G28G19
                                G11G17G27G 7G 4G23G18G20G15G12G31G16
                                G 9G24G32
  22400787.197   117716997.628       -1221.581          50.000  
  22400761.533   117716981.972       -1221.456          50.000  
  22400855.086   117717054.556       -1221.443          50.000  
  22372373.211   117567614.015       -1221.410          36.000  
  22400760.593   117717006.962       -1221.426          50.000  
  22400788.778   117716992.225       -1221.532          50.000  
  22411362.197   117772432.520       -1221.323          36.000  
  22441826.203   117932606.622       -1221.539          39.000  
  22438015.535   117912564.474       -1221.497          35.000  
  22400795.709   117716973.594       -1221.410          47.000  
  22428647.294   117863337.087       -1221.535          41.000  
  22481975.486   118143578.393       -1221.981          32.000  
  22329298.412   117341275.031       -1221.428          39.000  
  22463808.848   118048112.983       -1221.324          35.000  
  22426005.962   117849505.558       -1221.469          40.000  
  22400790.174   117716977.025       -1221.437          50.000  
  22400793.335   117716961.718       -1221.552          47.000  
  22429808.928   117869428.041       -1221.557          38.000  
  22271272.508   117036322.521       -1221.402          40.000  
  22382921.937   117623070.145       -1221.615          39.000  
  22340434.815   117399806.564       -1221.423          41.000  
  22415162.567   117792507.537       -1221.415          36.000  
  22355667.745   117479847.564       -1221.454          39.000  
  22254564.874   116948548.502       -1221.397          39.000  
  22321088.849   117298140.617       -1221.469          40.000  
  22510814.406   118295121.591       -1221.495          38.000  
  22464397.651   118051206.592       -1221.594          40.000  
 25  8 13  8 56 51.2020000  0 27G 1G 8G 3G21G 6G 2G30G29G14G 5G28G11
                                G17G27G 7G 4G23G18G20G15G26G12G31G16
                                G 9G24G32
  22400833.684   117717241.903       -1221.455          50.000  
  22400808.539   117717226.252       -1221.459          50.000  
  22400901.637   117717298.829       -1221.464          50.000  
  22372419.641   117567858.297       -1221.413          36.000  
  22400806.945   117717251.243       -1221.419          50.000  
  22400835.239   117717236.507       -1221.412          50.000  
  22411408.741   117772676.807       -1221.332          36.000  
  22441872.697   117932850.900       -1221.467          39.000  
  22438062.062   117912808.754       -1221.573          35.000  
  22400842.249   117717217.872       -1221.467          48.000  
  22428693.691   117863581.364       -1221.468          41.000  
  22329344.868   117341519.312       -1221.519          39.000  
  22463855.314   118048357.264       -1221.274          35.000  
  22426052.439   117849749.840       -1221.499          40.000  
  22400836.610   117717221.307       -1221.452          50.000  
  22400839.808   117717205.995       -1221.454          47.000  
  22429855.392   117869672.319       -1221.470          38.000  
  22271318.996   117036566.805       -1221.499          40.000  
  22382968.433   117623314.416       -1221.513          39.000  
  22340481.252   117400050.843       -1221.422          41.000  
  22341357.815   117404627.3432      -1221.451          40.000  
  22415209.074   117792751.819       -1221.427          36.000  
  22355714.206   117480091.845       -1221.485          39.000  
  22254611.349   116948792.784       -1221.446          39.000  
  22321135.306   117298384.898       -1221.499          40.000  
  22510860.903   118295365.875       -1221.482          38.000  
  22464444.084   118051450.868       -1221.421          40.000  
 25  8 13  8 56 51.4020000  0 27G 1G 8G 3G21G 6G 2G30G29G14G 5G28G11
                                G17G27G 7G 4G23G18G20G15G26G12G31G16
                                G 9G24G32
  22400880.154   117717486.187       -1221.561          50.000  
  22400855.613   117717470.541       -1221.646          50.000  
  22400948.299   117717543.117       -1221.588          50.000  
  22372466.117   117568102.581       -1221.574          36.000  
  22400854.001   117717495.531       -1221.576          50.000  
  22400881.726   117717480.790       -1221.515          50.000  
  22411455.224   117772921.101       -1221.690          35.000  
  22441919.171   117933095.183       -1221.555          39.000  
  22438108.533   117913053.042       -1221.613          35.000  
  22400888.780   117717462.160       -1221.671          48.000  
  22428740.100   117863825.650       -1221.551          41.000  
  22329391.316   117341763.594       -1221.611          39.000  
  22463901.834   118048601.564       -1221.730          35.000  
  22426098.932   117849994.127       -1221.614          40.000  
  22400883.107   117717465.591       -1221.542          50.000  
  22400886.279   117717450.286       -1221.632          47.000  
  22429901.898   117869916.598       -1221.477          38.000  
  22271365.456   117036811.093       -1221.623          40.000  
  22383014.899   117623558.697       -1221.478          39.000  
  22340527.699   117400295.135       -1221.588          41.000  
  22341404.423   117404871.6312      -1221.661          40.000  
  22415255.625   117792996.111       -1221.779          36.000  
  22355760.736   117480336.129       -1221.643          40.000  
  22254657.834   116949037.072       -1221.600          39.000  
  22321181.796   117298629.180       -1221.571          40.000  
  22510907.383   118295610.163       -1221.671          38.000  
  22464490.542   118051695.160       -1221.653          40.000  
 25  8 13  8 56 51.6020000  0 27G 1G 8G 3G21G 6G 2G30G29G14G 5G28G11
                                G17G27G 7G 4G23G18G20G15G26G12G31G16
                                G 9G24G32
  22400926.639   117717730.471       -1221.332          50.000  
  22400902.630   117717714.827       -1221.323          50.000  
  22400995.335   117717787.411       -1221.459          50.000  
  22372512.573   117568346.880       -1221.558          36.000  
  22400901.164   117717739.819       -1221.357          50.000  
  22400928.160   117717725.079       -1221.322          50.000  
  22411501.749   117773165.383       -1221.405          35.000  
  22441965.638   117933339.480       -1221.508          39.000  
  22438155.032   117913297.318       -1221.281          35.000  
  22400935.181   117717706.450       -1221.321          47.000  
  22428786.531   117864069.937       -1221.285          41.000  
  22329437.799   117342007.887       -1221.355          39.000  
  22463948.314   118048845.835       -1221.407          35.000  
  22426145.413   117850238.413       -1221.318          40.000  
  22400929.570   117717709.877       -1221.344          50.000  
  22400932.755   117717694.570       -1221.361          47.000  
  22429948.409   117870160.890       -1221.357          38.000  
  22271411.934   117037055.378       -1221.352          40.000  
  22383061.353   117623803.000       -1221.479          39.000  
  22340574.155   117400539.421       -1221.303          41.000  
  22341450.616   117405115.9122      -1221.366          40.000  
  22415302.105   117793240.385       -1221.255          36.000  
  22355807.163   117480580.416       -1221.428          40.000  
  22254704.270   116949281.358       -1221.281          39.000  
  22321228.229   117298873.472       -1221.301          40.000  
  22510953.909   118295854.450       -1221.456          38.000  
  22464536.964   118051939.444       -1221.339          40.000  
 25  8 13  8 56 51.8020000  0 27G 1G 8G 3G21G 6G 2G30G29G14G 5G28G11
                                G17G27G 7G 4G23G18G20G15G26G12G31G16
                                G 9G24G32
  22400973.100   117717974.760       -1221.522          50.000  
  22400949.252   117717959.119       -1221.622          50.000  
  22401041.989   117718031.706       -1221.560          50.000  
  22372559.088   117568591.170       -1221.632          36.000  
  22400947.794   117717984.112       -1221.628          50.000  
  22400974.668   117717969.373       -1221.572          50.000  
  22411548.317   117773409.676       -1221.624          35.000  
  22442012.126   117933583.769       -1221.632          39.000  
  22438201.528   117913541.613       -1221.560          35.000  
  22400981.732   117717950.739       -1221.583          47.000  
  22428832.947   117864314.230       -1221.562          41.000  
  22329484.245   117342252.182       -1221.599          39.000  
  22463994.823   118049090.126       -1221.496          35.000  
  22426191.847   117850482.711       -1221.666          40.000  
  22400976.058   117717954.175       -1221.563          50.000  
  22400979.241   117717938.863       -1221.732          47.000  
  22429994.920   117870405.187       -1221.571          38.000  
  22271458.382   117037299.667       -1221.595          40.000  
  22383107.824   117624047.287       -1221.594          39.000  
  22340620.612   117400783.718       -1221.634          41.000  
  22341497.230   117405360.2072      -1221.618          40.000  
  22415348.628   117793484.682       -1221.594          35.000  
  22355853.679   117480824.710       -1221.558          40.000  
  22254750.731   116949525.648       -1221.670          39.000  
  22321274.722   117299117.763       -1221.561          40.000  
  22511000.409   118296098.740       -1221.611          38.000  
  22464583.423   118052183.737       -1221.622          40.000  
 25  8 13  8 56 52.0020000  0 28G 1G 8G 3G21G 6G 2G30G29G14G 5G28G11
                                G17G27G 7G 4G23G18G20G15G10G26G12G31
                                G16G 9G24G32
  22401019.586   117718219.083       -1221.574          50.000  
  22400995.961   117718203.427       -1221.492          50.000  
  22401088.481   117718276.005       -1221.457          50.000  
  22372605.566   117568835.455       -1221.299          36.000  
  22400994.607   117718228.415       -1221.475          50.000  
  22401021.111   117718213.673       -1221.418          50.000  
  22411594.820   117773653.949       -1221.107          36.000  
  22442058.613   117933828.089       -1221.612          39.000  
  22438248.061   117913785.930       -1221.562          35.000  
  22401028.208   117718195.061       -1221.703          47.000  
  22428879.324   117864558.535       -1221.450          41.000  
  22329530.728   117342496.500       -1221.600          39.000  
  22464041.297   118049334.398       -1221.001          35.000  
  22426238.305   117850727.003       -1221.373          40.000  
  22401022.503   117718198.468       -1221.328          50.000  
  22401025.713   117718183.167       -1221.469          47.000  
  22430041.422   117870649.514       -1221.734          38.000  
  22271504.885   117037543.978       -1221.554          40.000  
  22383154.311   117624291.605       -1221.627          39.000  
  22340667.053   117401028.012       -1221.388          41.000  
  22331817.172                       -2220.745          33.000  
  22341543.587   117405604.5082      -1221.444          40.000  
  22415395.141   117793728.981       -1221.492          35.000  
  22355900.104   117481069.014       -1221.495          40.000  
  22254797.195   116949769.960       -1221.603          39.000  
  22321321.174   117299362.088       -1221.731          40.000  
  22511046.903   118296343.016       -1221.083          38.000  
  22464629.825   118052428.068       -1221.751          40.000  
 25  8 13  8 56 52.2020000  0 28G 1G 8G 3G21G 6G 2G30G29G14G 5G28G11
                                G17G27G 7G 4G23G18G20G15G10G26G12G31
                                G16G 9G24G32
  22401066.029   117718463.365       -1221.293          50.000  
  22401041.980   117718447.722       -1221.366          50.000  
  22401135.063   117718520.301       -1221.379          50.000  
  22372652.055   117569079.752       -1221.374          36.000  
  22401040.783   117718472.705       -1221.323          50.000  
  22401067.584   117718457.962       -1221.270          50.000  
  22411641.364   117773898.258       -1221.427          36.000  
  22442105.071   117934072.372       -1221.332          39.000  
  22438294.593   117914030.214       -1221.421          35.000  
  22401074.723   117718439.337       -1221.341          47.000  
  22428925.772   117864802.829       -1221.435          41.000  
  22329577.180   117342740.785       -1221.437          39.000  
  22464087.821   118049578.707       -1221.323          35.000  
  22426284.755   117850971.301       -1221.400          40.000  
  22401068.989   117718442.762       -1221.315          50.000  
  22401072.195   117718427.463       -1221.384          48.000  
  22430087.897   117870893.789       -1221.287          38.000  
  22271551.318   117037788.267       -1221.309          40.000  
  22383200.784   117624535.882       -1221.281          39.000  
  22340713.530   117401272.312       -1221.382          41.000  
  22331895.765                       -2220.745          33.000  
  22341590.024   117405848.7982      -1221.403          39.000  
  22415441.662   117793973.280       -1221.483          35.000  
  22355946.581   117481313.307       -1221.380          40.000  
  22254843.709   116950014.255       -1221.353          39.000  
  22321367.662   117299606.374       -1221.383          40.000  
  22511093.426   118296587.323       -1221.443          38.000  
  22464676.362   118052672.350       -1221.380          40.000  
 25  8 13  8 56 52.4020000  0 28G 1G 8G 3G21G 6G 2G30G29G14G 5G28G11
                                G17G27G 7G 4G23G18G20G15G10G26G12G31
                                G16G 9G24G32
  22401112.535   117718707.685       -1221.599          50.000  
  22401088.370   117718692.037       -1221.634          50.000  
  22401181.878   117718764.613       -1221.564          50.000  
  22372698.565   117569324.066       -1221.653          36.000  
  22401086.670   117718717.021       -1221.600          50.000  
  22401114.075   117718702.277       -1221.529          50.000  
  22411687.935   117774142.564       -1221.589          36.000  
  22442151.580   117934316.691       -1221.679          39.000  
  22438341.102   117914274.530       -1221.570          35.000  
  22401121.247   117718683.651       -1221.627          48.000  
  22428972.183   117865047.142       -1221.573          41.000  
  22329623.709   117342985.098       -1221.608          39.000  
  22464134.308   118049823.019       -1221.569          35.000  
  22426331.225   117851215.612       -1221.635          40.000  
  22401115.496   117718687.077       -1221.562          50.000  
  22401118.703   117718671.776       -1221.628          48.000  
  22430134.404   117871138.112       -1221.666          38.000  
  22271597.828   117038032.586       -1221.618          40.000  
  22383247.282   117624780.203       -1221.594          39.000  
  22340760.026   117401516.624       -1221.622          41.000  
  22331969.022                       -2222.021          33.000  
  22341636.588   117406093.1142      -1221.581          39.000  
  22415488.165   117794217.591       -1221.666          36.000  
  22355993.062   117481557.621       -1221.613          40.000  
  22254890.199   116950258.571       -1221.608          39.000  
  22321414.131   117299850.690       -1221.638          40.000  
  22511139.940   118296831.634       -1221.681          38.000  
  22464722.801   118052916.664       -1221.505          40.000  
 25  8 13  8 56 52.6020000  0 28G 1G 8G 3G21G 6G 2G30G29G14G 5G28G11
                                G17G27G 7G 4G23G18G20G15G10G26G12G31
                                G16G 9G24G32
  22401159.007   117718951.987       -1221.617          50.000  
  22401135.098   117718936.337       -1221.562          50.000  
  22401228.636   117719008.909       -1221.539          50.000  
  22372745.028   117569568.366       -1221.517          36.000  
  22401132.648   117718961.326       -1221.648          50.000  
  22401160.558   117718946.585       -1221.626          50.000  
  22411734.492   117774386.871       -1221.645          36.000  
  22442198.033   117934560.993       -1221.591          39.000  
  22438387.594   117914518.834       -1221.584          35.000  
  22401167.746   117718927.956       -1221.633          48.000  
  22429018.622   117865291.446       -1221.696          41.000  
  22329670.127   117343229.402       -1221.610          39.000  
  22464180.794   118050067.312       -1221.518          35.000  
  22426377.720   117851459.911       -1221.590          40.000  
  22401161.951   117718931.384       -1221.573          50.000  
  22401165.207   117718916.076       -1221.643          48.000  
  22430180.923   117871382.412       -1221.509          38.000  
  22271644.310   117038276.884       -1221.587          40.000  
  22383293.755   117625024.508       -1221.622          39.000  
  22340806.452   117401760.926       -1221.647          41.000  
  22332043.787   117355681.9102      -2220.771          33.000  
  22341683.034   117406337.4122      -1221.524          39.000  
  22415534.684   117794461.887       -1221.596          36.000  
  22356039.607   117481801.920       -1221.598          40.000  
  22254936.728   116950502.872       -1221.730          39.000  
  22321460.610   117300094.988       -1221.603          40.000  
  22511186.427   118297075.935       -1221.568          38.000  
  22464769.243   118053160.968       -1221.703          40.000  
 25  8 13  8 56 52.8020000  0 28G 1G 8G 3G21G 6G 2G30G29G14G 5G28G11
                                G17G27G 7G 4G23G18G20G15G10G26G12G31
                                G16G 9G24G32
  22401205.469   117719196.297       -1221.541          50.000  
  22401181.589   117719180.653       -1221.684          50.000  
  22401275.767   117719253.229       -1221.616          50.000  
  22372791.486   117569812.682       -1221.632          36.000  
  22401179.017   117719205.637       -1221.539          50.000  
  22401207.016   117719190.895       -1221.586          50.000  
  22411780.997   117774631.186       -1221.699          36.000  
  22442244.564   117934805.300       -1221.520          39.000  
  22438434.113   117914763.146       -1221.658          35.000  
  22401214.216   117719172.269       -1221.646          48.000  
  22429064.994   117865535.761       -1221.616          40.000  
  22329716.654   117343473.712       -1221.527          39.000  
  22464227.270   118050311.636       -1221.854          35.000  
  22426424.204   117851704.228       -1221.638          40.000  
  22401208.432   117719175.695       -1221.585          50.000  
  22401211.691   117719160.385       -1221.502          48.000  
  22430227.426   117871626.724       -1221.571          38.000  
  22271690.808   117038521.201       -1221.671          40.000  
  22383340.267   117625268.817       -1221.499          39.000  
  22340852.930   117402005.237       -1221.565          41.000  
  22332123.630   117356126.2592      -2221.883          33.000  
  22341729.572   117406581.7312      -1221.663          39.000  
  22415581.148   117794706.201       -1221.630          36.000  
  22356086.081   117482046.236       -1221.623          40.000  
  22254983.178   116950747.188       -1221.777          39.000  
  22321507.029   117300339.300       -1221.479          40.000  
  22511232.937   118297320.250       -1221.593          38.000  
  22464815.639   118053405.278       -1221.547          40.000  
 25  8 13  8 56 53.0020000  0 27G 1G 8G 3G21G 6G 2G30G29G14G 5G28G11
                                G17G27G 7G 4G23G18G20G15G26G12G31G16
                                G 9G24G32
  22401251.929   117719440.593       -1221.573          50.000  
  22401228.739   117719424.951       -1221.426          50.000  
  22401322.870   117719497.527       -1221.355          50.000  
  22372837.974   117570056.983       -1221.279          36.000  
  22401225.023   117719449.938       -1221.432          50.000  
  22401253.464   117719435.195       -1221.478          50.000  
  22411827.487   117774875.479       -1221.449          36.000  
  22442291.015   117935049.602       -1221.497          39.000  
  22438480.684   117915007.466       -1221.088          35.000  
  22401260.683   117719416.576       -1221.340          48.000  
  22429111.451   117865780.068       -1221.376          40.000  
  22329763.106   117343717.996       -1221.657          39.000  
  22464273.729   118050555.941       -1221.205          34.000  
  22426470.686   117851948.536       -1221.346          40.000  
  22401254.862   117719419.996       -1221.453          50.000  
  22401258.151   117719404.691       -1221.509          48.000  
  22430273.871   117871871.003       -1221.684          38.000  
  22271737.270   117038765.493       -1221.510          41.000  
  22383386.745   117625513.105       -1221.582          39.000  
  22340899.415   117402249.525       -1221.494          41.000  
  22341776.063   117406826.0352      -1221.423          39.000  
  22415627.628   117794950.505       -1221.298          36.000  
  22356132.581   117482290.541       -1221.403          40.000  
  22255029.675   116950991.489       -1221.307          39.000  
  22321553.493   117300583.604       -1221.401          40.000  
  22511279.446   118297564.538       -1221.480          38.000  
  22464862.146   118053649.582       -1221.565          40.000  
 25  8 13  8 56 53.2020000  0 27G 1G 8G 3G21G 6G 2G30G29G14G 5G28G11
                                G17G27G 7G 4G23G18G20G15G26G12G31G16
                                G 9G24G32
  22401298.397   117719684.885       -1221.555          50.000  
  22401275.932   117719669.246       -1221.555          50.000  
  22401370.061   117719741.821       -1221.548          50.000  
  22372884.541   117570301.275       -1221.497          36.000  
  22401271.174   117719694.229       -1221.542          50.000  
  22401299.942   117719679.489       -1221.561          50.000  
  22411873.976   117775119.771       -1221.427          36.000  
  22442337.500   117935293.893       -1221.521          38.000  
  22438527.245   117915251.758       -1221.470          35.000  
  22401307.186   117719660.868       -1221.553          48.000  
  22429157.869   117866024.364       -1221.593          40.000  
  22329809.654   117343962.285       -1221.529          39.000  
  22464320.269   118050800.237       -1221.660          34.000  
  22426517.154   117852192.833       -1221.595          40.000  
  22401301.336   117719664.288       -1221.570          50.000  
  22401304.624   117719648.978       -1221.479          48.000  
  22430320.347   117872115.287       -1221.492          39.000  
  22271783.705   117039009.783       -1221.517          41.000  
  22383433.211   117625757.399       -1221.535          39.000  
  22340945.849   117402493.820       -1221.484          41.000  
  22341822.557   117407070.3252      -1221.562          39.000  
  22415674.097   117795194.802       -1221.639          36.000  
  22356179.063   117482534.833       -1221.602          40.000  
  22255076.151   116951235.788       -1221.561          39.000  
  22321599.934   117300827.900       -1221.539          40.000  
  22511325.979   118297808.830       -1221.620          38.000  
  22464908.558   118053893.870       -1221.483          40.000  
 25  8 13  8 56 53.4020000  0 27G 1G 8G 3G21G 6G 2G30G29G14G 5G28G11
                                G17G27G 7G 4G23G18G20G15G26G12G31G16
                                G 9G24G32
  22401344.895   117719929.209       -1221.500          50.000  
  22401323.144   117719913.571       -1221.540          50.000  
  22401417.310   117719986.150       -1221.591          50.000  
  22372931.057   117570545.598       -1221.463          36.000  
  22401317.674   117719938.555       -1221.545          50.000  
  22401346.419   117719923.811       -1221.515          50.000  
  22411920.536   117775364.099       -1221.593          36.000  
  22442383.951   117935538.218       -1221.498          38.000  
  22438573.807   117915496.092       -1221.557          35.000  
  22401353.668   117719905.189       -1221.506          48.000  
  22429204.321   117866268.688       -1221.520          40.000  
  22329856.114   117344206.613       -1221.565          39.000  
  22464366.776   118051044.563       -1221.588          34.000  
  22426563.627   117852437.156       -1221.539          40.000  
  22401347.807   117719908.611       -1221.509          50.000  
  22401351.155   117719893.305       -1221.533          48.000  
  22430366.796   117872359.613       -1221.499          39.000  
  22271830.156   117039254.112       -1221.505          41.000  
  22383479.670   117626001.722       -1221.459          40.000  
  22340992.306   117402738.150       -1221.551          41.000  
  22341869.037   117407314.6502      -1221.486          39.000  
  22415720.545   117795439.124       -1221.580          36.000  
  22356225.564   117482779.154       -1221.501          40.000  
  22255122.623   116951480.112       -1221.546          39.000  
  22321646.452   117301072.222       -1221.510          40.000  
  22511372.460   118298053.157       -1221.558          38.000  
  22464955.031   118054138.201       -1221.598          40.000  
 25  8 13  8 56 53.6020000  0 27G 1G 8G 3G21G 6G 2G30G29G14G 5G28G11
                                G17G27G 7G 4G23G18G20G15G26G12G31G16
                                G 9G24G32
  22401391.380   117720173.511       -1221.604          50.000  
  22401370.313   117720157.867       -1221.583          50.000  
  22401464.616   117720230.448       -1221.670          50.000  
  22372977.569   117570789.906       -1221.700          36.000  
  22401364.093   117720182.851       -1221.617          50.000  
  22401392.918   117720168.110       -1221.550          50.000  
  22411967.050   117775608.396       -1221.684          36.000  
  22442430.467   117935782.517       -1221.603          38.000  
  22438620.356   117915740.384       -1221.666          35.000  
  22401400.205   117720149.484       -1221.557          47.000  
  22429250.711   117866512.987       -1221.643          40.000  
  22329902.656   117344450.909       -1221.610          39.000  
  22464413.281   118051288.868       -1221.832          34.000  
  22426610.069   117852681.454       -1221.650          40.000  
  22401394.311   117720152.911       -1221.596          50.000  
  22401397.668   117720137.605       -1221.696          47.000  
  22430413.298   117872603.913       -1221.649          39.000  
  22271876.642   117039498.413       -1221.695          41.000  
  22383526.145   117626246.026       -1221.712          40.000  
  22341038.763   117402982.449       -1221.715          41.000  
  22341915.559   117407558.9532      -1221.668          39.000  
  22415767.022   117795683.420       -1221.586          37.000  
  22356272.062   117483023.452       -1221.565          40.000  
  22255169.080   116951724.408       -1221.609          40.000  
  22321692.878   117301316.523       -1221.601          40.000  
  22511418.989   118298297.458       -1221.678          38.000  
  22465001.465   118054382.495       -1221.556          40.000  
 25  8 13  8 56 53.8020000  0 27G 1G 8G 3G21G 6G 2G30G29G14G 5G28G11
                                G17G27G 7G 4G23G18G20G15G26G12G31G16
                                G 9G24G32
  22401437.802   117720417.802       -1221.367          50.000  
  22401417.427   117720402.161       -1221.427          50.000  
  22401511.746   117720474.732       -1221.339          50.000  
  22373024.057   117571034.197       -1221.476          36.000  
  22401410.470   117720427.147       -1221.426          50.000  
  22401439.423   117720412.410       -1221.470          50.000  
  22412013.588   117775852.711       -1221.799          36.000  
  22442476.908   117936026.799       -1221.255          38.000  
  22438666.874   117915984.643       -1221.077          35.000  
  22401446.628   117720393.769       -1221.345          47.000  
  22429297.134   117866757.260       -1221.247          40.000  
  22329949.053   117344695.219       -1221.571          39.000  
  22464459.722   118051533.180       -1222.030          34.000  
  22426656.572   117852925.744       -1221.480          40.000  
  22401440.751   117720397.205       -1221.421          50.000  
  22401444.130   117720381.893       -1221.363          47.000  
  22430459.738   117872848.213       -1221.318          39.000  
  22271923.147   117039742.713       -1221.669          41.000  
  22383572.593   117626490.316       -1221.333          39.000  
  22341085.244   117403226.757       -1221.646          42.000  
  22341961.997   117407803.2452      -1221.454          39.000  
  22415813.522   117795927.718       -1221.403          36.000  
  22356318.585   117483267.743       -1221.406          40.000  
  22255215.557   116951968.694       -1221.547          40.000  
  22321739.395   117301560.791       -1221.147          40.000  
  22511465.483   118298541.792       -1221.985          38.000  
  22465047.956   118054626.765       -1221.049          40.000  
 25  8 13  8 56 54.0020000  0 28G 1G 8G 3G21G 6G 2G30G29G14G 5G28G19
                                G11G17G27G 7G 4G23G18G20G15G26G12G31
                                G16G 9G24G32
  22401484.266   117720662.094       -1221.520          50.000  
  22401464.071   117720646.451       -1221.496          50.000  
  22401558.696   117720719.022       -1221.449          50.000  
  22373070.526   117571278.488       -1221.510          36.000  
  22401456.546   117720671.434       -1221.449          50.000  
  22401485.883   117720656.697       -1221.429          50.000  
  22412060.080   117776096.988       -1221.368          36.000  
  22442523.411   117936271.101       -1221.587          38.000  
  22438713.390   117916228.936       -1221.416          35.000  
  22401493.131   117720638.062       -1221.499          47.000  
  22429343.525   117867001.554       -1221.500          40.000  
  22482673.051   118147243.8511      -1221.841          32.000  
  22329995.552   117344939.501       -1221.467          39.000  
  22464506.140   118051777.441       -1221.334          34.000  
  22426703.024   117853170.032       -1221.480          40.000  
  22401487.212   117720641.493       -1221.443          50.000  
  22401490.589   117720626.188       -1221.506          47.000  
  22430506.273   117873092.516       -1221.688          38.000  
  22271969.611   117039986.991       -1221.409          40.000  
  22383619.036   117626734.613       -1221.590          39.000  
  22341131.710   117403471.039       -1221.498          41.000  
  22342008.481   117408047.5322      -1221.467          39.000  
  22415860.016   117796172.003       -1221.455          36.000  
  22356365.079   117483512.028       -1221.428          40.000  
  22255262.024   116952212.975       -1221.359          39.000  
  22321785.830   117301805.091       -1221.496          40.000  
  22511511.977   118298786.065       -1221.482          38.000  
  22465094.412   118054871.075       -1221.554          40.000  
 25  8 13  8 56 54.2020000  0 28G 1G 8G 3G21G 6G 2G30G29G14G 5G28G19
                                G11G17G27G 7G 4G23G18G20G15G26G12G31
                                G16G 9G24G32
  22401530.736   117720906.390       -1221.479          50.000  
  22401510.915   117720890.748       -1221.465          50.000  
  22401606.051   117720963.321       -1221.465          50.000  
  22373117.016   117571522.792       -1221.513          36.000  
  22401502.765   117720915.737       -1221.534          50.000  
  22401532.364   117720900.996       -1221.471          50.000  
  22412106.617   117776341.291       -1221.430          36.000  
  22442569.824   117936515.393       -1221.499          39.000  
  22438759.914   117916473.231       -1221.450          35.000  
  22401539.591   117720882.361       -1221.476          47.000  
  22429389.901   117867245.849       -1221.424          40.000  
  22482719.526   118147488.134       -1221.719          32.000  
  22330041.999   117345183.804       -1221.473          39.000  
  22464552.620   118052021.751       -1221.313          34.000  
  22426749.497   117853414.330       -1221.476          40.000  
  22401533.674   117720885.794       -1221.483          50.000  
  22401537.064   117720870.486       -1221.523          48.000  
  22430552.758   117873336.804       -1221.547          38.000  
  22272016.077   117040231.296       -1221.429          40.000  
  22383665.520   117626978.907       -1221.516          39.000  
  22341178.194   117403715.338       -1221.458          41.000  
  22342054.958   117408291.8372      -1221.535          39.000  
  22415906.516   117796416.301       -1221.413          36.000  
  22356411.556   117483756.331       -1221.537          40.000  
  22255308.497   116952457.277       -1221.445          39.000  
  22321832.325   117302049.386       -1221.480          40.000  
  22511558.475   118299030.362       -1221.399          38.000  
  22465140.896   118055115.370       -1221.583          40.000  
 25  8 13  8 56 54.4020000  0 28G 1G 8G 3G21G 6G 2G30G29G14G 5G28G19
                                G11G17G27G 7G 4G23G18G20G15G26G12G31
                                G16G 9G24G32
  22401577.203   117721150.671       -1221.492          50.000  
  22401557.894   117721135.030       -1221.465          50.000  
  22401653.456   117721207.600       -1221.408          50.000  
  22373163.543   117571767.069       -1221.493          36.000  
  22401549.032   117721160.013       -1221.448          50.000  
  22401578.822   117721145.276       -1221.453          50.000  
  22412153.101   117776585.577       -1221.455          36.000  
  22442616.304   117936759.671       -1221.494          39.000  
  22438806.356   117916717.515       -1221.376          35.000  
  22401586.060   117721126.639       -1221.458          47.000  
  22429436.300   117867490.136       -1221.558          40.000  
  22482766.017   118147732.402       -1221.491          32.000  
  22330088.508   117345428.083       -1221.513          39.000  
  22464599.082   118052266.033       -1221.456          34.000  
  22426795.912   117853658.613       -1221.450          40.000  
  22401580.129   117721130.076       -1221.464          50.000  
  22401583.603   117721114.764       -1221.520          48.000  
  22430599.289   117873581.081       -1221.474          38.000  
  22272062.541   117040475.576       -1221.411          40.000  
  22383712.021   117627223.184       -1221.488          39.000  
  22341224.608   117403959.620       -1221.446          41.000  
  22342101.441   117408536.1142      -1221.426          39.000  
  22415952.985   117796660.581       -1221.492          36.000  
  22356458.033   117484000.607       -1221.429          40.000  
  22255354.959   116952701.562       -1221.461          39.000  
  22321878.779   117302293.667       -1221.454          40.000  
  22511604.987   118299274.647       -1221.418          38.000  
  22465187.355   118055359.645       -1221.396          40.000  
 25  8 13  8 56 54.6020000  0 28G 1G 8G 3G21G 6G 2G30G29G14G 5G28G19
                                G11G17G27G 7G 4G23G18G20G15G26G12G31
                                G16G 9G24G32
  22401623.661   117721394.981       -1221.632          50.000  
  22401604.747   117721379.334       -1221.601          50.000  
  22401700.793   117721451.913       -1221.664          50.000  
  22373210.046   117572011.373       -1221.596          36.000  
  22401595.307   117721404.324       -1221.705          50.000  
  22401625.284   117721389.585       -1221.659          50.000  
  22412199.609   117776829.876       -1221.596          36.000  
  22442662.784   117937003.981       -1221.626          39.000  
  22438852.845   117916961.830       -1221.734          35.000  
  22401632.500   117721370.950       -1221.665          47.000  
  22429482.731   117867734.440       -1221.612          41.000  
  22482812.467   118147976.722       -1221.793          32.000  
  22330135.002   117345672.394       -1221.716          39.000  
  22464645.548   118052510.339       -1221.613          34.000  
  22426842.420   117853902.924       -1221.751          40.000  
  22401626.592   117721374.381       -1221.632          50.000  
  22401630.113   117721359.073       -1221.618          48.000  
  22430645.754   117873825.393       -1221.746          38.000  
  22272109.042   117040719.882       -1221.603          40.000  
  22383758.507   117627467.502       -1221.769          39.000  
  22341271.098   117404203.926       -1221.612          41.000  
  22342147.893   117408780.4202      -1221.607          39.000  
  22415999.443   117796904.883       -1221.522          36.000  
  22356504.500   117484244.919       -1221.699          40.000  
  22255401.448   116952945.868       -1221.646          39.000  
  22321925.253   117302537.973       -1221.607          40.000  
  22511651.477   118299518.949       -1221.580          38.000  
  22465233.846   118055603.960       -1221.684          40.000  
 25  8 13  8 56 54.8020000  0 28G 1G 8G 3G21G 6G 2G30G29G14G 5G28G19
                                G11G17G27G 7G 4G23G18G20G15G26G12G31
                                G16G 9G24G32
  22401670.120   117721639.287       -1221.503          50.000  
  22401651.023   117721623.637       -1221.380          50.000  
  22401748.213   117721696.217       -1221.438          50.000  
  22373256.527   117572255.677       -1221.398          36.000  
  22401641.266   117721648.624       -1221.379          50.000  
  22401671.735   117721633.884       -1221.454          50.000  
  22412246.100   117777074.153       -1221.661          36.000  
  22442709.280   117937248.278       -1221.549          38.000  
  22438899.315   117917206.127       -1221.343          35.000  
  22401678.991   117721615.239       -1221.483          47.000  
  22429529.184   117867978.733       -1221.628          41.000  
  22482858.943   118148221.002       -1221.657          32.000  
  22330181.475   117345916.691       -1221.368          39.000  
  22464692.028   118052754.628       -1221.451          34.000  
  22426888.912   117854147.206       -1221.565          40.000  
  22401673.063   117721618.672       -1221.490          50.000  
  22401676.608   117721603.375       -1221.413          48.000  
  22430692.254   117874069.704       -1221.388          38.000  
  22272155.503   117040964.177       -1221.316          40.000  
  22383804.996   117627711.779       -1221.491          39.000  
  22341317.565   117404448.226       -1221.401          41.000  
  22342194.381   117409024.7292      -1221.296          38.000  
  22416045.917   117797149.165       -1221.511          36.000  
  22356550.981   117484489.217       -1221.598          39.000  
  22255447.910   116953190.151       -1221.407          39.000  
  22321971.721   117302782.268       -1221.314          39.000  
  22511697.970   118299763.231       -1221.797          38.000  
  22465280.306   118055848.249       -1221.461          40.000  
 25  8 13  8 56 55.0020000  0 28G 1G 8G 3G21G 6G 2G30G29G14G 5G28G19
                                G11G17G27G 7G 4G23G18G20G15G26G12G31
                                G16G 9G24G32
  22401716.577   117721883.618       -1221.660          50.000  
  22401697.445   117721867.972       -1221.692          50.000  
  22401795.653   117721940.545       -1221.642          50.000  
  22373303.044   117572500.014       -1221.763          36.000  
  22401687.268   117721892.957       -1221.646          50.000  
  22401718.239   117721878.214       -1221.615          50.000  
  22412292.646   117777318.479       -1221.617          36.000  
  22442755.725   117937492.613       -1221.763          38.000  
  22438945.788   117917450.465       -1221.740          35.000  
  22401725.508   117721859.573       -1221.660          48.000  
  22429575.636   117868223.060       -1221.647          40.000  
  22482905.412   118148465.336       -1221.730          32.000  
  22330227.985   117346161.022       -1221.608          39.000  
  22464738.526   118052998.963       -1221.590          34.000  
  22426935.383   117854391.537       -1221.628          40.000  
  22401719.537   117721863.001       -1221.609          50.000  
  22401723.133   117721847.707       -1221.687          48.000  
  22430738.722   117874314.043       -1221.789          38.000  
  22272202.015   117041208.515       -1221.638          40.000  
  22383851.447   117627956.112       -1221.650          40.000  
  22341364.043   117404692.563       -1221.697          41.000  
  22342240.899   117409269.0652      -1221.603          38.000  
  22416092.377   117797393.499       -1221.687          36.000  
  22356597.443   117484733.543       -1221.694          39.000  
  22255494.396   116953434.492       -1221.618          39.000  
  22322018.192   117303026.603       -1221.635          39.000  
  22511744.494   118300007.548       -1221.519          38.000  
  22465326.781   118056092.579       -1221.609          40.000  
 25  8 13  8 56 55.2020000  0 28G 1G 8G 3G21G 6G 2G30G29G14G 5G28G19
                                G11G17G27G 7G 4G23G18G20G15G26G12G31
                                G16G 9G24G32
  22401763.059   117722127.919       -1221.509          50.000  
  22401743.865   117722112.274       -1221.522          50.000  
  22401843.095   117722184.847       -1221.490          50.000  
  22373349.582   117572744.316       -1221.641          35.000  
  22401733.275   117722137.260       -1221.502          50.000  
  22401764.702   117722122.519       -1221.490          50.000  
  22412339.161   117777562.786       -1221.566          36.000  
  22442802.206   117937736.910       -1221.563          38.000  
  22438992.279   117917694.762       -1221.426          35.000  
  22401772.000   117722103.878       -1221.574          48.000  
  22429622.071   117868467.360       -1221.492          41.000  
  22482951.893   118148709.633       -1221.531          32.000  
  22330274.430   117346405.323       -1221.490          39.000  
  22464785.050   118053243.278       -1221.636          34.000  
  22426981.841   117854635.836       -1221.483          40.000  
  22401766.018   117722107.304       -1221.482          50.000  
  22401769.582   117722092.004       -1221.512          48.000  
  22430785.197   117874558.346       -1221.644          38.000  
  22272248.509   117041452.814       -1221.505          40.000  
  22383897.891   117628200.415       -1221.589          40.000  
  22341410.483   117404936.860       -1221.512          41.000  
  22342287.377   117409513.3712      -1221.548          38.000  
  22416138.904   117797637.805       -1221.501          36.000  
  22356643.954   117484977.844       -1221.516          39.000  
  22255540.899   116953678.791       -1221.459          39.000  
  22322064.657   117303270.906       -1221.616          39.000  
  22511790.968   118300251.850       -1221.385          38.000  
  22465373.249   118056336.884       -1221.510          40.000  
 25  8 13  8 56 55.4020000  0 28G 1G 8G 3G21G 6G 2G30G29G14G 5G28G19
                                G11G17G27G 7G 4G23G18G20G15G26G12G31
                                G16G 9G24G32
  22401809.547   117722372.221       -1221.625          50.000  
  22401790.113   117722356.576       -1221.690          50.000  
  22401890.368   117722429.148       -1221.571          50.000  
  22373396.110   117572988.612       -1221.583          35.000  
  22401779.531   117722381.562       -1221.663          50.000  
  22401811.190   117722366.822       -1221.644          50.000  
  22412385.676   117777807.084       -1221.638          35.000  
  22442848.678   117937981.212       -1221.691          38.000  
  22439038.758   117917939.070       -1221.551          35.000  
  22401818.450   117722348.184       -1221.715          48.000  
  22429668.501   117868711.663       -1221.586          40.000  
  22482998.428   118148953.939       -1221.760          32.000  
  22330320.934   117346649.627       -1221.626          39.000  
  22464831.643   118053487.574       -1221.780          34.000  
  22427028.323   117854880.141       -1221.657          40.000  
  22401812.535   117722351.611       -1221.714          50.000  
  22401816.049   117722336.305       -1221.644          48.000  
  22430831.675   117874802.642       -1221.683          38.000  
  22272295.005   117041697.116       -1221.607          40.000  
  22383944.386   117628444.715       -1221.643          40.000  
  22341456.950   117405181.160       -1221.551          41.000  
  22342333.900   117409757.1701      -1221.618          38.000  
  22416185.364   117797882.106       -1221.544          35.000  
  22356690.406   117485222.146       -1221.572          39.000  
  22255587.377   116953923.101       -1221.668          39.000  
  22322111.081   117303515.205       -1221.653          39.000  
  22511837.498   118300496.160       -1221.618          38.000  
  22465419.703   118056581.189       -1221.695          40.000  
 25  8 13  8 56 55.6020000  0 28G 1G 8G 3G21G 6G 2G30G29G14G 5G28G19
                                G11G17G27G 7G 4G23G18G20G15G26G12G31
                                G16G 9G24G32
  22401856.021   117722616.540       -1221.525          50.000  
  22401836.472   117722600.898       -1221.554          50.000  
  22401937.493   117722673.468       -1221.442          50.000  
  22373442.583   117573232.933       -1221.408          35.000  
  22401826.035   117722625.883       -1221.483          50.000  
  22401857.654   117722611.146       -1221.563          50.000  
  22412432.183   117778051.456       -1222.079          35.000  
  22442895.178   117938225.542       -1221.671          38.000  
  22439085.280   117918183.386       -1221.458          35.000  
  22401864.944   117722592.517       -1221.729          48.000  
  22429714.962   117868956.012       -1221.859          40.000  
  22483044.877   118149198.277       -1221.787          32.000  
  22330367.419   117346893.953       -1221.552          39.000  
  22464878.128   118053731.898       -1221.460          34.000  
  22427074.780   117855124.492       -1221.869          40.000  
  22401859.029   117722595.944       -1221.700          50.000  
  22401862.521   117722580.629       -1221.509          48.000  
  22430878.164   117875046.950       -1221.417          38.000  
  22272341.462   117041941.443       -1221.532          40.000  
  22383990.894   117628689.061       -1221.869          40.000  
  22341503.415   117405425.484       -1221.504          41.000  
  22342380.366   117410001.472       -1221.275          39.000  
  22416231.861   117798126.459       -1221.756          35.000  
  22356736.926   117485466.480       -1221.681          39.000  
  22255633.859   116954167.435       -1221.727          39.000  
  22322157.544   117303759.542       -1221.706          39.000  
  22511884.055   118300740.523       -1222.015          38.000  
  22465466.151   118056825.515       -1221.614          40.000  
 25  8 13  8 56 55.8020000  0 28G 1G 8G 3G21G 6G 2G30G29G14G 5G28G19
                                G11G17G27G 7G 4G23G18G20G15G26G12G31
                                G16G 9G24G32
  22401902.489   117722860.847       -1221.610          50.000  
  22401882.908   117722845.201       -1221.642          50.000  
  22401984.607   117722917.771       -1221.628          50.000  
  22373489.059   117573477.240       -1221.669          35.000  
  22401872.682   117722870.187       -1221.561          50.000  
  22401904.120   117722855.447       -1221.504          50.000  
  22412478.687   117778295.732       -1221.451          35.000  
  22442941.703   117938469.836       -1221.507          38.000  
  22439131.739   117918427.696       -1221.813          35.000  
  22401911.476   117722836.818       -1221.661          48.000  
  22429761.404   117869200.303       -1221.607          40.000  
  22483091.403   118149442.583       -1221.602          32.000  
  22330413.903   117347138.252       -1221.612          39.000  
  22464924.702   118053976.205       -1221.714          34.000  
  22427121.274   117855368.781       -1221.599          40.000  
  22401905.531   117722840.245       -1221.608          50.000  
  22401909.036   117722824.939       -1221.652          48.000  
  22430924.683   117875291.255       -1221.558          38.000  
  22272387.956   117042185.750       -1221.721          40.000  
  22384037.369   117628933.352       -1221.456          40.000  
  22341549.858   117405669.787       -1221.547          41.000  
  22342426.866   117410245.787       -1221.658          39.000  
  22416278.379   117798370.759       -1221.709          35.000  
  22356783.377   117485710.783       -1221.715          39.000  
  22255680.348   116954411.735       -1221.613          39.000  
  22322203.993   117304003.839       -1221.597          39.000  
  22511930.528   118300984.810       -1221.620          38.000  
  22465512.570   118057069.818       -1221.531          40.000  
 25  8 13  8 56 56.0020000  0 28G 1G 8G 3G21G 6G 2G30G29G14G 5G28G19
                                G11G17G27G 7G 4G23G18G20G15G26G12G31
                                G16G 9G24G32
  22401948.960   117723105.162       -1221.578          50.000  
  22401929.299   117723089.519       -1221.590          50.000  
  22402031.556   117723162.093       -1221.588          50.000  
  22373535.526   117573721.558       -1221.563          36.000  
  22401919.027   117723114.505       -1221.604          50.000  
  22401950.599   117723099.769       -1221.578          50.000  
  22412525.178   117778540.063       -1221.579          36.000  
  22442988.168   117938714.156       -1221.576          38.000  
  22439178.199   117918672.006       -1221.538          35.000  
  22401957.910   117723081.136       -1221.658          48.000  
  22429807.852   117869444.623       -1221.564          41.000  
  22483137.927   118149686.896       -1221.502          32.000  
  22330460.356   117347382.572       -1221.605          39.000  
  22464971.200   118054220.518       -1221.532          35.000  
  22427167.752   117855613.102       -1221.569          40.000  
  22401951.999   117723084.560       -1221.607          50.000  
  22401955.486   117723069.250       -1221.521          48.000  
  22430971.146   117875535.574       -1221.613          38.000  
  22272434.401   117042430.065       -1221.661          40.000  
  22384083.840   117629177.671       -1221.569          39.000  
  22341596.310   117405914.110       -1221.663          41.000  
  22342473.324   117410490.101       -1221.564          40.000  
  22416324.897   117798615.076       -1221.560          35.000  
  22356829.920   117485955.101       -1221.602          39.000  
  22255726.797   116954656.052       -1221.595          39.000  
  22322250.479   117304248.159       -1221.600          39.000  
  22511977.024   118301229.133       -1221.502          38.000  
  22465559.053   118057314.137       -1221.534          40.000  
 25  8 13  8 56 56.2020000  0 28G 1G 8G 3G21G 6G 2G30G29G14G 5G28G19
                                G11G17G27G 7G 4G23G18G20G15G26G12G31
                                G16G 9G24G32
  22401995.436   117723349.485       -1221.720          50.000  
  22401976.018   117723333.844       -1221.731          50.000  
  22402078.846   117723406.419       -1221.731          50.000  
  22373582.004   117573965.888       -1221.848          36.000  
  22401965.465   117723358.834       -1221.709          50.000  
  22401997.088   117723344.092       -1221.724          50.000  
  22412571.655   117778784.392       -1221.769          36.000  
  22443034.651   117938958.486       -1221.748          38.000  
  22439224.671   117918916.337       -1221.776          35.000  
  22402004.371   117723325.464       -1221.657          48.000  
  22429854.253   117869688.950       -1221.748          41.000  
  22483184.450   118149931.222       -1221.724          32.000  
  22330506.857   117347626.901       -1221.716          39.000  
  22465017.725   118054464.848       -1221.678          35.000  
  22427214.263   117855857.433       -1221.767          40.000  
  22401998.493   117723328.888       -1221.703          50.000  
  22402001.978   117723313.578       -1221.757          48.000  
  22431017.679   117875779.898       -1221.697          38.000  
  22272480.897   117042674.387       -1221.698          40.000  
  22384130.324   117629422.002       -1221.737          40.000  
  22341642.780   117406158.434       -1221.778          41.000  
  22342519.859   117410734.430       -1221.828          40.000  
  22416371.392   117798859.403       -1221.790          36.000  
  22356876.347   117486199.423       -1221.724          40.000  
  22255773.287   116954900.379       -1221.741          39.000  
  22322296.938   117304492.486       -1221.795          39.000  
  22512023.509   118301473.457       -1221.775          38.000  
  22465605.488   118057558.462       -1221.750          40.000  
 25  8 13  8 56 56.4020000  0 28G 1G 8G 3G21G 6G 2G30G29G14G 5G28G19
                                G11G17G27G 7G 4G23G18G20G15G26G12G31
                                G16G 9G24G32
  22402041.900   117723593.795       -1221.528          50.000  
  22402022.579   117723578.151       -1221.568          50.000  
  22402125.848   117723650.724       -1221.490          50.000  
  22373628.528   117574210.189       -1221.531          36.000  
  22402012.265   117723603.139       -1221.545          50.000  
  22402043.544   117723588.402       -1221.614          50.000  
  22412618.195   117779028.697       -1221.546          36.000  
  22443081.138   117939202.791       -1221.562          38.000  
  22439271.171   117919160.645       -1221.628          35.000  
  22402050.860   117723569.770       -1221.571          48.000  
  22429900.703   117869933.255       -1221.517          41.000  
  22483231.009   118150175.539       -1221.564          32.000  
  22330553.290   117347871.209       -1221.637          39.000  
  22465064.181   118054709.153       -1221.460          35.000  
  22427260.771   117856101.735       -1221.551          40.000  
  22402044.965   117723573.196       -1221.549          50.000  
  22402048.455   117723557.890       -1221.573          48.000  
  22431064.145   117876024.208       -1221.495          38.000  
  22272527.322   117042918.691       -1221.392          40.000  
  22384176.787   117629666.307       -1221.537          39.000  
  22341689.230   117406402.740       -1221.497          41.000  
  22342566.336   117410978.730       -1221.487          40.000  
  22416417.896   117799103.710       -1221.611          36.000  
  22356922.876   117486443.730       -1221.483          40.000  
  22255819.759   116955144.684       -1221.502          39.000  
  22322343.460   117304736.791       -1221.496          40.000  
  22512069.987   118301717.762       -1221.598          38.000  
  22465651.958   118057802.769       -1221.583          40.000  
 25  8 13  8 56 56.6020000  0 28G 1G 8G 3G21G 6G 2G30G29G14G 5G28G19
                                G11G17G27G 7G 4G23G18G20G15G26G12G31
                                G16G 9G24G32
  22402088.369   117723838.108       -1221.551          50.000  
  22402069.184   117723822.464       -1221.516          50.000  
  22402172.457   117723895.040       -1221.623          50.000  
  22373675.046   117574454.517       -1221.484          36.000  
  22402059.098   117723847.457       -1221.514          50.000  
  22402090.022   117723832.706       -1221.468          50.000  
  22412664.706   117779272.987       -1221.842          36.000  
  22443127.631   117939447.110       -1221.550          39.000  
  22439317.638   117919404.940       -1221.744          35.000  
  22402097.368   117723814.080       -1221.596          48.000  
  22429947.133   117870177.565       -1221.618          41.000  
  22483277.478   118150419.836       -1221.703          32.000  
  22330599.775   117348115.525       -1221.556          39.000  
  22465110.682   118054953.476       -1221.635          35.000  
  22427307.249   117856346.036       -1221.808          40.000  
  22402091.450   117723817.500       -1221.567          50.000  
  22402094.991   117723802.204       -1221.536          48.000  
  22431110.665   117876268.527       -1221.550          38.000  
  22272573.822   117043163.009       -1221.721          40.000  
  22384223.277   117629910.608       -1221.568          40.000  
  22341735.664   117406647.055       -1221.499          41.000  
  22342612.859   117411223.052       -1221.459          39.000  
  22416464.403   117799347.990       -1221.752          35.000  
  22356969.356   117486688.036       -1221.611          40.000  
  22255866.231   116955388.999       -1221.657          39.000  
  22322389.929   117304981.104       -1221.450          39.000  
  22512116.522   118301962.046       -1221.615          38.000  
  22465698.387   118058047.093       -1221.401          40.000  
 25  8 13  8 56 56.8020000  0 28G 1G 8G 3G21G 6G 2G30G29G14G 5G28G19
                                G11G17G27G 7G 4G23G18G20G15G26G12G31
                                G16G 9G24G32
  22402134.856   117724082.450       -1221.749          50.000  
  22402115.697   117724066.808       -1221.776          50.000  
  22402219.069   117724139.380       -1221.808          50.000  
  22373721.552   117574698.857       -1221.795          36.000  
  22402106.029   117724091.803       -1221.833          50.000  
  22402136.528   117724077.052       -1221.702          50.000  
  22412711.248   117779517.322       -1221.798          35.000  
  22443174.118   117939691.452       -1221.787          39.000  
  22439364.146   117919649.275       -1221.630          36.000  
  22402143.875   117724058.424       -1221.851          48.000  
  22429993.572   117870421.907       -1221.828          41.000  
  22483324.079   118150664.183       -1221.804          33.000  
  22330646.211   117348359.871       -1221.824          39.000  
  22465157.166   118055197.815       -1221.819          34.000  
  22427353.709   117856590.375       -1221.775          41.000  
  22402137.949   117724061.843       -1221.703          50.000  
  22402141.500   117724046.550       -1221.787          48.000  
  22431157.139   117876512.873       -1221.813          38.000  
  22272620.264   117043407.344       -1221.816          40.000  
  22384269.775   117630154.954       -1221.695          40.000  
  22341782.130   117406891.398       -1221.755          41.000  
  22342659.329   117411467.395       -1221.712          39.000  
  22416510.847   117799592.325       -1221.677          35.000  
  22357015.899   117486932.378       -1221.781          40.000  
  22255912.745   116955633.338       -1221.743          39.000  
  22322436.405   117305225.456       -1221.824          39.000  
  22512163.029   118302206.389       -1221.708          38.000  
  22465744.864   118058291.440       -1221.811          40.000  
 25  8 13  8 56 57.0020000  0 28G 1G 8G 3G21G 6G 2G30G29G14G 5G28G19
                                G11G17G27G 7G 4G23G18G20G15G26G12G31
                                G16G 9G24G32
  22402181.367   117724326.801       -1221.804          50.000  
  22402162.013   117724311.153       -1221.741          50.000  
  22402265.554   117724383.727       -1221.761          50.000  
  22373768.044   117574943.203       -1221.743          36.000  
  22402152.491   117724336.150       -1221.812          50.000  
  22402183.033   117724321.402       -1221.752          50.000  
  22412757.756   117779761.677       -1221.810          35.000  
  22443220.611   117939935.798       -1221.793          39.000  
  22439410.673   117919893.628       -1221.865          36.000  
  22402190.397   117724302.769       -1221.800          48.000  
  22430040.019   117870666.255       -1221.839          41.000  
  22483370.619   118150908.538       -1222.035          33.000  
  22330692.752   117348604.215       -1221.728          39.000  
  22465203.637   118055442.149       -1221.540          34.000  
  22427400.185   117856834.723       -1221.794          41.000  
  22402184.432   117724306.192       -1221.747          50.000  
  22402187.998   117724290.896       -1221.807          48.000  
  22431203.643   117876757.223       -1221.899          38.000  
  22272666.764   117043651.687       -1221.722          40.000  
  22384316.305   117630399.307       -1221.898          40.000  
  22341828.587   117407135.746       -1221.747          41.000  
  22342705.864   117411711.742       -1221.754          39.000  
  22416557.274   117799836.672       -1221.707          35.000  
  22357062.352   117487176.723       -1221.741          40.000  
  22255959.198   116955877.685       -1221.799          39.000  
  22322482.916   117305469.802       -1221.813          39.000  
  22512209.537   118302450.738       -1221.779          38.000  
  22465791.298   118058535.785       -1221.828          41.000  
 25  8 13  8 56 57.2020000  0 29G 1G 8G 3G21G 6G 2G30G29G14G 5G28G19
                                G11G17G27G 7G 4G23G18G20G15G10G26G12
                                G31G16G 9G24G32
  22402227.852   117724571.139       -1221.791          50.000  
  22402208.437   117724555.495       -1221.843          50.000  
  22402312.543   117724628.069       -1221.783          50.000  
  22373814.527   117575187.544       -1221.762          36.000  
  22402199.043   117724580.488       -1221.785          50.000  
  22402229.518   117724565.741       -1221.737          50.000  
  22412804.283   117780006.011       -1221.755          35.000  
  22443267.105   117940180.136       -1221.806          39.000  
  22439457.164   117920137.968       -1221.809          36.000  
  22402236.901   117724547.102       -1221.708          48.000  
  22430086.449   117870910.591       -1221.751          41.000  
  22483417.091   118151152.869       -1221.860          33.000  
  22330739.183   117348848.558       -1221.842          39.000  
  22465250.175   118055686.501       -1221.805          34.000  
  22427446.650   117857079.065       -1221.802          41.000  
  22402230.922   117724550.530       -1221.758          50.000  
  22402234.512   117724535.235       -1221.824          48.000  
  22431250.123   117877001.551       -1221.716          38.000  
  22272713.232   117043896.033       -1221.869          40.000  
  22384362.739   117630643.640       -1221.841          40.000  
  22341875.058   117407380.083       -1221.741          41.000  
  22414551.457   117789262.5613      -1221.880          38.000  
  22342752.332   117411956.080       -1221.814          39.000  
  22416603.726   117800081.016       -1221.870          35.000  
  22357108.893   117487421.067       -1221.841          40.000  
  22256005.685   116956122.021       -1221.733          39.000  
  22322529.433   117305714.138       -1221.799          39.000  
  22512256.060   118302695.079       -1221.840          38.000  
  22465837.788   118058780.124       -1221.810          41.000  
 25  8 13  8 56 57.4020000  0 29G 1G 8G 3G21G 6G 2G30G29G14G 5G28G19
                                G11G17G27G 7G 4G23G18G20G15G10G26G12
                                G31G16G 9G24G32
  22402274.319   117724815.483       -1221.836          50.000  
  22402254.912   117724799.844       -1221.926          50.000  
  22402359.785   117724872.422       -1221.938          50.000  
  22373861.032   117575431.881       -1221.802          36.000  
  22402245.647   117724824.831       -1221.784          50.000  
  22402276.028   117724810.094       -1221.893          50.000  
  22412850.847   117780250.414       -1222.401          35.000  
  22443313.613   117940424.483       -1221.794          39.000  
  22439503.693   117920382.341       -1222.195          36.000  
  22402283.444   117724791.463       -1221.987          48.000  
  22430132.885   117871154.953       -1222.079          41.000  
  22483463.579   118151397.219       -1221.817          33.000  
  22330785.706   117349092.899       -1221.873          39.000  
  22465296.682   118055930.848       -1221.901          34.000  
  22427493.128   117857323.434       -1222.135          41.000  
  22402277.428   117724794.893       -1221.985          50.000  
  22402281.018   117724779.584       -1221.887          48.000  
  22431296.626   117877245.894       -1221.740          38.000  
  22272759.704   117044140.402       -1222.207          40.000  
  22384409.259   117630887.995       -1221.865          40.000  
  22341921.534   117407624.433       -1221.814          41.000  
  22414598.144   117789506.8912      -1221.750          38.000  
  22342798.873   117412200.431       -1221.952          39.000  
  22416650.154   117800325.423       -1222.596          35.000  
  22357155.406   117487665.430       -1222.135          40.000  
  22256052.189   116956366.376       -1221.894          39.000  
  22322575.867   117305958.482       -1221.785          39.000  
  22512302.561   118302939.472       -1222.505          38.000  
  22465884.227   118059024.453       -1221.624          41.000  
 25  8 13  8 56 57.6020000  0 29G 1G 8G 3G21G 6G 2G30G29G14G 5G28G19
                                G11G17G27G 7G 4G23G18G20G15G10G26G12
                                G31G16G 9G24G32
  22402320.778   117725059.830       -1221.676          50.000  
  22402301.625   117725044.187       -1221.672          50.000  
  22402406.671   117725116.767       -1221.697          50.000  
  22373907.537   117575676.224       -1221.651          36.000  
  22402292.209   117725069.176       -1221.704          50.000  
  22402322.486   117725054.435       -1221.704          50.000  
  22412897.383   117780494.729       -1221.553          35.000  
  22443360.075   117940668.833       -1221.725          39.000  
  22439550.232   117920626.672       -1221.670          36.000  
  22402329.911   117725035.799       -1221.674          48.000  
  22430179.349   117871399.290       -1221.646          41.000  
  22483510.038   118151641.573       -1221.855          33.000  
  22330832.140   117349337.244       -1221.712          39.000  
  22465343.162   118056175.191       -1221.785          34.000  
  22427539.591   117857567.770       -1221.700          41.000  
  22402323.888   117725039.233       -1221.684          50.000  
  22402327.489   117725023.924       -1221.679          48.000  
  22431343.140   117877490.249       -1221.847          38.000  
  22272806.177   117044384.729       -1221.644          40.000  
  22384455.741   117631132.341       -1221.679          40.000  
  22341968.000   117407868.777       -1221.677          41.000  
  22414644.578   117789751.2452      -1221.799          38.000  
  22342845.347   117412444.769       -1221.667          39.000  
  22416696.695   117800569.732       -1221.509          35.000  
  22357201.926   117487909.765       -1221.684          40.000  
  22256098.705   116956610.714       -1221.650          39.000  
  22322622.387   117306202.823       -1221.625          39.000  
  22512349.051   118303183.794       -1221.732          38.000  
  22465930.764   118059268.809       -1221.794          41.000  
 25  8 13  8 56 57.8020000  0 29G 1G 8G 3G21G 6G 2G30G29G14G 5G28G19
                                G11G17G27G 7G 4G23G18G20G15G10G26G12
                                G31G16G 9G24G32
  22402367.277   117725304.184       -1221.799          50.000  
  22402348.332   117725288.539       -1221.899          50.000  
  22402453.353   117725361.118       -1221.861          50.000  
  22373954.011   117575920.576       -1221.782          36.000  
  22402338.941   117725313.528       -1221.853          50.000  
  22402368.968   117725298.787       -1221.846          50.000  
  22412943.909   117780739.086       -1221.808          35.000  
  22443406.575   117940913.184       -1221.870          39.000  
  22439596.750   117920871.027       -1221.821          36.000  
  22402376.430   117725280.156       -1221.851          48.000  
  22430225.823   117871643.645       -1221.866          41.000  
  22483556.507   118151885.919       -1221.809          33.000  
  22330878.680   117349581.594       -1221.852          39.000  
  22465389.667   118056419.539       -1221.814          34.000  
  22427586.050   117857812.124       -1221.873          40.000  
  22402370.371   117725283.585       -1221.821          50.000  
  22402373.968   117725268.277       -1221.887          48.000  
  22431389.641   117877734.599       -1221.851          38.000  
  22272852.695   117044629.081       -1221.781          40.000  
  22384502.238   117631376.697       -1221.783          40.000  
  22342014.456   117408113.127       -1221.882          41.000  
  22414691.124   117789995.5902      -1221.834          38.000  
  22342891.858   117412689.118       -1221.797          39.000  
  22416743.243   117800814.091       -1221.662          35.000  
  22357248.383   117488154.119       -1221.813          40.000  
  22256145.139   116956855.065       -1221.824          39.000  
  22322668.844   117306447.175       -1221.814          40.000  
  22512395.533   118303428.150       -1221.813          38.000  
  22465977.210   118059513.160       -1221.917          41.000  
 25  8 13  8 56 58.0020000  0 29G 1G 8G 3G21G 6G 2G30G29G14G 5G28G19
                                G11G17G27G 7G 4G23G18G20G15G10G26G12
                                G31G16G 9G24G32
  22402413.734   117725548.532       -1221.864          50.000  
  22402395.119   117725532.885       -1221.830          50.000  
  22402500.137   117725605.463       -1221.844          50.000  
  22374000.513   117576164.923       -1221.832          36.000  
  22402385.760   117725557.874       -1221.797          50.000  
  22402415.436   117725543.136       -1221.842          50.000  
  22412990.465   117780983.437       -1221.847          36.000  
  22443453.032   117941157.528       -1221.771          39.000  
  22439643.249   117921115.374       -1221.883          35.000  
  22402422.929   117725524.502       -1221.809          48.000  
  22430272.296   117871887.991       -1221.864          41.000  
  22483602.969   118152130.269       -1221.689          32.000  
  22330925.052   117349825.938       -1221.738          39.000  
  22465436.124   118056663.887       -1221.785          34.000  
  22427632.531   117858056.466       -1221.815          40.000  
  22402416.853   117725527.936       -1221.863          50.000  
  22402420.447   117725512.620       -1221.786          48.000  
  22431436.165   117877978.947       -1221.824          39.000  
  22272899.184   117044873.431       -1221.870          40.000  
  22384548.686   117631621.046       -1221.854          40.000  
  22342060.939   117408357.473       -1221.826          41.000  
  22414737.606   117790239.9342      -1221.827          38.000  
  22342938.356   117412933.471       -1221.836          39.000  
  22416789.825   117801058.446       -1221.908          35.000  
  22357294.889   117488398.466       -1221.843          40.000  
  22256191.668   116957099.419       -1221.953          39.000  
  22322715.335   117306691.520       -1221.757          40.000  
  22512442.039   118303672.497       -1221.903          38.000  
  22466023.706   118059757.504       -1221.854          40.000  
 25  8 13  8 56 58.2020000  0 29G 1G 8G 3G21G 6G 2G30G29G14G 5G28G19
                                G11G17G27G 7G 4G23G18G20G15G10G26G12
                                G31G16G 9G24G32
  22402460.251   117725792.883       -1221.552          50.000  
  22402441.681   117725777.239       -1221.562          50.000  
  22402547.063   117725849.815       -1221.545          50.000  
  22374047.017   117576409.274       -1221.509          36.000  
  22402432.381   117725802.228       -1221.568          50.000  
  22402461.904   117725787.486       -1221.591          50.000  
  22413037.010   117781227.791       -1221.732          35.000  
  22443499.535   117941401.883       -1221.662          39.000  
  22439689.728   117921359.726       -1221.538          35.000  
  22402469.460   117725768.852       -1221.524          48.000  
  22430318.682   117872132.344       -1221.564          41.000  
  22483649.496   118152374.617       -1221.542          32.000  
  22330971.590   117350070.293       -1221.544          39.000  
  22465482.574   118056908.250       -1221.662          34.000  
  22427678.990   117858300.821       -1221.557          40.000  
  22402463.321   117725772.286       -1221.604          50.000  
  22402466.921   117725756.976       -1221.536          48.000  
  22431482.674   117878223.294       -1221.572          39.000  
  22272945.627   117045117.788       -1221.601          40.000  
  22384595.208   117631865.395       -1221.532          39.000  
  22342107.396   117408601.828       -1221.583          41.000  
  22414783.906   117790484.2892      -1221.506          38.000  
  22342984.868   117413177.825       -1221.554          40.000  
  22416836.346   117801302.795       -1221.450          35.000  
  22357341.397   117488642.818       -1221.584          40.000  
  22256238.157   116957343.770       -1221.588          39.000  
  22322761.807   117306935.877       -1221.554          40.000  
  22512488.584   118303916.846       -1221.568          38.000  
  22466070.160   118060001.855       -1221.517          40.000  
 25  8 13  8 56 58.4020000  0 29G 1G 8G 3G21G 6G 2G30G29G14G 5G28G19
                                G11G17G27G 7G 4G23G18G20G15G10G26G12
                                G31G16G 9G24G32
  22402506.741   117726037.239       -1221.839          50.000  
  22402488.288   117726021.595       -1221.877          50.000  
  22402593.818   117726094.176       -1221.883          50.000  
  22374093.507   117576653.643       -1221.720          36.000  
  22402478.707   117726046.590       -1221.850          50.000  
  22402508.424   117726031.842       -1221.828          50.000  
  22413083.562   117781472.136       -1222.049          35.000  
  22443545.990   117941646.229       -1221.928          39.000  
  22439736.187   117921604.052       -1222.153          36.000  
  22402515.960   117726013.203       -1221.952          48.000  
  22430365.165   117872376.701       -1221.918          41.000  
  22483696.036   118152618.971       -1221.869          33.000  
  22331018.053   117350314.645       -1221.916          39.000  
  22465529.057   118057152.599       -1221.715          34.000  
  22427725.512   117858545.168       -1221.973          41.000  
  22402509.843   117726016.635       -1221.876          50.000  
  22402513.471   117726001.338       -1221.890          48.000  
  22431529.177   117878467.658       -1221.857          38.000  
  22272992.083   117045362.125       -1221.988          40.000  
  22384641.685   117632109.748       -1221.856          40.000  
  22342153.897   117408846.184       -1221.874          41.000  
  22414830.363   117790728.6652      -1221.607          38.000  
  22343031.373   117413422.178       -1222.011          39.000  
  22416882.839   117801547.114       -1222.299          35.000  
  22357387.923   117488887.160       -1221.996          40.000  
  22256284.661   116957588.128       -1221.856          39.000  
  22322808.308   117307180.234       -1221.890          40.000  
  22512535.104   118304161.191       -1222.071          38.000  
  22466116.664   118060246.222       -1221.754          40.000  
 25  8 13  8 56 58.6020000  0 28G 1G 8G 3G21G 6G 2G30G29G14G 5G28G11
                                G17G27G 7G 4G23G18G20G15G10G26G12G31
                                G16G 9G24G32
  22402553.357   117726281.587       -1221.815          45.000  
  22402535.017   117726265.938       -1221.722          44.000  
  22402640.240   117726338.526       -1221.834          45.000  
  22374139.974   117576897.979       -1221.489          34.000  
  22402525.169   117726290.946       -1221.897          44.000  
  22402554.768   117726276.194       -1221.821          46.000  
  22413130.105   117781716.519       -1222.311          32.000  
  22443592.474   117941890.565       -1221.442          33.000  
  22439782.663   117921848.377       -1221.239          32.000  
  22402562.478   117726257.552       -1221.854          43.000  
  22430411.648   117872621.040       -1221.733          35.000  
  22331064.565   117350558.999       -1221.733          34.000  
  22465575.525   118057396.938       -1221.198          30.000  
  22427771.969   117858789.503       -1221.612          36.000  
  22402556.316   117726260.990       -1221.864          46.000  
  22402559.965   117726245.687       -1221.887          42.000  
  22431575.719   117878712.006       -1221.751          34.000  
  22273038.564   117045606.464       -1221.751          36.000  
  22384688.155   117632354.083       -1221.592          36.000  
  22342200.392   117409090.538       -1221.905          36.000  
  22414876.807   117790973.0212      -1222.073          33.000  
  22343077.867   117413666.512       -1221.738          35.000  
  22416929.281   117801791.455       -1221.892          32.000  
  22357434.355   117489131.511       -1221.739          36.000  
  22256331.154   116957832.475       -1221.806          35.000  
  22322854.794   117307424.583       -1221.847          35.000  
  22512581.643   118304405.543       -1221.597          32.000  
  22466163.148   118060490.561       -1221.805          37.000  
 25  8 13  8 56 58.8020000  0 26G 1G 8G 3G21G 6G 2G29G14G 5G28G11G17
                                G27G 7G 4G23G18G20G15G10G26G31G16G 9
                                G24G32
  22402599.940   117726525.922       -1221.523          45.000  
  22402581.557   117726510.286       -1221.534          44.000  
  22402686.689   117726582.861       -1221.521          44.000  
  22374186.550   117577142.327       -1221.363          30.000  
  22402571.613   117726535.278       -1221.437          43.000  
  22402601.437   117726520.530       -1221.602          45.000  
  22443638.898   117942134.905       -1221.145          33.000  
  22439829.175   117922092.780       -1222.329          32.000  
  22402608.943   117726501.894       -1221.610          42.000  
  22430458.125   117872865.380       -1221.287          35.000  
  22331111.101   117350803.348       -1221.845          32.000  
  22465622.138   118057641.280       -1221.037          30.000  
  22427818.497   117859033.860       -1221.835          35.000  
  22402602.960   117726505.322       -1221.412          46.000  
  22402606.451   117726490.017       -1221.446          41.000  
  22431622.221   117878956.353       -1221.462          31.000  
  22273085.086   117045850.851       -1222.607          33.000  
  22384734.652   117632598.451       -1222.016          33.000  
  22342246.880   117409334.866       -1221.604          36.000  
  22414923.346   117791217.3382      -1221.290          33.000  
  22343124.324   117413910.861       -1221.412          33.000  
  22357480.877   117489375.841       -1221.450          34.000  
  22256377.637   116958076.809       -1221.502          35.000  
  22322901.300   117307668.924       -1221.807          32.000  
  22512628.141   118304649.854       -1221.132          32.000  
  22466209.541   118060734.914       -1221.819          35.000  
 25  8 13  8 56 59.0020000  0 25G 1G 8G 3G21G 6G 2G29G14G 5G28G11G27
                                G 7G 4G23G18G20G15G10G26G31G16G 9G24
                                G32
  22402646.560   117726770.253       -1221.735          44.000  
  22402628.092   117726754.617       -1221.808          43.000  
  22402733.149   117726827.186       -1221.730          43.000  
  22374232.993   117577386.714       -1222.529          30.000  
  22402618.095   117726779.607       -1221.684          43.000  
  22402648.071   117726764.851       -1221.724          45.000  
  22443685.366   117942379.241       -1221.778          33.000  
  22439875.691   117922337.079       -1221.782          32.000  
  22402655.503   117726746.221       -1221.827          42.000  
  22430504.603   117873109.705       -1221.454          35.000  
  22331157.557   117351047.667       -1221.982          31.000  
  22427865.120   117859278.182       -1221.642          34.000  
  22402649.581   117726749.656       -1221.786          45.000  
  22402652.978   117726734.341       -1221.518          40.000  
  22431668.663   117879200.665       -1221.663          31.000  
  22273131.606   117046095.145       -1221.725          33.000  
  22384781.106   117632842.753       -1221.459          33.000  
  22342293.311   117409579.191       -1221.514          35.000  
  22414969.860   117791461.6652      -1221.228          32.000  
  22343170.851   117414155.214       -1222.079          33.000  
  22357527.428   117489620.177       -1221.932          34.000  
  22256424.168   116958321.121       -1221.314          32.000  
  22322947.783   117307913.234       -1221.618          33.000  
  22512674.657   118304894.206       -1221.948          32.000  
  22466256.002   118060979.234       -1221.729          35.000  
 25  8 13  8 56 59.2020000  0 25G 1G 8G 3G21G 6G 2G29G14G 5G28G11G27
                                G 7G 4G23G18G20G15G10G26G31G16G 9G24
                                G32
  22402693.199   117727014.569       -1221.575          44.000  
  22402674.629   117726998.924       -1221.428          44.000  
  22402779.646   117727071.504       -1221.510          44.000  
  22374279.464   117577630.947       -1221.522          30.000  
  22402664.550   117727023.915       -1221.428          44.000  
  22402694.707   117727009.163       -1221.401          45.000  
  22443731.867   117942623.583       -1222.092          33.000  
  22439922.149   117922581.422       -1221.600          31.000  
  22402701.976   117726990.542       -1221.783          41.000  
  22430551.084   117873354.032       -1221.722          35.000  
  22331203.977   117351291.976       -1221.253          32.000  
  22427911.555   117859522.512       -1221.702          35.000  
  22402696.204   117726993.964       -1221.479          45.000  
  22402699.511   117726978.655       -1221.391          40.000  
  22431715.176   117879444.975       -1221.224          32.000  
  22273178.059   117046339.480       -1221.607          33.000  
  22384827.651   117633087.101       -1221.957          33.000  
  22342339.737   117409823.513       -1221.626          36.000  
  22415016.302   117791706.0022      -1221.933          32.000  
  22343217.284   117414399.500       -1221.547          33.000  
  22357573.893   117489864.508       -1221.736          34.000  
  22256470.678   116958565.476       -1221.718          32.000  
  22322994.317   117308157.573       -1221.453          33.000  
  22512721.183   118305138.509       -1221.693          32.000  
  22466302.507   118061223.560       -1221.669          35.000  
 25  8 13  8 56 59.4020000  0 25G 1G 8G 3G21G 6G 2G29G14G 5G28G11G27
                                G 7G 4G23G18G20G15G10G26G31G16G 9G24
                                G32
  22402739.819   117727258.911       -1222.031          44.000  
  22402721.157   117727243.261       -1221.860          43.000  
  22402826.160   117727315.842       -1222.004          44.000  
  22374326.000   117577875.268       -1221.596          30.000  
  22402711.042   117727268.248       -1221.808          43.000  
  22402741.374   117727253.504       -1221.870          45.000  
  22443778.287   117942867.880       -1221.328          33.000  
  22439968.576   117922825.737       -1221.808          31.000  
  22402748.427   117727234.863       -1221.713          41.000  
  22430597.527   117873598.370       -1221.877          35.000  
  22331250.536   117351536.334       -1222.034          32.000  
  22427958.061   117859766.822       -1221.629          34.000  
  22402742.901   117727238.303       -1221.934          45.000  
  22402746.051   117727223.001       -1221.951          40.000  
  22431761.745   117879689.343       -1221.976          32.000  
  22273224.529   117046583.799       -1221.878          33.000  
  22384874.134   117633331.420       -1221.746          33.000  
  22342386.190   117410067.840       -1221.741          35.000  
  22415062.776   117791950.3172      -1221.779          32.000  
  22343263.784   117414643.839       -1221.838          33.000  
  22357620.427   117490108.846       -1221.592          34.000  
  22256517.238   116958809.802       -1221.973          32.000  
  22323040.718   117308401.893       -1221.623          32.000  
  22512767.666   118305382.871       -1222.163          31.000  
  22466348.928   118061467.878       -1221.712          34.000  
 25  8 13  8 56 59.6020000  0 24G 1G 8G 3G 6G 2G29G14G 5G28G11G27G 7
                                G 4G23G18G20G15G10G26G31G16G 9G24G32
  22402786.520   117727503.232       -1221.724          44.000  
  22402767.670   117727487.589       -1221.685          44.000  
  22402872.657   117727560.164       -1221.759          44.000  
  22402757.578   117727512.573       -1221.613          44.000  
  22402787.991   117727497.832       -1221.839          46.000  
  22443824.852   117943112.230       -1221.556          33.000  
  22440015.014   117923070.079       -1221.471          31.000  
  22402794.904   117727479.198       -1221.698          42.000  
  22430643.980   117873842.696       -1221.816          35.000  
  22331297.023   117351780.667       -1222.004          33.000  
  22428004.596   117860011.173       -1221.797          35.000  
  22402789.499   117727482.631       -1221.728          46.000  
  22402792.560   117727467.315       -1221.625          41.000  
  22431808.097   117879933.652       -1221.800          32.000  
  22273271.052   117046828.134       -1221.658          34.000  
  22384920.649   117633575.775       -1222.134          34.000  
  22342432.684   117410312.173       -1221.993          36.000  
  22415109.234   117792194.6302      -1221.651          32.000  
  22343310.245   117414888.155       -1221.453          34.000  
  22357667.009   117490353.160       -1221.700          34.000  
  22256563.766   116959054.130       -1221.794          33.000  
  22323087.216   117308646.251       -1222.042          33.000  
  22512814.212   118305627.185       -1221.755          32.000  
  22466395.350   118061712.232       -1221.945          35.000  
 25  8 13  8 56 59.8020000  0 23G 1G 8G 3G 6G 2G29G 5G28G11G27G 7G 4
                                G23G18G20G15G10G26G31G16G 9G24G32
  22402833.173   117727747.586       -1221.843          44.000  
  22402814.196   117727731.936       -1221.772          44.000  
  22402919.130   117727804.526       -1221.927          44.000  
  22402804.090   117727756.938       -1221.907          44.000  
  22402834.580   117727742.182       -1221.877          45.000  
  22443871.408   117943356.602       -1222.058          33.000  
  22402841.426   117727723.560       -1221.920          42.000  
  22430690.409   117874087.051       -1222.052          35.000  
  22331343.557   117352025.022       -1222.121          32.000  
  22428051.164   117860255.507       -1221.878          34.000  
  22402836.145   117727726.982       -1221.779          46.000  
  22402839.022   117727711.680       -1221.876          41.000  
  22431854.575   117880177.985       -1221.312          32.000  
  22273317.500   117047072.485       -1221.883          34.000  
  22384967.162   117633820.106       -1222.358          33.000  
  22342479.165   117410556.502       -1221.439          35.000  
  22415155.735   117792438.9822      -1221.883          32.000  
  22343356.761   117415132.505       -1221.509          34.000  
  22357713.503   117490597.519       -1221.713          34.000  
  22256610.253   116959298.486       -1222.011          33.000  
  22323133.732   117308890.584       -1221.939          33.000  
  22512860.743   118305871.549       -1221.859          32.000  
  22466441.838   118061956.579       -1222.064          35.000  
 25  8 13  8 57  0.0020000  0 23G 1G 8G 3G 6G 2G29G 5G28G11G27G 7G 4
                                G23G18G20G15G10G26G31G16G 9G24G32
  22402879.796   117727991.923       -1221.892          45.000  
  22402860.731   117727976.272       -1221.703          44.000  
  22402965.585   117728048.860       -1221.988          44.000  
  22402850.596   117728001.269       -1221.860          44.000  
  22402881.176   117727986.515       -1221.869          46.000  
  22443917.854   117943600.931       -1222.058          34.000  
  22402887.901   117727967.898       -1221.944          42.000  
  22430736.904   117874331.377       -1221.749          35.000  
  22331390.058   117352269.343       -1222.010          33.000  
  22428097.677   117860499.847       -1221.910          35.000  
  22402882.762   117727971.320       -1221.892          46.000  
  22402885.473   117727956.017       -1221.963          41.000  
  22431901.163   117880422.331       -1221.429          33.000  
  22273363.990   117047316.799       -1221.527          35.000  
  22385013.630   117634064.442       -1221.943          34.000  
  22342525.655   117410800.869       -1221.789          36.000  
  22415202.162   117792683.3152      -1221.558          32.000  
  22343403.272   117415376.832       -1221.304          34.000  
  22357759.987   117490841.827       -1221.229          34.000  
  22256656.769   116959542.795       -1221.668          33.000  
  22323180.251   117309134.949       -1222.339          33.000  
  22512907.162   118306115.871       -1221.916          32.000  
  22466488.260   118062200.922       -1222.130          35.000  
 25  8 13  8 57  0.2020000  0 22G 1G 8G 3G 6G 2G29G 5G28G11G27G 7G 4
                                G23G18G20G15G26G31G16G 9G24G32
  22402926.447   117728236.258       -1221.688          45.000  
  22402907.272   117728220.615       -1221.729          44.000  
  22403012.057   117728293.201       -1221.745          44.000  
  22402897.094   117728245.602       -1221.725          44.000  
  22402927.730   117728230.858       -1221.647          46.000  
  22443964.311   117943845.266       -1221.544          33.000  
  22402934.424   117728212.234       -1221.517          42.000  
  22430783.442   117874575.723       -1221.516          35.000  
  22331436.512   117352513.667       -1221.985          33.000  
  22428144.193   117860744.190       -1221.763          35.000  
  22402929.368   117728215.665       -1221.742          46.000  
  22402931.962   117728200.339       -1221.661          40.000  
  22431947.583   117880666.680       -1221.756          32.000  
  22273410.518   117047561.146       -1221.870          34.000  
  22385060.184   117634308.785       -1221.581          33.000  
  22342572.162   117411045.181       -1221.722          36.000  
  22343449.871   117415621.198       -1221.718          34.000  
  22357806.524   117491086.182       -1221.194          34.000  
  22256703.230   116959787.125       -1221.315          33.000  
  22323226.782   117309379.275       -1222.052          33.000  
  22512953.642   118306360.217       -1222.424          32.000  
  22466534.812   118062445.232       -1221.501          35.000  
 25  8 13  8 57  0.4020000  0 21G 1G 8G 3G 6G 2G29G 5G28G11G27G 7G 4
                                G23G18G20G15G26G31G16G 9G32
  22402973.063   117728480.594       -1221.742          45.000  
  22402953.792   117728464.957       -1221.605          44.000  
  22403058.489   117728537.535       -1221.572          44.000  
  22402943.574   117728489.943       -1221.559          44.000  
  22402974.359   117728475.193       -1221.651          46.000  
  22444010.802   117944089.609       -1221.427          33.000  
  22402980.928   117728456.575       -1221.348          42.000  
  22430829.947   117874820.073       -1221.526          35.000  
  22331483.013   117352758.005       -1221.501          33.000  
  22428190.721   117860988.548       -1221.959          34.000  
  22402975.912   117728460.006       -1221.760          46.000  
  22402978.410   117728444.686       -1221.541          40.000  
  22431993.993   117880911.014       -1221.760          32.000  
  22273457.022   117047805.480       -1221.520          34.000  
  22385106.663   117634553.112       -1221.467          33.000  
  22342618.671   117411289.510       -1221.278          35.000  
  22343496.412   117415865.531       -1221.573          33.000  
  22357853.071   117491330.543       -1221.906          34.000  
  22256749.696   116960031.467       -1221.163          33.000  
  22323273.291   117309623.593       -1221.422          33.000  
  22466581.231   118062689.594       -1221.607          35.000  
 25  8 13  8 57  0.6020000  0 21G 1G 8G 3G 6G 2G29G 5G28G11G27G 7G 4
                                G23G18G20G15G26G31G16G 9G32
  22403019.684   117728724.942       -1221.805          45.000  
  22403000.330   117728709.309       -1221.973          45.000  
  22403105.042   117728781.878       -1221.581          45.000  
  22402990.043   117728734.296       -1221.659          44.000  
  22403020.946   117728719.538       -1221.733          46.000  
  22444057.262   117944333.965       -1221.770          33.000  
  22403027.398   117728700.941       -1222.008          43.000  
  22430876.437   117875064.426       -1221.676          35.000  
  22331529.507   117353002.362       -1222.092          33.000  
  22428237.254   117861232.889       -1221.892          35.000  
  22403022.468   117728704.344       -1221.756          47.000  
  22403024.898   117728689.039       -1221.675          41.000  
  22432040.510   117881155.391       -1222.742          32.000  
  22273503.541   117048049.823       -1221.863          35.000  
  22385153.201   117634797.469       -1221.760          34.000  
  22342665.169   117411533.869       -1221.610          36.000  
  22343542.896   117416109.860       -1221.553          34.000  
  22357899.605   117491574.869       -1221.379          34.000  
  22256796.180   116960275.835       -1221.815          34.000  
  22323319.806   117309867.942       -1221.391          34.000  
  22466627.699   118062933.934       -1221.737          35.000  
 25  8 13  8 57  0.8020000  0 21G 1G 8G 3G 6G 2G29G 5G28G11G27G 7G 4
                                G23G18G20G15G26G31G16G 9G32
  22403066.288   117728969.281       -1221.832          45.000  
  22403046.884   117728953.651       -1221.844          45.000  
  22403151.493   117729026.232       -1221.876          45.000  
  22403036.468   117728978.636       -1221.673          44.000  
  22403067.505   117728963.887       -1221.839          46.000  
  22444103.744   117944578.303       -1221.969          33.000  
  22403073.882   117728945.272       -1221.738          42.000  
  22430922.891   117875308.769       -1221.885          35.000  
  22331576.023   117353246.679       -1221.525          33.000  
  22428283.808   117861477.234       -1221.697          34.000  
  22403069.061   117728948.690       -1221.790          47.000  
  22403071.336   117728933.390       -1222.031          41.000  
  22432087.002   117881399.701       -1221.911          32.000  
  22273550.022   117048294.160       -1221.397          35.000  
  22385199.695   117635041.802       -1221.754          34.000  
  22342711.695   117411778.207       -1221.740          36.000  
  22343589.399   117416354.209       -1221.599          33.000  
  22357946.164   117491819.235       -1221.962          34.000  
  22256842.694   116960520.176       -1221.861          34.000  
  22323366.291   117310112.311       -1222.208          34.000  
  22466674.172   118063178.252       -1221.412          35.000  
 25  8 13  8 57  1.0020000  0 20G 1G 8G 3G 6G 2G29G 5G28G11G27G 7G 4
                                G18G20G15G26G31G16G 9G32
  22403112.917   117729213.657       -1222.009          45.000  
  22403093.434   117729198.010       -1221.820          45.000  
  22403198.015   117729270.590       -1221.863          44.000  
  22403082.944   117729223.010       -1221.933          44.000  
  22403114.094   117729208.261       -1221.955          46.000  
  22444150.235   117944822.656       -1221.492          33.000  
  22403120.406   117729189.637       -1221.824          42.000  
  22430969.350   117875553.115       -1222.003          35.000  
  22331622.555   117353491.116       -1222.554          33.000  
  22428330.400   117861721.593       -1221.878          34.000  
  22403115.661   117729193.063       -1222.010          47.000  
  22403117.870   117729177.761       -1221.902          41.000  
  22273596.588   117048538.599       -1222.846          34.000  
  22385246.245   117635286.170       -1221.687          34.000  
  22342758.222   117412022.587       -1221.932          36.000  
  22343635.962   117416598.585       -1221.872          33.000  
  22357992.652   117492063.613       -1222.056          33.000  
  22256889.242   116960764.521       -1221.521          34.000  
  22323412.796   117310356.656       -1221.979          34.000  
  22466720.669   118063422.644       -1221.883          35.000  
 25  8 13  8 57  1.2020000  0 20G 1G 8G 3G 6G 2G29G 5G28G11G27G 7G 4
                                G18G20G15G26G31G16G 9G32
  22403159.522   117729458.026       -1221.866          45.000  
  22403140.009   117729442.375       -1221.990          45.000  
  22403244.497   117729514.950       -1221.808          44.000  
  22403129.360   117729467.364       -1221.772          44.000  
  22403160.702   117729452.619       -1221.771          46.000  
  22444196.708   117945067.011       -1221.533          33.000  
  22403166.915   117729433.995       -1221.902          42.000  
  22431015.806   117875797.464       -1221.406          35.000  
  22331669.031   117353735.442       -1222.175          33.000  
  22428376.878   117861965.950       -1221.915          34.000  
  22403162.235   117729437.421       -1221.806          47.000  
  22403164.364   117729422.116       -1221.787          41.000  
  22273643.043   117048782.897       -1221.660          34.000  
  22385292.778   117635530.535       -1221.679          34.000  
  22342804.700   117412266.953       -1221.634          36.000  
  22343682.532   117416842.957       -1222.033          33.000  
  22358039.155   117492307.953       -1221.694          34.000  
  22256935.826   116961008.901       -1221.603          33.000  
  22323459.331   117310601.017       -1221.472          34.000  
  22466767.163   118063667.002       -1221.753          35.000  
 25  8 13  8 57  1.4020000  0 20G 1G 8G 3G 6G 2G29G 5G28G11G27G 7G 4
                                G18G20G15G26G31G16G 9G32
  22403206.122   117729702.402       -1221.862          46.000  
  22403186.561   117729686.739       -1221.761          45.000  
  22403290.981   117729759.317       -1221.726          45.000  
  22403175.913   117729711.742       -1221.815          45.000  
  22403207.324   117729696.991       -1221.799          47.000  
  22444243.160   117945311.396       -1221.840          34.000  
  22403213.382   117729678.365       -1221.979          43.000  
  22431062.306   117876041.834       -1221.531          35.000  
  22331715.549   117353979.798       -1221.720          33.000  
  22428423.399   117862210.339       -1222.221          34.000  
  22403208.871   117729681.793       -1221.797          47.000  
  22403210.857   117729666.486       -1221.719          42.000  
  22273689.568   117049027.275       -1221.196          35.000  
  22385339.270   117635774.928       -1221.794          34.000  
  22342851.210   117412511.338       -1222.023          36.000  
  22343729.022   117417087.325       -1221.953          34.000  
  22358085.701   117492552.324       -1221.522          34.000  
  22256982.274   116961253.278       -1221.761          34.000  
  22323505.894   117310845.400       -1221.970          34.000  
  22466813.659   118063911.383       -1221.881          35.000  
 25  8 13  8 57  1.6020000  0 20G 1G 8G 3G 6G 2G29G 5G28G11G27G 7G 4
                                G18G20G15G26G31G16G 9G32
  22403252.746   117729946.745       -1221.573          45.000  
  22403233.138   117729931.103       -1221.842          44.000  
  22403337.494   117730003.668       -1221.502          44.000  
  22403222.390   117729956.093       -1221.678          44.000  
  22403253.890   117729941.344       -1221.652          46.000  
  22444289.671   117945555.752       -1221.876          33.000  
  22403259.843   117729922.717       -1221.667          42.000  
  22431108.827   117876286.194       -1221.346          35.000  
  22331762.073   117354224.156       -1221.497          33.000  
  22428469.855   117862454.670       -1221.713          34.000  
  22403255.489   117729926.145       -1221.640          47.000  
  22403257.371   117729910.840       -1221.657          41.000  
  22273736.069   117049271.646       -1221.597          34.000  
  22385385.828   117636019.287       -1221.886          34.000  
  22342897.719   117412755.668       -1221.227          36.000  
  22343775.483   117417331.676       -1222.034          34.000  
  22358132.251   117492796.689       -1221.881          34.000  
  22257028.795   116961497.623       -1221.453          34.000  
  22323552.418   117311089.734       -1221.494          34.000  
  22466860.158   118064155.713       -1221.406          35.000  
 25  8 13  8 57  1.8020000  0 19G 1G 8G 3G 6G 2G29G 5G28G27G 7G 4G18
                                G20G15G26G31G16G 9G32
  22403299.366   117730191.115       -1221.990          46.000  
  22403279.706   117730175.470       -1222.091          45.000  
  22403383.956   117730248.051       -1222.092          45.000  
  22403268.878   117730200.467       -1222.049          44.000  
  22403300.470   117730185.712       -1221.999          47.000  
  22444336.211   117945800.120       -1221.920          34.000  
  22403306.323   117730167.100       -1222.176          42.000  
  22431155.304   117876530.564       -1221.820          36.000  
  22428516.334   117862699.029       -1221.420          35.000  
  22403302.104   117730170.516       -1222.024          47.000  
  22403303.853   117730155.218       -1222.101          41.000  
  22273782.601   117049516.028       -1222.280          35.000  
  22385432.386   117636263.649       -1221.859          34.000  
  22342944.217   117413000.059       -1222.040          36.000  
  22343821.975   117417576.033       -1221.672          34.000  
  22358178.810   117493041.062       -1222.169          34.000  
  22257075.292   116961742.009       -1221.907          34.000  
  22323598.903   117311334.134       -1222.242          35.000  
  22466906.666   118064400.100       -1221.865          35.000  
 25  8 13  8 57  2.0020000  0 19G 1G 8G 3G 6G 2G29G 5G28G27G 7G 4G18
                                G20G15G26G31G16G 9G32
  22403345.984   117730435.477       -1221.781          46.000  
  22403326.278   117730419.836       -1221.696          45.000  
  22403430.422   117730492.410       -1221.749          45.000  
  22403315.385   117730444.833       -1221.814          45.000  
  22403347.041   117730430.071       -1221.710          47.000  
  22444382.706   117946044.474       -1221.498          34.000  
  22403352.836   117730411.453       -1221.663          42.000  
  22431201.802   117876774.947       -1221.906          36.000  
  22428562.811   117862943.426       -1221.913          35.000  
  22403348.709   117730414.885       -1221.891          47.000  
  22403350.330   117730399.568       -1221.653          41.000  
  22273829.040   117049760.398       -1222.257          34.000  
  22385478.915   117636508.003       -1221.659          35.000  
  22342990.749   117413244.418       -1221.917          36.000  
  22343868.486   117417820.422       -1221.898          34.000  
  22358225.366   117493285.415       -1221.633          34.000  
  22257121.816   116961986.381       -1222.058          34.000  
  22323645.392   117311578.498       -1221.978          34.000  
  22466953.164   118064644.461       -1221.700          36.000  
 25  8 13  8 57  2.2020000  0 19G 1G 8G 3G 6G 2G29G 5G28G27G 7G 4G18
                                G20G15G26G31G16G 9G32
  22403392.563   117730679.836       -1222.082          46.000  
  22403372.840   117730664.194       -1222.103          45.000  
  22403476.926   117730736.760       -1222.004          45.000  
  22403361.871   117730689.180       -1222.046          45.000  
  22403393.654   117730674.425       -1222.011          47.000  
  22444429.165   117946288.843       -1222.043          34.000  
  22403399.285   117730655.801       -1221.815          42.000  
  22431248.340   117877019.295       -1222.146          36.000  
  22428609.323   117863187.789       -1222.343          34.000  
  22403395.250   117730659.230       -1222.047          47.000  
  22403396.859   117730643.927       -1222.006          41.000  
  22273875.554   117050004.730       -1221.997          34.000  
  22385525.428   117636752.376       -1222.180          34.000  
  22343037.209   117413488.753       -1221.634          36.000  
  22343914.962   117418064.746       -1221.815          34.000  
  22358271.908   117493529.774       -1222.206          34.000  
  22257168.343   116962230.720       -1222.092          34.000  
  22323691.888   117311822.825       -1222.116          35.000  
  22466999.636   118064888.821       -1221.826          35.000  
 25  8 13  8 57  2.4020000  0 18G 1G 8G 3G 6G 2G29G 5G28G27G 7G 4G18
                                G20G15G26G31G 9G32
  22403439.198   117730924.198       -1221.779          46.000  
  22403419.420   117730908.556       -1221.876          45.000  
  22403523.453   117730981.126       -1221.809          45.000  
  22403408.351   117730933.539       -1221.813          45.000  
  22403440.201   117730918.783       -1221.742          47.000  
  22444475.694   117946533.212       -1222.190          34.000  
  22403445.723   117730900.169       -1221.676          43.000  
  22431294.804   117877263.636       -1221.566          36.000  
  22428655.809   117863432.134       -1222.216          35.000  
  22403441.850   117730903.602       -1221.859          47.000  
  22403443.365   117730888.303       -1221.898          41.000  
  22273922.080   117050249.099       -1221.844          34.000  
  22385571.951   117636996.723       -1222.009          34.000  
  22343083.740   117413733.120       -1221.536          36.000  
  22343961.468   117418309.117       -1221.536          34.000  
  22358318.444   117493774.133       -1221.627          34.000  
  22323738.397   117312067.182       -1221.648          35.000  
  22467046.181   118065133.172       -1221.755          35.000  
 25  8 13  8 57  2.6020000  0 18G 1G 8G 3G 6G 2G29G 5G28G27G 7G 4G18
                                G20G15G26G31G 9G32
  22403485.823   117731168.554       -1221.622          47.000  
  22403465.995   117731152.910       -1221.628          45.000  
  22403569.964   117731225.482       -1221.508          45.000  
  22403454.910   117731177.905       -1221.743          45.000  
  22403486.781   117731163.144       -1221.599          47.000  
  22444522.195   117946777.530       -1221.299          34.000  
  22403492.242   117731144.524       -1221.702          43.000  
  22431341.302   117877507.999       -1221.413          36.000  
  22428702.300   117863676.485       -1221.816          35.000  
  22403488.446   117731147.955       -1221.641          47.000  
  22403489.860   117731132.650       -1221.632          41.000  
  22273968.584   117050493.458       -1221.832          34.000  
  22385618.449   117637241.074       -1221.596          34.000  
  22343130.261   117413977.496       -1221.664          36.000  
  22344007.970   117418553.484       -1221.788          34.000  
  22358364.982   117494018.467       -1221.150          34.000  
  22323784.929   117312311.550       -1221.658          35.000  
  22467092.669   118065377.537       -1221.698          35.000  
 25  8 13  8 57  2.8020000  0 18G 1G 8G 3G 6G 2G29G 5G28G27G 7G 4G18
                                G20G15G26G31G 9G32
  22403532.429   117731412.933       -1222.012          46.000  
  22403512.602   117731397.292       -1222.032          45.000  
  22403616.460   117731469.874       -1222.084          45.000  
  22403501.406   117731422.287       -1222.039          45.000  
  22403533.378   117731407.528       -1221.939          47.000  
  22444568.694   117947021.933       -1222.044          34.000  
  22403538.773   117731388.910       -1221.913          43.000  
  22431387.797   117877752.396       -1222.072          36.000  
  22428748.800   117863920.878       -1221.937          35.000  
  22403535.072   117731392.335       -1221.948          47.000  
  22403536.343   117731377.027       -1221.707          41.000  
  22274015.060   117050737.832       -1222.228          34.000  
  22385664.920   117637485.453       -1221.768          35.000  
  22343176.756   117414221.881       -1222.169          36.000  
  22344054.461   117418797.850       -1221.996          34.000  
  22358411.458   117494262.868       -1221.918          34.000  
  22323831.410   117312555.941       -1222.073          35.000  
  22467139.165   118065621.915       -1221.871          36.000  
 25  8 13  8 57  3.0020000  0 18G 1G 8G 3G 6G 2G29G 5G28G27G 7G 4G18
                                G20G15G26G31G 9G32
  22403579.073   117731657.331       -1221.937          46.000  
  22403559.150   117731641.695       -1222.193          45.000  
  22403662.946   117731714.262       -1222.067          45.000  
  22403547.941   117731666.691       -1222.169          45.000  
  22403579.981   117731651.929       -1221.944          47.000  
  22444615.218   117947266.349       -1222.141          34.000  
  22403585.289   117731633.325       -1222.212          43.000  
  22431434.312   117877996.778       -1221.993          36.000  
  22428795.240   117864165.276       -1222.406          35.000  
  22403581.654   117731636.735       -1222.017          47.000  
  22403582.851   117731621.433       -1222.092          42.000  
  22274061.474   117050982.233       -1222.235          34.000  
  22385711.446   117637729.860       -1222.083          35.000  
  22343223.281   117414466.282       -1222.129          36.000  
  22344100.977   117419042.252       -1222.099          34.000  
  22358457.953   117494507.277       -1222.200          34.000  
  22323877.948   117312800.356       -1222.595          35.000  
  22467185.638   118065866.322       -1221.972          35.000  
 25  8 13  8 57  3.2020000  0 18G 1G 8G 3G 6G 2G29G 5G28G27G 7G 4G18
                                G20G15G26G31G 9G32
  22403625.716   117731901.681       -1221.853          46.000  
  22403605.711   117731886.035       -1221.803          45.000  
  22403709.474   117731958.615       -1221.752          46.000  
  22403594.428   117731911.026       -1221.652          45.000  
  22403626.545   117731896.277       -1221.796          47.000  
  22444661.722   117947510.674       -1221.792          34.000  
  22403631.775   117731877.652       -1221.735          43.000  
  22431480.781   117878241.123       -1221.488          36.000  
  22428841.727   117864409.598       -1221.305          35.000  
  22403628.195   117731881.082       -1221.877          48.000  
  22403629.351   117731865.771       -1221.885          42.000  
  22274107.961   117051226.571       -1221.742          34.000  
  22385757.921   117637974.204       -1221.689          35.000  
  22343269.742   117414710.618       -1221.909          36.000  
  22344147.495   117419286.602       -1221.602          34.000  
  22358504.471   117494751.613       -1221.599          35.000  
  22323924.454   117313044.670       -1222.018          35.000  
  22467232.137   118066110.679       -1222.220          36.000  
 25  8 13  8 57  3.4020000  0 18G 1G 8G 3G 6G 2G29G 5G28G27G 7G 4G18
                                G20G15G26G31G 9G32
  22403672.320   117732146.023       -1221.678          47.000  
  22403652.263   117732130.371       -1221.517          46.000  
  22403755.942   117732202.949       -1221.608          46.000  
  22403640.892   117732155.369       -1221.678          46.000  
  22403673.164   117732140.619       -1221.701          48.000  
  22444708.246   117947755.002       -1221.561          35.000  
  22403678.284   117732121.980       -1221.392          43.000  
  22431527.268   117878485.475       -1221.625          36.000  
  22428888.208   117864653.944       -1221.441          35.000  
  22403674.784   117732125.414       -1221.553          48.000  
  22403675.832   117732110.111       -1221.597          42.000  
  22274154.462   117051470.916       -1221.598          35.000  
  22385804.443   117638218.554       -1221.816          35.000  
  22343316.197   117414954.959       -1221.734          37.000  
  22344193.998   117419530.946       -1221.852          35.000  
  22358550.988   117494995.952       -1221.370          35.000  
  22323970.961   117313289.005       -1221.484          35.000  
  22467278.620   118066355.004       -1221.790          36.000  
 25  8 13  8 57  3.6020000  0 18G 1G 8G 3G 6G 2G29G 5G28G27G 7G 4G18
                                G20G15G26G31G 9G32
  22403718.934   117732390.348       -1221.559          47.000  
  22403698.837   117732374.710       -1221.567          46.000  
  22403802.384   117732447.285       -1221.577          46.000  
  22403687.381   117732399.705       -1221.622          46.000  
  22403719.778   117732384.949       -1221.551          48.000  
  22444754.779   117947999.350       -1221.443          35.000  
  22403724.775   117732366.329       -1221.554          43.000  
  22431573.769   117878729.801       -1221.590          36.000  
  22428934.717   117864898.270       -1221.277          35.000  
  22403721.372   117732369.747       -1221.599          48.000  
  22403722.304   117732354.447       -1221.690          42.000  
  22274200.976   117051715.231       -1221.469          35.000  
  22385850.943   117638462.885       -1221.675          35.000  
  22343362.669   117415199.285       -1221.542          37.000  
  22344240.500   117419775.278       -1221.757          35.000  
  22358597.483   117495240.287       -1221.693          35.000  
  22324017.476   117313533.347       -1221.581          35.000  
  22467325.104   118066599.324       -1221.489          36.000  
 25  8 13  8 57  3.8020000  0 18G 1G 8G 3G 6G 2G29G 5G28G27G 7G 4G18
                                G20G15G26G31G 9G32
  22403765.501   117732634.694       -1221.526          47.000  
  22403745.383   117732619.066       -1221.812          46.000  
  22403848.824   117732691.638       -1221.673          46.000  
  22403733.850   117732644.050       -1221.663          46.000  
  22403766.364   117732629.302       -1221.741          48.000  
  22444801.280   117948243.701       -1221.777          35.000  
  22403771.303   117732610.679       -1221.746          43.000  
  22431620.254   117878974.154       -1221.577          36.000  
  22428981.259   117865142.652       -1222.085          35.000  
  22403767.951   117732614.098       -1221.649          48.000  
  22403768.796   117732598.789       -1221.580          43.000  
  22274247.421   117051959.600       -1221.788          35.000  
  22385897.455   117638707.225       -1221.628          35.000  
  22343409.162   117415443.638       -1221.751          37.000  
  22344287.034   117420019.624       -1221.788          35.000  
  22358644.004   117495484.636       -1221.357          35.000  
  22324063.968   117313777.694       -1221.773          35.000  
  22467371.515   118066843.669       -1221.505          36.000  
 25  8 13  8 57  4.0020000  0 18G 1G 8G 3G 6G 2G29G 5G28G27G 7G 4G18
                                G20G15G26G31G 9G32
  22403812.109   117732879.034       -1221.687          47.000  
  22403791.914   117732863.397       -1221.667          46.000  
  22403895.337   117732935.971       -1221.708          46.000  
  22403780.316   117732888.393       -1221.797          46.000  
  22403812.930   117732873.637       -1221.821          48.000  
  22444847.753   117948488.044       -1222.003          35.000  
  22403817.828   117732855.015       -1221.869          43.000  
  22431666.700   117879218.494       -1221.773          36.000  
  22429027.828   117865386.956       -1221.652          36.000  
  22403814.521   117732858.436       -1221.773          48.000  
  22403815.315   117732843.120       -1221.524          43.000  
  22274293.894   117052203.942       -1221.903          35.000  
  22385943.990   117638951.558       -1221.728          35.000  
  22343455.651   117415687.975       -1221.667          37.000  
  22344333.506   117420263.959       -1221.789          35.000  
  22358690.533   117495728.958       -1221.392          35.000  
  22324110.427   117314022.022       -1221.296          35.000  
  22467418.000   118067088.008       -1221.465          36.000  
 25  8 13  8 57  4.2020000  0 23G 1G 8G 3G 6G 2G29G 5G28G11G27G 7G 4
                                G23G18G20G15G10G26G31G16G 9G24G32
  22403858.674   117733123.392       -1221.875          47.000  
  22403838.456   117733107.753       -1221.853          46.000  
  22403941.847   117733180.327       -1221.933          46.000  
  22403826.817   117733132.741       -1221.897          46.000  
  22403859.534   117733117.990       -1221.905          48.000  
  22444894.257   117948732.396       -1222.057          35.000  
  22403864.301   117733099.366       -1221.929          43.000  
  22431713.162   117879462.850       -1222.003          36.000  
  22332366.661   117357377.7671      -1221.250          34.000  
  22429074.365   117865631.344       -1222.325          36.000  
  22403861.119   117733102.794       -1221.917          48.000  
  22403861.801   117733087.493       -1221.964          43.000  
  22432877.319   117885565.8031      -1221.531          33.000  
  22274340.378   117052448.290       -1221.995          35.000  
  22385990.472   117639195.914       -1221.825          35.000  
  22343502.166   117415932.352       -1222.213          37.000  
  22416178.469   117797812.8211      -1222.617          32.000  
  22344380.023   117420508.294       -1221.611          35.000  
  22358737.039   117495973.335       -1221.909          35.000  
  22257633.272   116964651.2681      -1221.724          34.000  
  22324156.891   117314266.392       -1222.003          36.000  
  22513883.736   118311257.3441      -1221.605          32.000  
  22467464.414   118067332.372       -1221.879          36.000  
 25  8 13  8 57  4.4020000  0 23G 1G 8G 3G 6G 2G29G 5G28G11G27G 7G 4
                                G23G18G20G15G10G26G31G16G 9G24G32
  22403905.231   117733367.722       -1221.619          47.000  
  22403884.954   117733352.085       -1221.566          46.000  
  22403988.321   117733424.659       -1221.597          46.000  
  22403873.295   117733377.079       -1221.650          46.000  
  22403906.086   117733362.324       -1221.621          48.000  
  22444940.751   117948976.716       -1221.522          35.000  
  22403910.756   117733343.701       -1221.676          44.000  
  22431759.683   117879707.164       -1221.307          36.000  
  22332413.151   117357622.144       -1221.796          34.000  
  22429120.861   117865875.656       -1221.615          36.000  
  22403907.685   117733347.127       -1221.729          48.000  
  22403908.306   117733331.814       -1221.615          43.000  
  22432923.743   117885810.144       -1221.542          33.000  
  22274386.838   117052692.620       -1221.729          35.000  
  22386036.991   117639440.240       -1221.303          35.000  
  22343548.655   117416176.646       -1221.539          37.000  
  22416224.974   117798057.126       -1221.606          32.000  
  22344426.580   117420752.642       -1221.663          35.000  
  22358783.548   117496217.660       -1221.517          35.000  
  22257679.760   116964895.602       -1221.525          34.000  
  22324203.368   117314510.732       -1221.823          35.000  
  22513930.229   118311501.684       -1221.299          32.000  
  22467510.846   118067576.696       -1221.425          36.000  
 25  8 13  8 57  4.6020000  0 23G 1G 8G 3G 6G 2G29G 5G28G11G27G 7G 4
                                G23G18G20G15G10G26G31G16G 9G24G32
  22403951.824   117733612.066       -1221.809          47.000  
  22403931.502   117733596.423       -1221.685          46.000  
  22404034.863   117733669.003       -1221.673          46.000  
  22403919.835   117733621.421       -1221.751          46.000  
  22403952.686   117733606.667       -1221.672          48.000  
  22444987.241   117949221.068       -1221.629          35.000  
  22403957.264   117733588.046       -1221.761          44.000  
  22431806.150   117879951.524       -1221.670          36.000  
  22332459.617   117357866.479       -1221.722          34.000  
  22429167.380   117866119.991       -1221.465          36.000  
  22403954.284   117733591.469       -1221.719          48.000  
  22403954.823   117733576.160       -1221.831          43.000  
  22432970.255   117886054.475       -1221.470          33.000  
  22274433.296   117052936.963       -1221.672          35.000  
  22386083.478   117639684.584       -1221.551          35.000  
  22343595.143   117416421.013       -1221.743          37.000  
  22416271.464   117798301.463       -1221.519          32.000  
  22344473.085   117420997.009       -1222.138          35.000  
  22358830.070   117496462.028       -1221.940          35.000  
  22257726.197   116965139.937       -1221.475          34.000  
  22324249.844   117314755.066       -1221.932          36.000  
  22513976.738   118311746.064       -1221.987          32.000  
  22467557.366   118067821.050       -1221.749          36.000  
 25  8 13  8 57  4.8020000  0 24G 1G 8G 3G 6G 2G30G29G 5G28G11G27G 7
                                G 4G23G18G20G15G10G26G31G16G 9G24G32
  22403998.448   117733856.411       -1221.656          47.000  
  22403978.003   117733840.774       -1221.644          46.000  
  22404081.327   117733913.346       -1221.657          46.000  
  22403966.351   117733865.768       -1221.649          46.000  
  22403999.299   117733851.015       -1221.636          48.000  
  22414572.245   117789371.3191      -1221.771          32.000  
  22445033.712   117949465.414       -1221.634          35.000  
  22404003.759   117733832.386       -1221.689          44.000  
  22431852.645   117880195.871       -1221.836          36.000  
  22332506.118   117358110.816       -1221.376          34.000  
  22429213.916   117866364.350       -1221.543          36.000  
  22404000.899   117733835.814       -1221.556          48.000  
  22404001.294   117733820.506       -1221.701          43.000  
  22433016.696   117886298.825       -1221.570          33.000  
  22274479.818   117053181.336       -1222.213          35.000  
  22386129.954   117639928.929       -1221.558          35.000  
  22343641.590   117416665.350       -1221.591          37.000  
  22416317.986   117798545.849       -1222.174          33.000  
  22344519.608   117421241.333       -1221.420          35.000  
  22358876.536   117496706.373       -1221.880          36.000  
  22257772.710   116965384.301       -1221.870          34.000  
  22324296.347   117314999.400       -1221.552          36.000  
  22514023.259   118311990.390       -1221.793          32.000  
  22467603.866   118068065.389       -1221.562          36.000  
 25  8 13  8 57  5.0020000  0 24G 1G 8G 3G 6G 2G30G29G 5G28G11G27G 7
                                G 4G23G18G20G15G10G26G31G16G 9G24G32
  22404044.986   117734100.765       -1221.944          47.000  
  22404024.600   117734085.124       -1221.859          47.000  
  22404127.821   117734157.701       -1221.910          47.000  
  22404012.864   117734110.116       -1221.840          47.000  
  22404045.901   117734095.370       -1222.019          48.000  
  22414618.769   117789615.659       -1221.909          32.000  
  22445080.203   117949709.770       -1221.885          35.000  
  22404050.275   117734076.747       -1222.013          44.000  
  22431899.163   117880440.199       -1221.666          37.000  
  22332552.624   117358355.198       -1221.983          35.000  
  22429260.396   117866608.703       -1221.873          36.000  
  22404047.480   117734080.169       -1221.963          48.000  
  22404047.835   117734064.851       -1221.839          43.000  
  22433063.253   117886543.182       -1222.003          33.000  
  22274526.361   117053425.668       -1221.927          35.000  
  22386176.426   117640173.297       -1222.217          36.000  
  22343688.109   117416909.705       -1221.810          38.000  
  22416364.480   117798790.143       -1221.765          33.000  
  22344566.123   117421485.690       -1221.742          35.000  
  22358923.045   117496950.697       -1221.491          36.000  
  22257819.210   116965628.653       -1221.919          34.000  
  22324342.866   117315243.748       -1221.577          36.000  
  22514069.727   118312234.747       -1221.931          32.000  
  22467650.265   118068309.743       -1221.902          36.000  
 25  8 13  8 57  5.2020000  0 24G 1G 8G 3G 6G 2G30G29G 5G28G11G27G 7
                                G 4G23G18G20G15G10G26G31G16G 9G24G32
  22404091.592   117734345.116       -1221.881          47.000  
  22404071.205   117734329.484       -1221.897          47.000  
  22404174.298   117734402.054       -1221.905          47.000  
  22404059.379   117734354.478       -1221.896          47.000  
  22404092.445   117734339.723       -1221.856          48.000  
  22414665.278   117789860.018       -1221.507          32.000  
  22445126.703   117949954.114       -1222.156          35.000  
  22404096.771   117734321.102       -1221.990          44.000  
  22431945.612   117880684.558       -1221.518          37.000  
  22332599.149   117358599.534       -1221.785          35.000  
  22429306.956   117866853.053       -1221.518          36.000  
  22404094.070   117734324.524       -1221.858          49.000  
  22404094.315   117734309.206       -1221.805          43.000  
  22433109.700   117886787.530       -1221.651          33.000  
  22274572.887   117053670.029       -1222.068          35.000  
  22386222.865   117640417.640       -1222.026          36.000  
  22343734.619   117417154.068       -1221.711          38.000  
  22416410.996   117799034.525       -1221.818          33.000  
  22344612.644   117421730.055       -1222.300          35.000  
  22358969.634   117497195.077       -1222.227          36.000  
  22257865.740   116965873.012       -1222.153          34.000  
  22324389.375   117315488.120       -1222.094          36.000  
  22514116.205   118312479.109       -1221.934          32.000  
  22467696.701   118068554.097       -1221.885          37.000  
 25  8 13  8 57  5.4020000  0 24G 1G 8G 3G 6G 2G30G29G 5G28G11G27G 7
                                G 4G23G18G20G15G10G26G31G16G 9G24G32
  22404138.187   117734589.483       -1221.754          47.000  
  22404117.771   117734573.847       -1221.848          47.000  
  22404220.749   117734646.421       -1221.842          47.000  
  22404105.864   117734598.840       -1221.804          46.000  
  22404138.988   117734584.089       -1221.872          48.000  
  22414711.770   117790104.393       -1222.072          32.000  
  22445173.210   117950198.483       -1221.909          35.000  
  22404143.247   117734565.458       -1221.803          44.000  
  22431992.142   117880928.941       -1221.603          37.000  
  22332645.633   117358843.906       -1221.698          35.000  
  22429353.496   117867097.429       -1221.669          36.000  
  22404140.585   117734568.891       -1221.846          49.000  
  22404140.814   117734553.576       -1221.777          43.000  
  22433156.158   117887031.923       -1222.347          33.000  
  22274619.432   117053914.366       -1221.252          35.000  
  22386269.434   117640662.020       -1221.855          36.000  
  22343781.130   117417398.432       -1222.080          38.000  
  22416457.498   117799278.890       -1221.781          33.000  
  22344659.100   117421974.407       -1221.843          35.000  
  22359016.203   117497439.440       -1222.107          36.000  
  22257912.247   116966117.358       -1221.611          34.000  
  22324435.894   117315732.492       -1222.033          36.000  
  22514162.695   118312723.484       -1222.053          33.000  
  22467743.163   118068798.459       -1221.880          37.000  
 25  8 13  8 57  5.6020000  0 24G 1G 8G 3G 6G 2G30G29G 5G28G11G27G 7
                                G 4G23G18G20G15G10G26G31G16G 9G24G32
  22404184.846   117734833.843       -1221.830          47.000  
  22404164.324   117734818.207       -1221.837          47.000  
  22404267.208   117734890.781       -1221.834          47.000  
  22404152.352   117734843.197       -1221.844          46.000  
  22404185.555   117734828.445       -1221.737          48.000  
  22414758.274   117790348.742       -1221.725          32.000  
  22445219.691   117950442.843       -1221.798          36.000  
  22404189.770   117734809.820       -1221.737          44.000  
  22432038.629   117881173.296       -1221.599          37.000  
  22332692.184   117359088.270       -1222.198          35.000  
  22429400.029   117867341.798       -1221.783          36.000  
  22404187.158   117734813.248       -1221.816          49.000  
  22404187.322   117734797.931       -1221.739          43.000  
  22433202.630   117887276.256       -1221.996          34.000  
  22274665.940   117054158.751       -1221.728          35.000  
  22386315.928   117640906.370       -1222.166          36.000  
  22343827.605   117417642.793       -1221.785          38.000  
  22416503.988   117799523.250       -1221.880          33.000  
  22344705.596   117422218.756       -1221.324          36.000  
  22359062.716   117497683.791       -1221.786          36.000  
  22257958.762   116966361.716       -1221.566          35.000  
  22324482.372   117315976.824       -1221.792          37.000  
  22514209.240   118312967.836       -1222.335          33.000  
  22467789.635   118069042.816       -1221.772          37.000  
 25  8 13  8 57  5.8020000  0 24G 1G 8G 3G 6G 2G30G29G 5G28G11G27G 7
                                G 4G23G18G20G15G10G26G31G16G 9G24G32
  22404231.410   117735078.197       -1221.883          47.000  
  22404210.869   117735062.561       -1221.928          47.000  
  22404313.637   117735135.137       -1221.917          47.000  
  22404198.868   117735087.552       -1221.840          46.000  
  22404232.142   117735072.808       -1221.918          48.000  
  22414804.821   117790593.083       -1221.508          32.000  
  22445266.144   117950687.210       -1221.974          36.000  
  22404236.312   117735054.179       -1221.874          44.000  
  22432085.105   117881417.663       -1221.878          37.000  
  22332738.682   117359332.608       -1221.798          35.000  
  22429446.578   117867586.158       -1222.073          36.000  
  22404233.707   117735057.603       -1221.818          49.000  
  22404233.822   117735042.298       -1221.961          43.000  
  22433249.133   117887520.601       -1221.412          34.000  
  22274712.457   117054403.109       -1222.240          35.000  
  22386362.419   117641150.727       -1221.957          36.000  
  22343874.080   117417887.141       -1221.913          38.000  
  22416550.378   117799767.596       -1221.678          33.000  
  22344752.103   117422463.147       -1222.211          36.000  
  22359109.210   117497928.137       -1221.829          36.000  
  22258005.261   116966606.071       -1221.556          35.000  
  22324528.902   117316221.195       -1221.770          37.000  
  22514255.730   118313212.187       -1221.853          33.000  
  22467836.173   118069287.185       -1222.120          37.000  
 25  8 13  8 57  6.0020000  0 24G 1G 8G 3G 6G 2G30G29G 5G28G11G27G 7
                                G 4G23G18G20G15G10G26G31G16G 9G24G32
  22404278.037   117735322.524       -1221.457          47.000  
  22404257.411   117735306.887       -1221.448          47.000  
  22404360.147   117735379.469       -1221.590          47.000  
  22404245.314   117735331.883       -1221.466          46.000  
  22404278.685   117735317.135       -1221.622          48.000  
  22414851.251   117790837.420       -1221.088          32.000  
  22445312.670   117950931.530       -1221.457          36.000  
  22404282.825   117735298.506       -1221.501          44.000  
  22432131.624   117881661.984       -1221.656          37.000  
  22332785.206   117359576.946       -1221.445          35.000  
  22429493.070   117867830.484       -1221.702          36.000  
  22404280.196   117735301.937       -1221.591          49.000  
  22404280.283   117735286.625       -1221.552          43.000  
  22433295.561   117887764.957       -1221.786          34.000  
  22274758.945   117054647.406       -1221.039          35.000  
  22386408.895   117641395.064       -1221.845          36.000  
  22343920.546   117418131.473       -1221.462          38.000  
  22416596.817   117800011.923       -1221.270          33.000  
  22344798.636   117422707.464       -1221.655          36.000  
  22359155.720   117498172.503       -1222.020          36.000  
  22258051.759   116966850.404       -1221.434          35.000  
  22324575.417   117316465.533       -1221.768          37.000  
  22514302.194   118313456.522       -1221.618          33.000  
  22467882.583   118069531.498       -1221.425          37.000  
 25  8 13  8 57  6.2020000  0 24G 1G 8G 3G 6G 2G30G29G 5G28G11G27G 7
                                G 4G23G18G20G15G10G26G31G16G 9G24G32
  22404324.641   117735566.888       -1221.934          47.000  
  22404303.970   117735551.245       -1221.815          47.000  
  22404406.572   117735623.825       -1222.013          47.000  
  22404291.844   117735576.244       -1221.952          46.000  
  22404325.247   117735561.488       -1221.833          48.000  
  22414897.819   117791081.786       -1221.905          32.000  
  22445359.203   117951175.880       -1221.987          36.000  
  22404329.341   117735542.871       -1222.011          44.000  
  22432178.073   117881906.355       -1222.062          37.000  
  22332831.686   117359821.325       -1222.158          35.000  
  22429539.613   117868074.842       -1221.948          36.000  
  22404326.707   117735546.295       -1222.002          49.000  
  22404326.768   117735530.978       -1222.000          43.000  
  22433342.007   117888009.304       -1222.206          34.000  
  22274805.452   117054891.799       -1222.123          35.000  
  22386455.382   117641639.416       -1222.307          36.000  
  22343967.058   117418375.826       -1221.786          38.000  
  22416643.210   117800256.285       -1221.881          33.000  
  22344845.122   117422951.819       -1221.971          36.000  
  22359202.256   117498416.828       -1221.757          36.000  
  22258098.309   116967094.772       -1221.942          35.000  
  22324621.879   117316709.890       -1222.145          37.000  
  22514348.762   118313700.846       -1221.794          33.000  
  22467929.064   118069775.866       -1221.956          37.000  
 25  8 13  8 57  6.4020000  0 24G 1G 8G 3G 6G 2G30G29G 5G28G11G27G 7
                                G 4G23G18G20G15G10G26G31G16G 9G24G32
  22404371.236   117735811.249       -1221.843          47.000  
  22404350.553   117735795.617       -1221.877          47.000  
  22404453.076   117735868.191       -1221.885          47.000  
  22404338.314   117735820.613       -1222.010          46.000  
  22404371.847   117735805.856       -1221.885          48.000  
  22414944.349   117791326.161       -1221.995          32.000  
  22445405.658   117951420.242       -1221.749          36.000  
  22404375.833   117735787.224       -1221.621          44.000  
  22432224.584   117882150.711       -1222.207          37.000  
  22332878.258   117360065.701       -1222.403          35.000  
  22429586.168   117868319.197       -1221.599          36.000  
  22404373.294   117735790.659       -1221.870          49.000  
  22404373.314   117735775.349       -1221.878          43.000  
  22433388.455   117888253.658       -1221.354          34.000  
  22274851.878   117055136.165       -1221.809          35.000  
  22386501.862   117641883.784       -1221.827          36.000  
  22344013.549   117418620.202       -1221.889          38.000  
  22416689.692   117800500.677       -1222.098          33.000  
  22344891.623   117423196.183       -1221.625          36.000  
  22359248.791   117498661.201       -1221.701          36.000  
  22258144.826   116967339.152       -1222.196          35.000  
  22324668.417   117316954.248       -1221.661          37.000  
  22514395.283   118313945.230       -1221.491          33.000  
  22467975.602   118070020.230       -1221.709          37.000  
 25  8 13  8 57  6.6020000  0 24G 1G 8G 3G 6G 2G30G29G 5G28G11G27G 7
                                G 4G23G18G20G15G10G26G31G16G 9G24G32
  22404417.797   117736055.606       -1221.746          47.000  
  22404397.112   117736039.975       -1221.851          47.000  
  22404499.521   117736112.553       -1221.936          47.000  
  22404384.778   117736064.961       -1221.665          46.000  
  22404418.374   117736050.217       -1221.939          48.000  
  22414990.818   117791570.523       -1222.043          32.000  
  22445452.177   117951664.626       -1222.247          36.000  
  22404422.288   117736031.594       -1221.864          44.000  
  22432271.155   117882395.069       -1221.790          37.000  
  22332924.716   117360310.039       -1222.147          35.000  
  22429632.643   117868563.558       -1221.931          36.000  
  22404419.873   117736035.017       -1221.831          49.000  
  22404419.866   117736019.707       -1221.818          43.000  
  22433435.048   117888498.055       -1221.903          34.000  
  22274898.359   117055380.530       -1222.293          35.000  
  22386548.328   117642128.133       -1221.741          36.000  
  22344060.059   117418864.550       -1221.763          38.000  
  22416736.226   117800744.985       -1221.604          34.000  
  22344938.119   117423440.537       -1221.594          36.000  
  22359295.313   117498905.572       -1222.228          36.000  
  22258191.330   116967583.492       -1221.960          35.000  
  22324714.918   117317198.616       -1222.225          37.000  
  22514441.752   118314189.593       -1221.549          33.000  
  22468022.044   118070264.579       -1221.703          37.000  
 25  8 13  8 57  6.8020000  0 24G 1G 8G 3G 6G 2G30G29G 5G28G11G27G 7
                                G 4G23G18G20G15G10G26G31G16G 9G24G32
  22404464.422   117736299.945       -1221.820          47.000  
  22404443.663   117736284.311       -1221.919          47.000  
  22404545.920   117736356.886       -1221.945          47.000  
  22404431.309   117736309.309       -1221.926          46.000  
  22404464.915   117736294.548       -1221.857          48.000  
  22415037.344   117791814.873       -1222.102          32.000  
  22445498.663   117951908.951       -1221.772          36.000  
  22404468.780   117736275.925       -1221.986          44.000  
  22432317.663   117882639.400       -1221.808          37.000  
  22332971.191   117360554.355       -1221.814          35.000  
  22429679.170   117868807.897       -1222.095          36.000  
  22404466.399   117736279.357       -1221.923          49.000  
  22404466.331   117736264.052       -1221.947          43.000  
  22433481.608   117888742.391       -1222.453          34.000  
  22274944.841   117055624.849       -1221.815          35.000  
  22386594.875   117642372.482       -1221.973          36.000  
  22344106.523   117419108.890       -1221.832          38.000  
  22416782.759   117800989.350       -1221.707          33.000  
  22344984.687   117423684.895       -1222.080          36.000  
  22359341.863   117499149.898       -1221.881          36.000  
  22258237.838   116967827.848       -1222.134          35.000  
  22324761.356   117317442.948       -1222.194          37.000  
  22514488.279   118314433.938       -1222.128          33.000  
  22468068.474   118070508.902       -1221.480          37.000  
 25  8 13  8 57  7.0020000  0 25G 1G 8G 3G 6G 2G30G29G 5G28G11G27G 7
                                G 4G23G18G20G15G10G26G12G31G16G 9G24
                                G32
  22404510.996   117736544.294       -1221.668          47.000  
  22404490.246   117736528.651       -1221.586          47.000  
  22404592.366   117736601.224       -1221.586          47.000  
  22404477.798   117736553.644       -1221.640          46.000  
  22404511.486   117736538.891       -1221.601          48.000  
  22415083.920   117792059.234       -1222.160          32.000  
  22445545.168   117952153.289       -1221.617          36.000  
  22404515.230   117736520.263       -1221.584          44.000  
  22432364.086   117882883.740       -1221.258          37.000  
  22333017.739   117360798.707       -1221.414          35.000  
  22429725.702   117869052.242       -1221.731          36.000  
  22404512.931   117736523.697       -1221.625          49.000  
  22404512.849   117736508.389       -1221.678          43.000  
  22433528.085   117888986.704       -1221.624          34.000  
  22274991.389   117055869.193       -1221.714          35.000  
  22386641.340   117642616.817       -1221.471          36.000  
  22344152.949   117419353.222       -1221.353          38.000  
  22416829.265   117801233.697       -1221.850          34.000  
  22345031.188   117423929.228       -1221.695          36.000  
  22418884.521   117812033.1871      -1221.657          32.000  
  22359388.372   117499394.219       -1221.317          36.000  
  22258284.369   116968072.161       -1221.590          35.000  
  22324807.860   117317687.269       -1221.344          37.000  
  22514534.767   118314678.246       -1221.170          33.000  
  22468115.008   118070753.265       -1221.568          37.000  
 25  8 13  8 57  7.2020000  0 25G 1G 8G 3G 6G 2G30G29G 5G28G11G27G 7
                                G 4G23G18G20G15G10G26G12G31G16G 9G24
                                G32
  22404557.598   117736788.654       -1221.894          47.000  
  22404536.847   117736773.021       -1221.964          47.000  
  22404638.809   117736845.593       -1221.979          47.000  
  22404524.295   117736798.006       -1221.910          46.000  
  22404558.075   117736783.255       -1221.867          48.000  
  22415130.407   117792303.566       -1221.824          32.000  
  22445591.655   117952397.645       -1221.729          35.000  
  22404561.743   117736764.627       -1221.789          44.000  
  22432410.602   117883128.129       -1222.090          37.000  
  22333064.257   117361043.073       -1221.971          35.000  
  22429772.205   117869296.605       -1222.177          36.000  
  22404559.466   117736768.058       -1221.867          49.000  
  22404559.298   117736752.750       -1221.925          43.000  
  22433574.571   117889231.068       -1221.925          34.000  
  22275037.937   117056113.540       -1221.349          35.000  
  22386687.874   117642861.194       -1222.341          36.000  
  22344199.475   117419597.602       -1221.926          38.000  
  22416875.819   117801478.071       -1222.046          33.000  
  22345077.663   117424173.589       -1222.105          36.000  
  22418931.180   117812277.575       -1221.792          32.000  
  22359434.929   117499638.596       -1221.701          36.000  
  22258330.920   116968316.565       -1222.410          35.000  
  22324854.358   117317931.648       -1222.022          37.000  
  22514581.300   118314922.636       -1221.871          33.000  
  22468161.477   118070997.640       -1221.899          37.000  
 25  8 13  8 57  7.4020000  0 25G 1G 8G 3G 6G 2G30G29G 5G28G11G27G 7
                                G 4G23G18G20G15G10G26G12G31G16G 9G24
                                G32
  22404604.195   117737033.005       -1221.842          47.000  
  22404583.366   117737017.367       -1221.877          47.000  
  22404685.288   117737089.939       -1221.794          47.000  
  22404570.799   117737042.353       -1221.790          46.000  
  22404604.667   117737027.609       -1221.792          48.000  
  22415176.906   117792547.927       -1222.024          32.000  
  22445638.136   117952641.998       -1221.901          35.000  
  22404608.208   117737008.977       -1221.783          44.000  
  22432457.123   117883372.455       -1221.672          37.000  
  22333110.736   117361287.422       -1221.860          35.000  
  22429818.683   117869540.955       -1221.898          36.000  
  22404606.015   117737012.409       -1221.800          49.000  
  22404605.816   117736997.092       -1221.557          43.000  
  22433620.957   117889475.411       -1221.603          34.000  
  22275084.496   117056357.907       -1221.762          35.000  
  22386734.379   117643105.510       -1221.342          36.000  
  22344245.956   117419841.938       -1221.658          38.000  
  22416922.249   117801722.429       -1222.478          33.000  
  22345124.206   117424417.936       -1221.865          36.000  
  22418977.710   117812521.934       -1222.104          32.000  
  22359481.481   117499882.953       -1221.911          36.000  
  22258377.389   116968560.876       -1221.663          35.000  
  22324900.870   117318175.994       -1221.838          37.000  
  22514627.864   118315166.988       -1222.147          33.000  
  22468207.919   118071241.975       -1222.000          37.000  
 25  8 13  8 57  7.6020000  0 25G 1G 8G 3G 6G 2G30G29G 5G28G11G27G 7
                                G 4G23G18G20G15G10G26G12G31G16G 9G24
                                G32
  22404650.795   117737277.386       -1222.041          47.000  
  22404629.923   117737261.752       -1222.015          47.000  
  22404731.815   117737334.326       -1222.017          47.000  
  22404617.260   117737286.742       -1221.977          46.000  
  22404651.239   117737271.993       -1222.010          48.000  
  22415223.414   117792792.308       -1222.160          32.000  
  22445684.664   117952886.369       -1221.809          35.000  
  22404654.681   117737253.364       -1221.822          44.000  
  22432503.593   117883616.845       -1222.089          37.000  
  22333157.296   117361531.798       -1221.762          35.000  
  22429865.198   117869785.333       -1222.028          36.000  
  22404652.550   117737256.793       -1222.022          49.000  
  22404652.305   117737241.483       -1221.894          43.000  
  22433667.549   117889719.807       -1222.045          34.000  
  22275131.094   117056602.301       -1222.298          35.000  
  22386780.947   117643349.902       -1221.711          36.000  
  22344292.450   117420086.337       -1222.115          38.000  
  22416968.767   117801966.788       -1222.040          33.000  
  22345170.722   117424662.320       -1222.068          36.000  
  22419024.263   117812766.302       -1222.269          32.000  
  22359528.009   117500127.320       -1221.828          36.000  
  22258423.902   116968805.287       -1222.360          35.000  
  22324947.430   117318420.373       -1221.971          37.000  
  22514674.359   118315411.373       -1222.043          33.000  
  22468254.391   118071486.368       -1221.985          37.000  
 25  8 13  8 57  7.8020000  0 25G 1G 8G 3G 6G 2G30G29G 5G28G11G27G 7
                                G 4G23G18G20G15G10G26G12G31G16G 9G24
                                G32
  22404697.415   117737521.757       -1221.907          47.000  
  22404676.524   117737506.127       -1222.027          47.000  
  22404778.271   117737578.697       -1221.924          47.000  
  22404663.782   117737531.107       -1221.873          46.000  
  22404697.828   117737516.365       -1222.037          48.000  
  22415269.947   117793036.669       -1221.522          32.000  
  22445731.168   117953130.736       -1221.709          35.000  
  22404701.176   117737497.734       -1221.930          44.000  
  22432550.056   117883861.217       -1222.057          37.000  
  22333203.746   117361776.198       -1222.444          35.000  
  22429911.690   117870029.718       -1222.249          36.000  
  22404699.125   117737501.166       -1221.983          49.000  
  22404698.839   117737485.859       -1222.047          43.000  
  22433713.960   117889964.166       -1221.907          34.000  
  22275177.648   117056846.646       -1221.586          35.000  
  22386827.487   117643594.274       -1221.903          36.000  
  22344338.921   117420330.698       -1221.831          38.000  
  22417015.226   117802211.187       -1222.663          33.000  
  22345217.207   117424906.682       -1221.940          36.000  
  22419070.769   117813010.683       -1222.031          32.000  
  22359574.476   117500371.707       -1221.910          36.000  
  22258470.378   116969049.628       -1221.568          35.000  
  22324993.910   117318664.757       -1222.088          37.000  
  22514720.862   118315655.755       -1222.187          33.000  
  22468300.873   118071730.726       -1221.894          37.000  
 25  8 13  8 57  8.0020000  0 25G 1G 8G 3G 6G 2G30G29G 5G28G11G27G 7
                                G 4G23G18G20G15G10G26G12G31G16G 9G24
                                G32
  22404743.977   117737766.133       -1221.762          47.000  
  22404723.064   117737750.496       -1221.848          47.000  
  22404824.731   117737823.073       -1221.861          47.000  
  22404710.287   117737775.487       -1221.822          46.000  
  22404744.373   117737760.739       -1221.813          48.000  
  22415316.429   117793281.050       -1221.778          32.000  
  22445777.614   117953375.130       -1221.799          35.000  
  22404747.687   117737742.109       -1221.804          44.000  
  22432596.482   117884105.584       -1222.030          37.000  
  22333250.256   117362020.550       -1221.946          35.000  
  22429958.207   117870274.078       -1221.674          36.000  
  22404745.714   117737745.536       -1221.801          49.000  
  22404745.310   117737730.229       -1221.758          43.000  
  22433760.465   117890208.534       -1221.384          34.000  
  22275224.123   117057091.035       -1221.959          35.000  
  22386873.964   117643838.650       -1221.921          36.000  
  22344385.426   117420575.084       -1222.117          38.000  
  22417061.715   117802455.516       -1221.366          33.000  
  22345263.696   117425151.060       -1221.795          36.000  
  22419117.370   117813255.056       -1221.947          32.000  
  22359620.998   117500616.090       -1221.797          36.000  
  22258516.869   116969294.019       -1221.931          35.000  
  22325040.461   117318909.114       -1221.641          37.000  
  22514767.355   118315900.093       -1221.775          33.000  
  22468347.375   118071975.106       -1221.560          37.000  
 25  8 13  8 57  8.2020000  0 25G 1G 8G 3G 6G 2G30G29G 5G28G11G27G 7
                                G 4G23G18G20G15G10G26G12G31G16G 9G24
                                G32
  22404790.550   117738010.508       -1221.898          47.000  
  22404769.648   117737994.870       -1221.940          47.000  
  22404871.235   117738067.440       -1221.941          47.000  
  22404756.716   117738019.858       -1221.918          46.000  
  22404790.936   117738005.116       -1222.000          48.000  
  22415362.933   117793525.428       -1222.422          32.000  
  22445824.096   117953619.500       -1221.719          35.000  
  22404794.214   117737986.488       -1221.920          44.000  
  22432642.966   117884349.959       -1221.838          37.000  
  22333296.671   117362264.913       -1221.783          35.000  
  22430004.699   117870518.460       -1222.066          36.000  
  22404792.274   117737989.908       -1221.885          49.000  
  22404791.779   117737974.611       -1222.048          43.000  
  22433806.872   117890452.922       -1221.779          34.000  
  22275270.620   117057335.397       -1221.604          35.000  
  22386920.455   117644083.042       -1222.023          36.000  
  22344431.932   117420819.445       -1221.785          38.000  
  22417108.210   117802699.925       -1222.034          33.000  
  22345310.216   117425395.440       -1221.912          36.000  
  22419163.905   117813499.440       -1222.082          32.000  
  22359667.535   117500860.463       -1222.209          36.000  
  22258563.362   116969538.377       -1221.869          35.000  
  22325086.960   117319153.467       -1221.281          37.000  
  22514813.845   118316144.458       -1221.405          33.000  
  22468393.886   118072219.474       -1221.658          37.000  
 25  8 13  8 57  8.4020000  0 27G 1G 8G 3G 6G 2G30G29G14G 5G28G11G17
                                G27G 7G 4G23G18G20G15G10G26G12G31G16
                                G 9G24G32
  22404837.163   117738254.868       -1221.871          47.000  
  22404816.263   117738239.233       -1221.825          47.000  
  22404917.740   117738311.813       -1221.904          47.000  
  22404803.177   117738264.228       -1221.884          46.000  
  22404837.491   117738249.476       -1221.917          48.000  
  22415409.436   117793769.787       -1221.927          32.000  
  22445870.609   117953863.858       -1221.660          35.000  
  22442059.453   117933817.6831      -1221.288          32.000  
  22404840.673   117738230.859       -1221.942          44.000  
  22432689.443   117884594.324       -1221.958          37.000  
  22333343.209   117362509.300       -1221.881          35.000  
  22467855.312   118069376.2551      -1222.076          32.000  
  22430051.160   117870762.802       -1221.924          36.000  
  22404838.837   117738234.269       -1221.773          49.000  
  22404838.276   117738218.971       -1221.765          43.000  
  22433853.293   117890697.299       -1222.098          34.000  
  22275317.150   117057579.759       -1221.579          35.000  
  22386966.977   117644327.397       -1222.338          36.000  
  22344478.454   117421063.818       -1221.893          38.000  
  22417154.653   117802944.281       -1222.056          33.000  
  22345356.739   117425639.804       -1222.168          36.000  
  22419210.346   117813743.785       -1222.080          32.000  
  22359714.044   117501104.828       -1222.041          36.000  
  22258609.864   116969782.766       -1221.850          35.000  
  22325133.513   117319397.861       -1221.658          37.000  
  22514860.375   118316388.844       -1221.910          33.000  
  22468440.357   118072463.840       -1221.448          37.000  
 25  8 13  8 57  8.6020000  0 27G 1G 8G 3G 6G 2G30G29G14G 5G28G11G17
                                G27G 7G 4G23G18G20G15G10G26G12G31G16
                                G 9G24G32
  22404883.741   117738499.244       -1221.903          47.000  
  22404862.860   117738483.606       -1221.837          47.000  
  22404964.213   117738556.185       -1221.948          47.000  
  22404849.679   117738508.604       -1221.923          46.000  
  22404884.041   117738493.852       -1221.815          48.000  
  22415455.993   117794014.168       -1222.102          32.000  
  22445917.070   117954108.225       -1221.189          35.000  
  22442105.994   117934062.094       -1222.110          32.000  
  22404887.167   117738475.225       -1221.796          44.000  
  22432735.904   117884838.696       -1221.784          37.000  
  22333389.671   117362753.676       -1222.109          35.000  
  22467901.901   118069620.640       -1222.202          32.000  
  22430097.682   117871007.179       -1221.621          36.000  
  22404885.389   117738478.651       -1221.874          49.000  
  22404884.814   117738463.353       -1221.970          43.000  
  22433899.755   117890941.650       -1221.755          34.000  
  22275363.653   117057824.164       -1221.955          35.000  
  22387013.479   117644571.768       -1221.915          36.000  
  22344524.931   117421308.204       -1222.125          38.000  
  22417201.062   117803188.658       -1221.939          33.000  
  22345403.299   117425884.193       -1222.253          36.000  
  22419256.925   117813988.139       -1221.208          32.000  
  22359760.611   117501349.171       -1221.624          36.000  
  22258656.408   116970027.136       -1222.098          35.000  
  22325180.046   117319642.242       -1222.027          37.000  
  22514906.932   118316633.198       -1221.612          33.000  
  22468486.807   118072708.219       -1221.812          37.000  
 25  8 13  8 57  8.8020000  0 27G 1G 8G 3G 6G 2G30G29G14G 5G28G11G17
                                G27G 7G 4G23G18G20G15G10G26G12G31G16
                                G 9G24G32
  22404930.339   117738743.635       -1222.066          47.000  
  22404909.438   117738727.999       -1222.052          47.000  
  22405010.662   117738800.568       -1222.025          47.000  
  22404896.176   117738752.990       -1222.028          46.000  
  22404930.620   117738738.237       -1221.986          48.000  
  22415502.555   117794258.554       -1222.100          32.000  
  22445963.533   117954352.650       -1222.464          35.000  
  22442152.497   117934306.480       -1221.738          32.000  
  22404933.650   117738719.614       -1221.934          44.000  
  22432782.437   117885083.100       -1222.179          37.000  
  22333436.205   117362998.047       -1221.933          35.000  
  22467948.410   118069865.026       -1222.753          32.000  
  22430144.229   117871251.593       -1222.067          36.000  
  22404931.963   117738723.038       -1222.043          49.000  
  22404931.297   117738707.741       -1222.223          43.000  
  22433946.226   117891186.045       -1222.108          34.000  
  22275410.131   117058068.509       -1221.751          35.000  
  22387060.034   117644816.143       -1221.937          36.000  
  22344571.515   117421552.573       -1221.879          38.000  
  22417247.512   117803433.053       -1222.523          33.000  
  22345449.849   117426128.568       -1222.183          36.000  
  22419303.465   117814232.551       -1222.125          32.000  
  22359807.106   117501593.567       -1221.854          36.000  
  22258702.863   116970271.533       -1222.114          35.000  
  22325226.570   117319886.636       -1222.228          37.000  
  22514953.481   118316877.582       -1221.662          33.000  
  22468533.297   118072952.601       -1221.882          37.000  
 25  8 13  8 57  9.0020000  0 27G 1G 8G 3G 6G 2G30G29G14G 5G28G11G17
                                G27G 7G 4G23G18G20G15G10G26G12G31G16
                                G 9G24G32
  22404976.961   117738988.016       -1222.026          47.000  
  22404956.000   117738972.395       -1222.197          47.000  
  22405057.185   117739044.954       -1221.861          47.000  
  22404942.637   117738997.378       -1222.011          46.000  
  22404977.217   117738982.627       -1221.981          48.000  
  22415549.075   117794502.927       -1221.514          32.000  
  22446010.006   117954597.002       -1221.730          35.000  
  22442199.007   117934550.855       -1221.540          32.000  
  22404980.195   117738964.004       -1222.172          44.000  
  22432828.940   117885327.474       -1221.981          37.000  
  22333482.750   117363242.456       -1222.463          35.000  
  22467994.853   118070109.382       -1221.890          32.000  
  22430190.706   117871495.959       -1222.069          36.000  
  22404978.527   117738967.428       -1221.953          49.000  
  22404977.792   117738952.128       -1222.066          43.000  
  22433992.720   117891430.444       -1222.383          34.000  
  22275456.647   117058312.923       -1221.850          35.000  
  22387106.537   117645060.545       -1221.859          36.000  
  22344617.986   117421796.964       -1221.729          38.000  
  22417294.020   117803677.404       -1221.506          33.000  
  22345496.330   117426372.956       -1222.050          36.000  
  22419349.991   117814476.927       -1222.315          32.000  
  22359853.641   117501837.946       -1221.564          36.000  
  22258749.388   116970515.899       -1221.810          35.000  
  22325273.060   117320131.013       -1221.961          37.000  
  22514999.920   118317122.001       -1222.268          33.000  
  22468579.760   118073197.013       -1222.250          37.000  
 25  8 13  8 57  9.2020000  0 26G 1G 8G 3G 6G 2G30G29G14G 5G28G11G27
                                G 7G 4G23G18G20G15G10G26G12G31G16G 9
                                G24G32
  22405023.564   117739232.397       -1222.077          47.000  
  22405002.574   117739216.759       -1222.044          47.000  
  22405103.703   117739289.332       -1221.853          47.000  
  22404989.118   117739241.763       -1222.101          46.000  
  22405023.784   117739227.007       -1222.054          48.000  
  22415595.669   117794747.335       -1222.215          32.000  
  22446056.542   117954841.391       -1221.838          35.000  
  22442245.500   117934795.229       -1221.512          32.000  
  22405026.704   117739208.374       -1221.905          44.000  
  22432875.409   117885571.856       -1222.071          37.000  
  22333529.338   117363486.824       -1222.082          35.000  
  22430237.276   117871740.340       -1221.659          36.000  
  22405025.048   117739211.803       -1222.105          49.000  
  22405024.330   117739196.504       -1222.081          43.000  
  22434039.185   117891674.816       -1222.148          34.000  
  22275503.114   117058557.292       -1222.048          35.000  
  22387153.053   117645304.933       -1222.236          35.000  
  22344664.485   117422041.354       -1222.282          38.000  
  22417340.505   117803921.781       -1221.637          33.000  
  22345542.816   117426617.326       -1221.889          36.000  
  22419396.521   117814721.276       -1221.128          32.000  
  22359900.143   117502082.332       -1221.590          36.000  
  22258795.916   116970760.279       -1222.230          35.000  
  22325319.521   117320375.395       -1222.262          37.000  
  22515046.417   118317366.400       -1222.641          33.000  
  22468626.285   118073441.370       -1221.940          37.000  
 25  8 13  8 57  9.4020000  0 26G 1G 8G 3G 6G 2G30G29G14G 5G28G11G27
                                G 7G 4G23G18G20G15G10G26G12G31G16G 9
                                G24G32
  22405070.140   117739476.773       -1222.123          47.000  
  22405049.113   117739461.135       -1222.042          47.000  
  22405150.178   117739533.710       -1222.116          47.000  
  22405035.523   117739486.132       -1222.148          46.000  
  22405070.337   117739471.376       -1222.098          48.000  
  22415642.188   117794991.692       -1222.309          32.000  
  22446103.091   117955085.779       -1222.253          35.000  
  22442291.998   117935039.607       -1221.765          32.000  
  22405073.192   117739452.749       -1221.980          44.000  
  22432921.876   117885816.241       -1222.505          37.000  
  22333575.905   117363731.195       -1222.207          35.000  
  22430283.778   117871984.712       -1222.012          36.000  
  22405071.639   117739456.173       -1222.149          49.000  
  22405070.863   117739440.880       -1222.263          43.000  
  22434085.738   117891919.189       -1222.221          34.000  
  22275549.619   117058801.655       -1221.704          35.000  
  22387199.565   117645549.302       -1222.070          35.000  
  22344710.977   117422285.721       -1222.238          38.000  
  22417386.988   117804166.187       -1222.228          33.000  
  22345589.380   117426861.717       -1222.408          36.000  
  22419442.987   117814965.673       -1221.952          32.000  
  22359946.710   117502326.729       -1222.384          36.000  
  22258842.408   116971004.650       -1221.918          35.000  
  22325366.001   117320619.744       -1221.601          37.000  
  22515092.965   118317610.741       -1222.552          33.000  
  22468672.747   118073685.744       -1222.002          37.000  
 25  8 13  8 57  9.6020000  0 26G 1G 8G 3G 6G 2G30G29G14G 5G28G11G27
                                G 7G 4G23G18G20G15G10G26G12G31G16G 9
                                G24G32
  22405116.761   117739721.132       -1221.909          47.000  
  22405095.702   117739705.504       -1221.964          47.000  
  22405196.715   117739778.074       -1221.847          47.000  
  22405082.007   117739730.498       -1222.053          46.000  
  22405116.836   117739715.742       -1221.949          48.000  
  22415688.721   117795236.036       -1221.600          32.000  
  22446149.570   117955330.135       -1221.882          35.000  
  22442338.453   117935283.984       -1221.730          32.000  
  22405119.693   117739697.125       -1221.992          44.000  
  22432968.363   117886060.589       -1222.047          37.000  
  22333622.411   117363975.563       -1222.036          35.000  
  22430330.351   117872229.091       -1221.898          36.000  
  22405118.187   117739700.534       -1221.772          49.000  
  22405117.384   117739685.238       -1221.915          43.000  
  22434132.261   117892163.555       -1222.069          34.000  
  22275596.105   117059046.048       -1222.063          35.000  
  22387246.085   117645793.653       -1221.772          36.000  
  22344757.508   117422530.075       -1221.698          38.000  
  22417433.428   117804410.559       -1222.684          33.000  
  22345635.858   117427106.051       -1221.587          36.000  
  22419489.476   117815210.064       -1221.886          32.000  
  22359993.171   117502571.076       -1221.997          36.000  
  22258888.904   116971249.023       -1221.924          35.000  
  22325412.512   117320864.116       -1221.566          37.000  
  22515139.438   118317855.114       -1221.882          33.000  
  22468719.301   118073930.121       -1222.153          37.000  
 25  8 13  8 57  9.8020000  0 26G 1G 8G 3G 6G 2G30G29G14G 5G28G11G27
                                G 7G 4G23G18G20G15G10G26G12G31G16G 9
                                G24G32
  22405163.365   117739965.501       -1221.821          47.000  
  22405142.353   117739949.866       -1221.791          47.000  
  22405243.205   117740022.437       -1221.861          47.000  
  22405128.458   117739974.861       -1221.836          46.000  
  22405163.402   117739960.116       -1222.010          48.000  
  22415735.248   117795480.428       -1221.578          32.000  
  22446196.059   117955574.502       -1221.905          35.000  
  22442384.923   117935528.352       -1222.384          32.000  
  22405166.176   117739941.485       -1221.990          44.000  
  22433014.835   117886304.946       -1221.607          37.000  
  22333668.913   117364219.933       -1222.302          35.000  
  22430376.877   117872473.456       -1221.908          36.000  
  22405164.770   117739944.906       -1221.897          49.000  
  22405163.934   117739929.616       -1221.904          43.000  
  22434178.697   117892407.914       -1221.909          34.000  
  22275642.596   117059290.412       -1222.133          35.000  
  22387292.589   117646038.050       -1222.058          36.000  
  22344803.983   117422774.434       -1221.552          38.000  
  22417479.909   117804654.898       -1221.760          33.000  
  22345682.352   117427350.422       -1221.665          36.000  
  22419536.002   117815454.380       -1221.338          32.000  
  22360039.660   117502815.437       -1221.517          36.000  
  22258935.431   116971493.386       -1221.868          35.000  
  22325458.989   117321108.485       -1221.713          37.000  
  22515185.954   118318099.478       -1221.881          33.000  
  22468765.736   118074174.487       -1221.970          37.000  
 25  8 13  8 57 10.0020000  0 26G 1G 8G 3G 6G 2G30G29G14G 5G28G11G27
                                G 7G 4G23G18G20G15G10G26G12G31G16G 9
                                G24G32
  22405209.955   117740209.868       -1221.855          47.000  
  22405188.887   117740194.233       -1222.005          47.000  
  22405289.712   117740266.797       -1221.822          47.000  
  22405174.938   117740219.221       -1221.895          46.000  
  22405209.992   117740204.469       -1221.839          48.000  
  22415781.760   117795724.786       -1222.021          32.000  
  22446242.574   117955818.851       -1221.493          35.000  
  22442431.303   117935772.704       -1221.848          32.000  
  22405212.706   117740185.841       -1221.739          44.000  
  22433061.366   117886549.333       -1222.075          37.000  
  22333715.434   117364464.243       -1221.407          35.000  
  22430423.347   117872717.791       -1221.714          36.000  
  22405211.336   117740189.266       -1221.883          49.000  
  22405210.431   117740173.969       -1221.735          43.000  
  22434225.158   117892652.274       -1222.000          34.000  
  22275689.097   117059534.756       -1221.830          35.000  
  22387339.048   117646282.412       -1222.212          36.000  
  22344850.478   117423018.831       -1222.078          38.000  
  22417526.418   117804899.329       -1222.906          33.000  
  22345728.819   117427594.736       -1220.865          36.000  
  22419582.538   117815698.745       -1221.760          32.000  
  22360086.156   117503059.797       -1221.780          36.000  
  22258981.903   116971737.778       -1222.433          35.000  
  22325505.496   117321352.861       -1221.760          36.000  
  22515232.431   118318343.836       -1221.927          33.000  
  22468812.278   118074418.853       -1221.818          37.000  
 25  8 13  8 57 10.2020000  0 26G 1G 8G 3G 6G 2G30G29G14G 5G28G11G27
                                G 7G 4G23G18G20G15G10G26G12G31G16G 9
                                G24G32
  22405256.523   117740454.226       -1221.859          47.000  
  22405235.479   117740438.592       -1221.917          47.000  
  22405336.194   117740511.157       -1221.728          46.000  
  22405221.418   117740463.586       -1221.936          46.000  
  22405256.547   117740448.834       -1221.889          48.000  
  22415828.210   117795969.124       -1221.681          32.000  
  22446289.110   117956063.228       -1222.021          35.000  
  22442477.762   117936017.078       -1222.167          32.000  
  22405259.269   117740430.207       -1221.801          44.000  
  22433107.911   117886793.681       -1221.722          37.000  
  22333761.978   117364708.612       -1222.170          35.000  
  22430469.919   117872962.186       -1222.328          36.000  
  22405257.866   117740433.630       -1221.831          49.000  
  22405256.891   117740418.334       -1221.789          43.000  
  22434271.620   117892896.627       -1221.660          34.000  
  22275735.599   117059779.107       -1221.359          35.000  
  22387385.566   117646526.772       -1222.201          36.000  
  22344897.004   117423263.197       -1222.103          38.000  
  22417572.914   117805143.633       -1222.011          33.000  
  22345775.290   117427839.148       -1221.984          36.000  
  22419628.981   117815943.115       -1222.010          32.000  
  22360132.638   117503304.172       -1221.761          36.000  
  22259028.379   116971982.111       -1222.197          35.000  
  22325551.941   117321597.223       -1221.789          36.000  
  22515278.906   118318588.195       -1221.659          33.000  
  22468858.755   118074663.221       -1222.005          37.000  
 25  8 13  8 57 10.4020000  0 26G 1G 8G 3G 6G 2G30G29G14G 5G28G11G27
                                G 7G 4G23G18G20G15G10G26G12G31G16G 9
                                G24G32
  22405303.155   117740698.621       -1221.869          48.000  
  22405282.083   117740682.983       -1221.834          47.000  
  22405382.683   117740755.558       -1221.844          47.000  
  22405267.883   117740707.980       -1221.939          46.000  
  22405303.104   117740693.227       -1221.900          48.000  
  22415874.673   117796213.548       -1221.921          32.000  
  22446335.619   117956307.612       -1221.930          36.000  
  22442524.205   117936261.467       -1222.066          32.000  
  22405305.797   117740674.605       -1222.077          44.000  
  22433154.434   117887038.081       -1221.642          37.000  
  22333808.473   117364952.989       -1221.476          35.000  
  22430516.410   117873206.563       -1221.855          36.000  
  22405304.403   117740678.027       -1221.954          49.000  
  22405303.409   117740662.730       -1222.011          43.000  
  22434318.082   117893141.041       -1222.184          34.000  
  22275782.126   117060023.510       -1221.727          35.000  
  22387432.116   117646771.160       -1222.027          36.000  
  22344943.506   117423507.579       -1221.949          37.000  
  22417619.438   117805388.034       -1221.463          33.000  
  22345821.837   117428083.530       -1221.935          36.000  
  22419675.496   117816187.524       -1222.209          32.000  
  22360179.159   117503548.580       -1222.059          36.000  
  22259074.921   116972226.516       -1221.911          35.000  
  22325598.451   117321841.631       -1221.844          36.000  
  22515325.522   118318832.602       -1222.024          33.000  
  22468905.212   118074907.601       -1221.584          37.000  
 25  8 13  8 57 10.6020000  0 26G 1G 8G 3G 6G 2G30G29G14G 5G28G11G27
                                G 7G 4G23G18G20G15G10G26G12G31G16G 9
                                G24G32
  22405349.746   117740943.014       -1222.005          48.000  
  22405328.658   117740927.373       -1222.027          47.000  
  22405429.141   117740999.949       -1222.053          47.000  
  22405314.353   117740952.367       -1222.053          46.000  
  22405349.666   117740937.618       -1222.040          49.000  
  22415921.190   117796457.898       -1221.685          32.000  
  22446382.135   117956552.001       -1222.179          36.000  
  22442570.736   117936505.861       -1222.317          32.000  
  22405352.314   117740918.989       -1222.102          44.000  
  22433200.918   117887282.481       -1222.282          37.000  
  22333855.018   117365197.416       -1222.191          35.000  
  22430562.937   117873450.936       -1221.772          36.000  
  22405350.921   117740922.420       -1222.146          49.000  
  22405349.905   117740907.109       -1222.004          43.000  
  22434364.529   117893385.399       -1221.770          35.000  
  22275828.601   117060267.917       -1222.322          35.000  
  22387478.632   117647015.550       -1222.072          36.000  
  22344990.019   117423751.969       -1221.888          37.000  
  22417665.915   117805632.429       -1221.785          33.000  
  22345868.343   117428327.908       -1221.911          36.000  
  22419722.010   117816431.919       -1222.554          32.000  
  22360225.628   117503792.960       -1222.345          36.000  
  22259121.463   116972470.889       -1221.753          35.000  
  22325644.904   117322086.011       -1221.989          36.000  
  22515372.051   118319077.000       -1222.381          33.000  
  22468951.729   118075152.016       -1222.245          37.000  
 25  8 13  8 57 10.8020000  0 26G 1G 8G 3G 6G 2G30G29G14G 5G28G11G27
                                G 7G 4G23G18G20G15G10G26G12G31G16G 9
                                G24G32
  22405396.309   117741187.370       -1221.772          48.000  
  22405375.250   117741171.727       -1221.731          47.000  
  22405475.633   117741244.302       -1221.696          47.000  
  22405360.825   117741196.721       -1221.743          47.000  
  22405396.223   117741181.978       -1221.830          49.000  
  22415967.671   117796702.296       -1221.891          32.000  
  22446428.656   117956796.345       -1221.249          36.000  
  22442617.138   117936750.222       -1221.983          33.000  
  22405398.829   117741163.346       -1221.780          44.000  
  22433247.435   117887526.837       -1221.777          37.000  
  22333901.550   117365441.758       -1221.880          35.000  
  22430609.426   117873695.294       -1221.608          36.000  
  22405397.453   117741166.779       -1221.786          49.000  
  22405396.393   117741151.470       -1221.709          43.000  
  22434410.984   117893629.774       -1221.449          35.000  
  22275875.060   117060512.260       -1221.898          35.000  
  22387525.096   117647259.903       -1221.764          36.000  
  22345036.514   117423996.333       -1221.942          37.000  
  22417712.421   117805876.809       -1222.200          33.000  
  22345914.866   117428572.284       -1221.739          37.000  
  22419768.513   117816676.224       -1221.238          32.000  
  22360272.123   117504037.302       -1221.404          36.000  
  22259167.978   116972715.288       -1221.927          35.000  
  22325691.435   117322330.368       -1221.777          36.000  
  22515418.568   118319321.361       -1221.849          33.000  
  22468998.263   118075396.375       -1222.112          37.000  
 25  8 13  8 57 11.0020000  0 26G 1G 8G 3G 6G 2G30G29G14G 5G28G11G27
                                G 7G 4G23G18G20G15G10G26G12G31G16G 9
                                G24G32
  22405442.878   117741431.742       -1221.982          48.000  
  22405421.851   117741416.103       -1221.995          47.000  
  22405522.153   117741488.681       -1221.981          47.000  
  22405407.275   117741441.104       -1222.032          46.000  
  22405442.789   117741426.348       -1222.011          49.000  
  22416014.156   117796946.638       -1222.231          32.000  
  22446475.156   117957040.732       -1221.703          36.000  
  22442663.552   117936994.587       -1222.397          33.000  
  22405445.389   117741407.713       -1222.067          44.000  
  22433293.912   117887771.215       -1222.032          37.000  
  22333947.972   117365686.115       -1221.569          35.000  
  22430655.931   117873939.686       -1222.015          36.000  
  22405443.964   117741411.154       -1222.003          49.000  
  22405442.889   117741395.842       -1222.004          43.000  
  22434457.499   117893874.167       -1222.037          35.000  
  22275921.616   117060756.629       -1222.111          35.000  
  22387571.609   117647504.263       -1221.965          36.000  
  22345082.985   117424240.686       -1221.991          37.000  
  22417758.935   117806121.151       -1221.895          33.000  
  22345961.336   117428816.665       -1221.674          36.000  
  22419815.078   117816920.636       -1221.524          32.000  
  22360318.633   117504281.680       -1221.895          36.000  
  22259214.482   116972959.641       -1221.998          35.000  
  22325737.931   117322574.744       -1222.162          36.000  
  22515465.124   118319565.706       -1221.935          33.000  
  22469044.773   118075640.714       -1221.992          37.000  
 25  8 13  8 57 11.2020000  0 26G 1G 8G 3G 6G 2G30G29G14G 5G28G11G27
                                G 7G 4G23G18G20G15G10G26G12G31G16G 9
                                G24G32
  22405489.439   117741676.112       -1221.977          48.000  
  22405468.451   117741660.474       -1221.916          47.000  
  22405568.669   117741733.054       -1221.990          47.000  
  22405453.793   117741685.465       -1221.966          46.000  
  22405489.345   117741670.711       -1221.908          49.000  
  22416060.662   117797191.002       -1221.885          32.000  
  22446521.650   117957285.121       -1221.699          36.000  
  22442710.066   117937238.939       -1221.995          32.000  
  22405491.797   117741652.077       -1221.790          44.000  
  22433340.493   117888015.580       -1221.919          37.000  
  22333994.529   117365930.489       -1221.563          34.000  
  22430702.399   117874184.050       -1221.759          36.000  
  22405490.464   117741655.525       -1221.923          48.000  
  22405489.380   117741640.204       -1221.890          44.000  
  22434503.992   117894118.524       -1222.086          35.000  
  22275968.129   117061001.011       -1221.925          35.000  
  22387618.141   117647748.641       -1221.866          36.000  
  22345129.487   117424485.055       -1221.893          37.000  
  22417805.480   117806365.534       -1222.377          33.000  
  22346007.826   117429061.045       -1222.102          36.000  
  22419861.623   117817165.013       -1222.219          33.000  
  22360365.109   117504526.050       -1221.819          36.000  
  22259261.052   116973204.019       -1222.286          35.000  
  22325784.490   117322819.117       -1222.197          36.000  
  22515511.610   118319810.073       -1222.371          33.000  
  22469091.298   118075885.079       -1221.560          37.000  
 25  8 13  8 57 11.4020000  0 26G 1G 8G 3G 6G 2G30G29G14G 5G28G11G27
                                G 7G 4G23G18G20G15G10G26G12G31G16G 9
                                G24G32
  22405536.024   117741920.505       -1222.140          48.000  
  22405515.010   117741904.864       -1222.166          47.000  
  22405615.160   117741977.443       -1222.069          47.000  
  22405500.221   117741929.859       -1222.115          46.000  
  22405535.886   117741915.107       -1222.067          49.000  
  22416107.094   117797435.420       -1222.557          32.000  
  22446568.128   117957529.500       -1221.794          36.000  
  22442756.556   117937483.331       -1222.066          32.000  
  22405538.294   117741896.475       -1222.018          44.000  
  22433387.031   117888259.976       -1221.973          37.000  
  22334040.952   117366174.908       -1222.463          34.000  
  22430748.889   117874428.442       -1222.008          36.000  
  22405537.002   117741899.920       -1222.139          48.000  
  22405535.921   117741884.597       -1222.037          44.000  
  22434550.528   117894362.916       -1221.967          35.000  
  22276014.579   117061245.404       -1222.446          35.000  
  22387664.673   117647993.022       -1221.986          36.000  
  22345175.975   117424729.441       -1222.054          37.000  
  22417851.927   117806609.928       -1222.112          33.000  
  22346054.353   117429305.422       -1221.797          36.000  
  22419908.046   117817409.379       -1221.831          33.000  
  22360411.633   117504770.470       -1222.436          36.000  
  22259307.568   116973448.403       -1221.845          35.000  
  22325831.014   117323063.508       -1222.367          36.000  
  22515558.073   118320054.478       -1222.524          33.000  
  22469137.782   118076129.494       -1222.471          37.000  
 25  8 13  8 57 11.6020000  0 26G 1G 8G 3G 6G 2G30G29G14G 5G28G11G27
                                G 7G 4G23G18G20G15G10G26G12G31G16G 9
                                G24G32
  22405582.557   117742164.901       -1221.921          48.000  
  22405561.682   117742149.264       -1221.939          47.000  
  22405661.654   117742221.847       -1222.024          47.000  
  22405546.715   117742174.259       -1221.974          46.000  
  22405582.447   117742159.506       -1221.926          49.000  
  22416153.614   117797679.822       -1222.468          32.000  
  22446614.700   117957773.901       -1222.043          35.000  
  22442803.047   117937727.760       -1221.972          32.000  
  22405584.824   117742140.867       -1221.958          44.000  
  22433433.562   117888504.388       -1221.990          37.000  
  22334087.387   117366419.273       -1221.504          34.000  
  22430795.406   117874672.846       -1221.950          36.000  
  22405583.539   117742144.316       -1221.994          48.000  
  22405582.454   117742129.000       -1221.966          44.000  
  22434597.052   117894607.329       -1221.962          35.000  
  22276061.052   117061489.796       -1222.020          35.000  
  22387711.186   117648237.429       -1221.863          36.000  
  22345222.475   117424973.856       -1221.999          38.000  
  22417898.456   117806854.306       -1221.555          33.000  
  22346100.835   117429549.827       -1221.809          36.000  
  22419954.541   117817653.812       -1222.077          33.000  
  22360458.078   117505014.843       -1222.209          36.000  
  22259354.066   116973692.811       -1222.054          35.000  
  22325877.534   117323307.905       -1221.936          36.000  
  22515604.523   118320298.846       -1221.579          33.000  
  22469184.235   118076373.889       -1222.023          37.000  
 25  8 13  8 57 11.8020000  0 26G 1G 8G 3G 6G 2G30G29G14G 5G28G11G27
                                G 7G 4G23G18G20G15G10G26G12G31G16G 9
                                G24G32
  22405629.182   117742409.303       -1222.169          48.000  
  22405608.310   117742393.660       -1222.136          47.000  
  22405708.117   117742466.226       -1221.950          47.000  
  22405593.205   117742418.650       -1222.133          46.000  
  22405629.019   117742403.904       -1222.178          49.000  
  22416200.070   117797924.200       -1222.498          32.000  
  22446661.231   117958018.299       -1221.856          35.000  
  22442849.621   117937972.147       -1222.770          32.000  
  22405631.338   117742385.259       -1221.905          44.000  
  22433480.053   117888748.756       -1221.925          37.000  
  22334133.925   117366663.705       -1221.748          34.000  
  22430841.965   117874917.218       -1221.688          36.000  
  22405630.125   117742388.709       -1222.061          48.000  
  22405628.943   117742373.396       -1222.050          44.000  
  22434643.573   117894851.720       -1222.192          35.000  
  22276107.524   117061734.204       -1222.409          35.000  
  22387757.706   117648481.845       -1222.446          36.000  
  22345269.011   117425218.244       -1221.975          37.000  
  22417944.993   117807098.727       -1222.250          33.000  
  22346147.343   117429794.215       -1222.072          36.000  
  22420001.049   117817898.182       -1221.914          33.000  
  22360504.596   117505259.237       -1221.969          36.000  
  22259400.546   116973937.161       -1221.607          35.000  
  22325924.076   117323552.301       -1221.950          36.000  
  22515651.020   118320543.276       -1222.247          33.000  
  22469230.808   118076618.290       -1222.318          37.000  
 25  8 13  8 57 12.0020000  0 26G 1G 8G 3G 6G 2G30G29G14G 5G28G11G27
                                G 7G 4G23G18G20G15G10G26G12G31G16G 9
                                G24G32
  22405675.803   117742653.702       -1222.228          48.000  
  22405654.945   117742638.066       -1222.248          47.000  
  22405754.644   117742710.633       -1222.108          47.000  
  22405639.751   117742663.054       -1222.162          46.000  
  22405675.551   117742648.302       -1222.236          49.000  
  22416246.608   117798168.588       -1222.070          32.000  
  22446707.707   117958262.697       -1222.159          35.000  
  22442896.202   117938216.529       -1222.066          32.000  
  22405677.801   117742629.668       -1222.073          44.000  
  22433526.599   117888993.158       -1222.202          37.000  
  22334180.433   117366908.107       -1222.183          34.000  
  22430888.557   117875161.627       -1221.724          36.000  
  22405676.680   117742633.112       -1222.237          48.000  
  22405675.491   117742617.805       -1222.189          44.000  
  22434690.090   117895096.132       -1222.239          35.000  
  22276153.995   117061978.614       -1222.594          35.000  
  22387804.235   117648726.221       -1222.052          36.000  
  22345315.505   117425462.653       -1222.292          37.000  
  22417991.482   117807343.106       -1221.908          33.000  
  22346193.852   117430038.629       -1222.214          36.000  
  22420047.576   117818142.593       -1222.404          32.000  
  22360551.131   117505503.647       -1222.506          36.000  
  22259447.071   116974181.578       -1222.067          35.000  
  22325970.592   117323796.716       -1222.281          36.000  
  22515697.516   118320787.657       -1221.958          33.000  
  22469277.321   118076862.686       -1222.490          37.000  
 25  8 13  8 57 12.2020000  0 26G 1G 8G 3G 6G 2G30G29G14G 5G28G11G27
                                G 7G 4G23G18G20G15G10G26G12G31G16G 9
                                G24G32
  22405722.400   117742898.080       -1221.924          48.000  
  22405701.533   117742882.445       -1221.853          47.000  
  22405801.142   117742955.019       -1221.940          47.000  
  22405686.270   117742907.433       -1221.868          46.000  
  22405722.060   117742892.684       -1221.948          49.000  
  22416293.097   117798412.966       -1221.395          32.000  
  22446754.204   117958507.093       -1222.194          35.000  
  22442942.627   117938460.913       -1221.777          32.000  
  22405724.329   117742874.053       -1221.864          44.000  
  22433573.088   117889237.546       -1221.845          37.000  
  22334226.984   117367152.482       -1221.815          34.000  
  22430935.068   117875406.030       -1222.065          36.000  
  22405723.219   117742877.489       -1221.768          48.000  
  22405721.996   117742862.188       -1221.895          43.000  
  22434736.587   117895340.535       -1222.302          34.000  
  22276200.507   117062222.984       -1221.960          35.000  
  22387850.764   117648970.608       -1221.771          36.000  
  22345362.001   117425707.021       -1221.901          37.000  
  22418038.006   117807587.483       -1220.993          33.000  
  22346240.354   117430283.017       -1222.179          36.000  
  22420094.060   117818386.950       -1221.186          32.000  
  22360597.659   117505748.022       -1222.110          36.000  
  22259493.625   116974425.953       -1221.249          35.000  
  22326017.059   117324041.079       -1221.661          36.000  
  22515744.028   118321032.014       -1220.909          33.000  
  22469323.745   118077107.057       -1221.583          37.000  
 25  8 13  8 57 12.4020000  0 26G 1G 8G 3G 6G 2G30G29G14G 5G28G11G27
                                G 7G 4G23G18G20G15G10G26G12G31G16G 9
                                G24G32
  22405768.981   117743142.494       -1222.098          47.000  
  22405748.152   117743126.858       -1222.064          47.000  
  22405847.662   117743199.432       -1222.092          47.000  
  22405732.803   117743151.852       -1222.130          46.000  
  22405768.638   117743137.098       -1222.097          49.000  
  22416339.677   117798657.407       -1222.030          32.000  
  22446800.714   117958751.505       -1222.538          35.000  
  22442989.140   117938705.343       -1222.438          32.000  
  22405770.819   117743118.468       -1222.173          44.000  
  22433619.591   117889481.959       -1221.988          37.000  
  22334273.517   117367396.916       -1222.405          34.000  
  22430981.634   117875650.456       -1222.558          36.000  
  22405769.776   117743121.913       -1222.192          48.000  
  22405768.474   117743106.607       -1222.285          43.000  
  22434783.015   117895584.932       -1221.981          34.000  
  22276247.004   117062467.382       -1221.994          35.000  
  22387897.259   117649215.039       -1222.410          36.000  
  22345408.516   117425951.443       -1221.927          38.000  
  22418084.536   117807831.912       -1222.206          33.000  
  22346286.914   117430527.418       -1222.227          36.000  
  22420140.637   117818631.401       -1221.838          32.000  
  22360644.180   117505992.433       -1222.183          36.000  
  22259540.086   116974670.365       -1221.958          35.000  
  22326063.605   117324285.507       -1222.120          36.000  
  22515790.552   118321276.471       -1221.694          33.000  
  22469370.319   118077351.497       -1222.362          37.000  
 25  8 13  8 57 12.6020000  0 26G 1G 8G 3G 6G 2G30G29G14G 5G28G11G27
                                G 7G 4G23G18G20G15G10G26G12G31G16G 9
                                G24G32
  22405815.531   117743386.890       -1221.949          47.000  
  22405794.751   117743371.265       -1222.095          47.000  
  22405894.168   117743443.836       -1222.083          47.000  
  22405779.268   117743396.257       -1222.065          46.000  
  22405815.183   117743381.498       -1222.044          49.000  
  22416386.128   117798901.825       -1222.482          32.000  
  22446847.273   117958995.891       -1221.897          35.000  
  22443035.579   117938949.749       -1222.551          32.000  
  22405817.334   117743362.868       -1221.969          44.000  
  22433666.102   117889726.376       -1222.386          37.000  
  22334320.067   117367641.289       -1221.722          34.000  
  22431028.116   117875894.820       -1221.739          36.000  
  22405816.314   117743366.320       -1222.280          48.000  
  22405814.995   117743351.003       -1222.122          44.000  
  22434829.537   117895829.373       -1222.881          34.000  
  22276293.493   117062711.796       -1221.932          35.000  
  22387943.732   117649459.447       -1222.522          36.000  
  22345454.964   117426195.854       -1222.196          38.000  
  22418131.027   117808076.315       -1222.007          32.000  
  22346333.405   117430771.831       -1222.266          36.000  
  22420187.089   117818875.791       -1222.299          32.000  
  22360690.664   117506236.836       -1221.975          36.000  
  22259586.624   116974914.813       -1222.408          35.000  
  22326110.111   117324529.905       -1222.070          36.000  
  22515837.021   118321520.863       -1221.593          33.000  
  22469416.813   118077595.897       -1222.274          37.000  
 25  8 13  8 57 12.8020000  0 26G 1G 8G 3G 6G 2G30G29G14G 5G28G11G27
                                G 7G 4G23G18G20G15G10G26G12G31G16G 9
                                G24G32
  22405862.110   117743631.263       -1221.961          47.000  
  22405841.323   117743615.636       -1221.982          47.000  
  22405940.610   117743688.209       -1221.971          46.000  
  22405825.805   117743640.647       -1222.202          45.000  
  22405861.753   117743625.861       -1221.889          48.000  
  22416432.646   117799146.196       -1221.837          32.000  
  22446893.796   117959240.274       -1221.720          35.000  
  22443081.995   117939194.048       -1220.777          32.000  
  22405863.817   117743607.235       -1221.909          42.000  
  22433712.630   117889970.754       -1222.257          37.000  
  22334366.635   117367885.669       -1222.207          34.000  
  22431074.662   117876139.212       -1221.610          36.000  
  22405862.878   117743610.682       -1221.895          48.000  
  22405861.489   117743595.383       -1221.947          45.000  
  22434876.009   117896073.690       -1221.729          34.000  
  22276340.045   117062956.187       -1222.071          35.000  
  22387990.291   117649703.795       -1221.818          35.000  
  22345501.460   117426440.240       -1222.228          37.000  
  22418177.533   117808320.667       -1221.639          32.000  
  22346379.946   117431016.222       -1222.004          35.000  
  22420233.571   117819120.154       -1221.820          32.000  
  22360737.173   117506481.218       -1221.956          36.000  
  22259633.137   116975159.176       -1222.417          35.000  
  22326156.595   117324774.287       -1222.363          36.000  
  22515883.505   118321765.220       -1221.491          32.000  
  22469463.345   118077840.248       -1221.950          37.000  
 25  8 13  8 57 13.0020000  0 26G 1G 8G 3G 6G 2G30G29G14G 5G28G11G27
                                G 7G 4G23G18G20G15G10G26G12G31G16G 9
                                G24G32
  22405908.688   117743875.646       -1221.898          46.000  
  22405887.963   117743860.026       -1221.945          47.000  
  22405987.120   117743932.593       -1221.905          46.000  
  22405872.344   117743885.050       -1222.169          44.000  
  22405908.299   117743870.247       -1222.094          48.000  
  22416479.057   117799390.594       -1222.471          31.000  
  22446940.251   117959484.678       -1222.212          35.000  
  22443128.539   117939438.485       -1222.120          32.000  
  22405910.335   117743851.623       -1221.965          42.000  
  22433759.083   117890215.123       -1221.935          36.000  
  22334413.140   117368130.057       -1222.021          34.000  
  22431121.209   117876383.607       -1222.010          35.000  
  22405909.365   117743855.075       -1222.021          47.000  
  22405908.021   117743839.775       -1221.973          45.000  
  22434922.497   117896318.102       -1222.419          34.000  
  22276386.595   117063200.589       -1222.426          35.000  
  22388036.811   117649948.210       -1222.161          35.000  
  22345547.930   117426684.608       -1221.896          37.000  
  22418224.026   117808565.053       -1221.835          32.000  
  22346426.452   117431260.601       -1221.966          35.000  
  22420280.146   117819364.559       -1222.581          32.000  
  22360783.716   117506725.616       -1222.279          35.000  
  22259679.659   116975403.555       -1222.158          35.000  
  22326203.119   117325018.656       -1221.860          36.000  
  22515930.035   118322009.630       -1222.004          32.000  
  22469509.828   118078084.631       -1221.849          36.000  
 25  8 13  8 57 13.2020000  0 27G 1G 8G 3G 6G 2G30G29G14G 5G28G11G17
                                G27G 7G 4G23G18G20G15G10G26G12G31G16
                                G 9G24G32
  22405955.247   117744120.040       -1221.944          46.000  
  22405934.563   117744104.414       -1221.935          47.000  
  22406033.609   117744176.985       -1222.102          46.000  
  22405918.776   117744129.439       -1222.135          44.000  
  22405954.798   117744114.630       -1222.079          48.000  
  22416525.572   117799634.993       -1221.988          31.000  
  22446986.708   117959729.050       -1221.977          35.000  
  22443175.056   117939682.835       -1221.283          31.000  
  22405956.837   117744096.011       -1221.866          40.000  
  22433805.569   117890459.514       -1221.888          36.000  
  22334459.661   117368374.451       -1222.040          34.000  
  22468971.326   118075240.3871      -1221.728          31.000  
  22431167.703   117876627.988       -1221.905          35.000  
  22405955.898   117744099.460       -1221.917          47.000  
  22405954.564   117744084.164       -1221.992          46.000  
  22434969.058   117896562.470       -1221.797          34.000  
  22276433.019   117063444.941       -1221.939          35.000  
  22388083.333   117650192.567       -1221.795          35.000  
  22345594.433   117426928.992       -1221.700          37.000  
  22418270.443   117808809.431       -1221.657          32.000  
  22346472.866   117431504.974       -1221.453          35.000  
  22420326.454   117819608.910       -1221.719          32.000  
  22360830.264   117506969.998       -1222.256          35.000  
  22259726.144   116975647.928       -1221.956          34.000  
  22326249.653   117325263.066       -1222.261          36.000  
  22515976.534   118322254.019       -1222.308          32.000  
  22469556.350   118078329.034       -1221.990          36.000  
 25  8 13  8 57 13.4020000  0 27G 1G 8G 3G 6G 2G30G29G14G 5G28G11G17
                                G27G 7G 4G23G18G20G15G10G26G12G31G16
                                G 9G24G32
  22406001.829   117744364.406       -1221.736          46.000  
  22405981.176   117744348.783       -1221.901          47.000  
  22406080.095   117744421.337       -1221.612          46.000  
  22405965.266   117744373.802       -1221.704          44.000  
  22406001.296   117744358.999       -1221.764          48.000  
  22416571.964   117799879.349       -1222.161          31.000  
  22447033.232   117959973.422       -1221.831          35.000  
  22443221.527   117939927.254       -1222.027          31.000  
  22406003.317   117744340.380       -1221.771          40.000  
  22433851.999   117890703.893       -1221.947          36.000  
  22334506.086   117368618.799       -1221.665          34.000  
  22469017.836   118075484.764       -1221.636          31.000  
  22431214.244   117876872.354       -1221.569          35.000  
  22406002.435   117744343.832       -1221.846          47.000  
  22406001.131   117744328.530       -1221.762          46.000  
  22435015.532   117896806.853       -1221.787          34.000  
  22276479.515   117063689.319       -1221.484          35.000  
  22388129.823   117650436.955       -1221.791          35.000  
  22345640.946   117427173.364       -1221.487          37.000  
  22418316.973   117809053.873       -1222.731          32.000  
  22346519.433   117431749.361       -1221.775          35.000  
  22420372.847   117819853.294       -1222.105          32.000  
  22360876.762   117507214.337       -1221.447          35.000  
  22259772.605   116975892.301       -1221.601          34.000  
  22326296.153   117325507.428       -1221.821          36.000  
  22516023.030   118322498.369       -1221.493          32.000  
  22469602.830   118078573.413       -1222.048          36.000  
 25  8 13  8 57 13.6020000  0 27G 1G 8G 3G 6G 2G30G29G14G 5G28G11G17
                                G27G 7G 4G23G18G20G15G10G26G12G31G16
                                G 9G24G32
  22406048.354   117744608.756       -1221.765          45.000  
  22406027.771   117744593.135       -1221.693          47.000  
  22406126.603   117744665.696       -1221.747          46.000  
  22406011.740   117744618.195       -1222.202          44.000  
  22406047.863   117744603.351       -1221.854          48.000  
  22416618.567   117800123.725       -1221.770          31.000  
  22447079.735   117960217.801       -1222.019          35.000  
  22443267.948   117940171.524       -1221.211          31.000  
  22406049.809   117744584.749       -1221.893          40.000  
  22433898.490   117890948.245       -1221.978          36.000  
  22334552.564   117368863.185       -1221.899          34.000  
  22469064.302   118075729.120       -1221.922          30.000  
  22431260.714   117877116.710       -1221.930          35.000  
  22406049.008   117744588.192       -1221.769          47.000  
  22406047.744   117744572.891       -1221.781          48.000  
  22435061.924   117897051.205       -1221.919          33.000  
  22276526.029   117063933.698       -1222.269          35.000  
  22388176.273   117650681.336       -1222.028          35.000  
  22345687.412   117427417.750       -1222.074          37.000  
  22418363.463   117809298.183       -1221.969          31.000  
  22346565.941   117431993.729       -1221.582          35.000  
  22420419.233   117820097.581       -1221.331          32.000  
  22360923.309   117507458.705       -1221.438          34.000  
  22259819.073   116976136.677       -1222.084          34.000  
  22326342.638   117325751.791       -1222.112          36.000  
  22516069.555   118322742.775       -1222.546          32.000  
  22469649.316   118078817.791       -1222.325          36.000  
 25  8 13  8 57 13.8020000  0 26G 1G 8G 3G 6G 2G30G29G14G 5G28G11G27
                                G 7G 4G23G18G20G15G10G26G12G31G16G 9
                                G24G32
  22406094.937   117744853.067       -1221.630          43.000  
  22406074.356   117744837.498       -1221.789          47.000  
  22406173.099   117744910.038       -1221.729          44.000  
  22406058.225   117744862.584       -1222.162          42.000  
  22406094.453   117744847.671       -1221.614          48.000  
  22416664.980   117800368.085       -1221.702          31.000  
  22447126.241   117960462.106       -1221.425          35.000  
  22443314.403   117940415.829       -1220.857          31.000  
  22406096.241   117744829.013       -1221.254          37.000  
  22433944.878   117891192.598       -1221.927          36.000  
  22334598.973   117369107.540       -1221.993          33.000  
  22431307.168   117877361.061       -1221.488          35.000  
  22406095.534   117744832.548       -1221.915          47.000  
  22406094.334   117744817.237       -1221.653          48.000  
  22435108.421   117897295.555       -1221.636          33.000  
  22276572.548   117064178.033       -1222.313          34.000  
  22388222.801   117650925.658       -1221.849          35.000  
  22345733.898   117427662.089       -1221.636          37.000  
  22418409.890   117809542.513       -1221.177          31.000  
  22346612.482   117432238.092       -1221.681          35.000  
  22420465.437   117820341.904       -1221.509          32.000  
  22360969.774   117507703.049       -1221.914          34.000  
  22259865.519   116976381.007       -1221.403          34.000  
  22326389.075   117325996.139       -1221.633          36.000  
  22516116.065   118322987.112       -1222.158          32.000  
  22469695.770   118079062.123       -1221.729          36.000  
 25  8 13  8 57 14.0020000  0 25G 1G 8G 3G 6G 2G30G29G14G 5G28G11G27
                                G 7G 4G23G18G20G15G10G26G12G31G 9G24
                                G32
  22406141.551   117745097.387       -1222.079          42.000  
  22406120.974   117745081.865       -1221.919          46.000  
  22406219.566   117745154.321       -1221.075          36.000  
  22406104.733   117745106.946       -1222.382          39.000  
  22406140.986   117745092.014       -1221.855          49.000  
  22416711.512   117800612.490       -1222.120          31.000  
  22447172.732   117960706.448       -1221.624          35.000  
  22443360.875   117940660.184       -1221.685          31.000  
  22406142.748   117745073.351       -1222.224          40.000  
  22433991.308   117891436.930       -1221.763          33.000  
  22334645.384   117369351.888       -1222.734          33.000  
  22431353.640   117877605.418       -1221.971          35.000  
  22406142.088   117745076.911       -1221.920          47.000  
  22406140.950   117745061.579       -1221.825          48.000  
  22435155.008   117897539.934       -1223.041          33.000  
  22276619.005   117064422.396       -1221.994          34.000  
  22388269.267   117651169.978       -1221.789          35.000  
  22345780.440   117427906.469       -1222.003          37.000  
  22418456.083   117809786.843       -1221.381          30.000  
  22346658.964   117432482.431       -1221.985          34.000  
  22420511.688   117820586.245       -1221.943          32.000  
  22361016.205   117507947.369       -1221.885          33.000  
  22326435.556   117326240.471       -1221.686          35.000  
  22516162.584   118323231.424       -1222.034          31.000  
  22469742.243   118079306.469       -1221.676          36.000  
 25  8 13  8 57 14.2020000  0 20G 1G 8G 3G 6G 2G29G 5G28G11G27G 7G 4
                                G23G18G20G15G26G31G 9G32
  22406188.084   117745341.709       -1221.593          43.000  
  22406167.590   117745326.170       -1221.366          45.000  
  22406266.061   117745398.395       -1221.750          38.000  
  22406151.229   117745351.271       -1221.738          39.000  
  22406187.607   117745336.337       -1221.558          48.000  
  22447219.203   117960950.771       -1221.362          35.000  
  22406189.218   117745317.742       -1221.893          44.000  
  22434037.669   117891681.244       -1221.234          33.000  
  22334691.801   117369596.136       -1220.035          32.000  
  22431400.049   117877849.716       -1221.172          34.000  
  22406188.656   117745321.285       -1221.853          50.000  
  22406187.504   117745305.915       -1221.729          47.000  
  22435201.573   117897784.236       -1221.643          33.000  
  22276665.548   117064666.745       -1221.767          34.000  
  22388315.793   117651414.310       -1221.368          35.000  
  22345826.897   117428150.769       -1221.281          37.000  
  22346705.363   117432726.797       -1222.125          34.000  
  22361062.618   117508191.750       -1221.845          33.000  
  22326481.986   117326484.818       -1221.940          35.000  
  22469788.731   118079550.821       -1221.816          36.000  
 25  8 13  8 57 14.4020000  0 19G 1G 8G 3G 6G 2G29G 5G28G27G 7G 4G23
                                G18G20G15G26G31G 9G32
  22406234.642   117745586.035       -1221.736          44.000  
  22406214.209   117745570.467       -1221.709          44.000  
  22406312.520   117745642.765       -1221.583          44.000  
  22406197.738   117745595.665       -1222.051          42.000  
  22406234.198   117745580.628       -1221.454          47.000  
  22447265.738   117961195.138       -1222.123          35.000  
  22406235.741   117745562.149       -1221.920          46.000  
  22434084.015   117891925.573       -1221.657          33.000  
  22431446.436   117878094.053       -1221.720          34.000  
  22406235.194   117745565.645       -1221.845          50.000  
  22406234.016   117745550.292       -1222.055          45.000  
  22435248.185   117898028.587       -1221.442          33.000  
  22276712.022   117064911.100       -1222.175          34.000  
  22388362.287   117651658.667       -1221.974          35.000  
  22345873.360   117428395.101       -1221.781          36.000  
  22346751.843   117432971.147       -1222.138          34.000  
  22361109.088   117508436.075       -1221.994          33.000  
  22326528.437   117326729.133       -1221.586          35.000  
  22469835.185   118079795.155       -1221.825          35.000  
 25  8 13  8 57 14.6020000  0 19G 1G 8G 3G 6G 2G29G 5G28G27G 7G 4G23
                                G18G20G15G26G31G 9G32
  22406281.160   117745830.299       -1221.307          45.000  
  22406260.800   117745814.794       -1221.632          46.000  
  22406359.012   117745887.129       -1221.722          45.000  
  22406244.237   117745840.044       -1222.129          44.000  
  22406280.816   117745824.956       -1221.743          46.000  
  22447312.303   117961439.436       -1221.671          35.000  
  22406282.255   117745806.515       -1221.701          46.000  
  22434130.411   117892169.926       -1221.668          33.000  
  22431492.896   117878338.421       -1221.669          33.000  
  22406281.595   117745809.982       -1221.567          48.000  
  22406280.492   117745794.656       -1221.876          45.000  
  22435294.696   117898272.885       -1221.250          33.000  
  22276758.431   117065155.402       -1221.196          33.000  
  22388408.784   117651902.995       -1222.280          35.000  
  22345919.836   117428639.443       -1221.463          33.000  
  22346798.344   117433215.448       -1221.907          34.000  
  22361155.545   117508680.389       -1220.654          33.000  
  22326574.815   117326973.489       -1222.303          34.000  
  22469881.574   118080039.472       -1222.001          35.000  
 25  8 13  8 57 14.8020000  0 19G 1G 8G 3G 6G 2G29G 5G28G27G 7G 4G23
                                G18G20G15G26G31G 9G32
  22406327.680   117746074.622       -1221.726          47.000  
  22406307.501   117746059.163       -1222.017          46.000  
  22406405.525   117746131.461       -1221.565          44.000  
  22406290.738   117746084.454       -1222.098          45.000  
  22406327.483   117746069.321       -1222.051          47.000  
  22447358.855   117961683.796       -1221.808          34.000  
  22406328.799   117746050.887       -1221.957          46.000  
  22434176.790   117892414.277       -1221.710          33.000  
  22431539.305   117878582.796       -1222.139          33.000  
  22406328.028   117746054.342       -1221.869          46.000  
  22406327.060   117746039.021       -1221.867          48.000  
  22435341.318   117898517.250       -1221.931          33.000  
  22276804.872   117065399.747       -1221.521          33.000  
  22388455.244   117652147.325       -1221.715          35.000  
  22345966.337   117428883.838       -1222.169          33.000  
  22346844.807   117433459.790       -1221.458          34.000  
  22361202.058   117508924.744       -1221.876          32.000  
  22326621.284   117327217.834       -1221.188          34.000  
  22469928.015   118080283.846       -1221.898          35.000  
 25  8 13  8 57 15.0020000  0 19G 1G 8G 3G 6G 2G29G 5G28G27G 7G 4G23
                                G18G20G15G26G31G 9G32
  22406374.167   117746318.932       -1221.513          48.000  
  22406354.126   117746303.509       -1221.834          46.000  
  22406452.051   117746375.775       -1221.768          44.000  
  22406337.198   117746328.852       -1222.044          45.000  
  22406374.106   117746313.657       -1221.638          46.000  
  22447405.378   117961928.169       -1221.730          34.000  
  22406375.317   117746295.248       -1221.884          47.000  
  22434223.251   117892658.653       -1222.026          32.000  
  22431585.774   117878827.184       -1221.945          32.000  
  22406374.453   117746298.705       -1221.894          47.000  
  22406373.663   117746283.383       -1221.803          50.000  
  22435387.901   117898761.604       -1222.124          33.000  
  22276851.338   117065644.110       -1221.904          33.000  
  22388501.716   117652391.698       -1221.731          34.000  
  22346012.801   117429128.232       -1221.792          33.000  
  22346891.326   117433704.185       -1221.855          33.000  
  22361248.530   117509169.083       -1221.794          31.000  
  22326667.813   117327462.290       -1222.520          33.000  
  22469974.476   118080528.221       -1221.792          35.000  
 25  8 13  8 57 15.2020000  0 14G 1G 8G 3G 6G 2G29G 5G 7G 4G23G20G26
                                G 9G32
  22406420.615   117746563.244       -1221.651          48.000  
  22406400.771   117746547.844       -1221.698          47.000  
  22406498.697   117746620.103       -1221.970          46.000  
  22406383.697   117746573.201       -1221.734          43.000  
  22406420.626   117746557.922       -1221.150          44.000  
  22447451.899   117962172.528       -1222.302          34.000  
  22406421.909   117746539.614       -1221.805          48.000  
  22406420.887   117746543.066       -1221.918          49.000  
  22406420.296   117746527.721       -1221.725          51.000  
  22435434.582   117899005.957       -1221.842          33.000  
  22388548.236   117652636.053       -1221.388          34.000  
  22346937.747   117433948.542       -1221.436          33.000  
  22326714.311   117327706.608       -1222.280          33.000  
  22470021.001   118080772.595       -1222.067          35.000  
 25  8 13  8 57 15.4020000  0 12G 1G 8G 3G 6G 2G29G 5G 7G 4G20G12G 9
  22406467.082   117746807.527       -1221.619          47.000  
  22406447.392   117746792.160       -1221.556          47.000  
  22406545.199   117746864.446       -1221.869          46.000  
  22406430.204   117746817.547       -1222.007          43.000  
  22406467.188   117746802.151       -1221.161          43.000  
  22447498.355   117962416.770       -1220.617          30.000  
  22406468.475   117746783.978       -1221.945          48.000  
  22406467.417   117746787.411       -1221.784          51.000  
  22406466.921   117746772.028       -1221.632          49.000  
  22388594.803   117652880.459       -1222.519          33.000  
  22420836.306   117822289.5431      -1221.454          36.000  
  22326760.790   117327950.951       -1222.344          33.000  
 25  8 13  8 57 15.6020000  0  9G 1G 8G 3G 6G 2G 5G 7G 4G12
  22406513.632   117747051.842       -1221.820          47.000  
  22406494.006   117747036.513       -1222.074          47.000  
  22406591.711   117747108.769       -1221.716          46.000  
  22406476.714   117747061.899       -1222.207          42.000  
  22406513.785   117747046.465       -1221.822          43.000  
  22406515.016   117747028.332       -1221.843          44.000  
  22406513.980   117747031.807       -1222.083          51.000  
  22406513.464   117747016.344       -1221.869          46.000  
  22420882.734   117822533.866       -1221.869          35.000  
 25  8 13  8 57 15.8020000  0  9G 1G 8G 3G 6G 2G 5G 7G 4G12
  22406560.174   117747296.160       -1221.596          47.000  
  22406540.629   117747280.849       -1221.841          47.000  
  22406638.209   117747353.072       -1221.512          47.000  
  22406523.221   117747306.252       -1221.832          40.000  
  22406560.358   117747290.755       -1221.523          42.000  
  22406561.481   117747272.608       -1221.495          42.000  
  22406560.507   117747276.177       -1221.795          50.000  
  22406560.017   117747260.702       -1221.942          46.000  
  22420929.163   117822778.221       -1222.267          35.000  
 25  8 13  8 57 16.0020000  0  9G 1G 8G 3G 6G 2G 5G 7G 4G12
  22406606.758   117747540.500       -1221.667          49.000  
  22406587.252   117747525.237       -1221.879          47.000  
  22406684.763   117747597.445       -1221.899          49.000  
  22406569.733   117747550.677       -1222.321          38.000  
  22406606.902   117747535.016       -1221.320          42.000  
  22406607.972   117747517.006       -1222.257          44.000  
  22406607.009   117747520.568       -1221.798          49.000  
  22406606.600   117747505.109       -1221.982          45.000  
  22420975.629   117823022.549       -1221.598          35.000  
 25  8 13  8 57 16.2020000  0  9G 1G 8G 3G 6G 2G 5G 7G 4G12
  22406653.301   117747784.827       -1221.562          49.000  
  22406633.876   117747769.597       -1221.666          45.000  
  22406731.311   117747841.811       -1221.700          49.000  
  22406616.249   117747795.119       -1222.330          39.000  
  22406653.432   117747779.320       -1221.668          46.000  
  22406654.499   117747761.404       -1221.983          45.000  
  22406653.541   117747764.933       -1221.814          49.000  
  22406653.124   117747749.430       -1221.370          42.000  
  22421022.135   117823266.917       -1221.684          35.000  
 25  8 13  8 57 16.4020000  0  9G 1G 8G 3G 6G 2G 5G 7G 4G12
  22406699.812   117748029.143       -1221.508          47.000  
  22406680.491   117748013.934       -1221.546          45.000  
  22406777.826   117748086.143       -1221.498          46.000  
  22406662.780   117748039.544       -1221.963          40.000  
  22406699.998   117748023.653       -1221.643          48.000  
  22406700.973   117748005.837       -1222.285          43.000  
  22406700.094   117748009.330       -1222.094          50.000  
  22406699.701   117747993.778       -1222.114          42.000  
  22421068.599   117823511.259       -1221.784          31.000  
 25  8 13  8 57 16.6020000  0  8G 1G 8G 3G 6G 2G 5G 7G 4
  22406746.207   117748273.411       -1221.428          45.000  
  22406727.090   117748258.307       -1221.985          47.000  
  22406824.382   117748330.487       -1221.856          45.000  
  22406709.304   117748283.923       -1221.719          41.000  
  22406746.582   117748267.994       -1221.809          50.000  
  22406747.481   117748250.316       -1222.809          37.000  
  22406746.657   117748253.737       -1222.095          50.000  
  22406746.294   117748238.192       -1222.225          42.000  
 25  8 13  8 57 16.8020000  0  8G 1G 8G 3G 6G 2G 5G 7G 4
  22406792.669   117748517.753       -1221.745          48.000  
  22406773.691   117748502.646       -1221.461          47.000  
  22406870.866   117748574.835       -1221.628          48.000  
  22406755.764   117748528.272       -1221.792          43.000  
  22406793.169   117748512.314       -1221.464          51.000  
  22406793.986   117748494.664       -1221.048          37.000  
  22406793.187   117748498.104       -1221.630          50.000  
  22406792.887   117748482.619       -1221.998          41.000  
 25  8 13  8 57 17.0020000  0  8G 1G 8G 3G 6G 2G 5G 7G 4
  22406839.174   117748762.137       -1222.023          48.000  
  22406820.359   117748746.960       -1221.707          46.000  
  22406917.426   117748819.162       -1221.573          48.000  
  22406802.237   117748772.736       -1222.812          42.000  
  22406839.810   117748756.621       -1221.668          50.000  
  22406840.505   117748739.081       -1222.169          43.000  
  22406839.714   117748742.468       -1221.924          50.000  
  22406839.426   117748726.962       -1221.757          32.000  
 25  8 13  8 57 17.2020000  0  7G 1G 8G 3G 6G 2G 5G 7
  22406885.644   117749006.387       -1220.969          46.000  
  22406867.013   117748991.333       -1221.825          46.000  
  22406963.982   117749063.495       -1221.836          49.000  
  22406848.748   117749017.204       -1221.616          37.000  
  22406886.444   117749000.942       -1221.741          50.000  
  22406887.030   117748983.563       -1222.397          44.000  
  22406886.229   117748986.856       -1222.012          51.000  
 25  8 13  8 57 17.4020000  0  7G 1G 8G 3G 6G 2G 5G 7
  22406932.298   117749250.753       -1221.879          49.000  
  22406913.628   117749235.700       -1221.688          44.000  
  22407010.511   117749307.861       -1221.688          48.000  
  22406895.265   117749261.523       -1221.894          42.000  
  22406933.073   117749245.309       -1221.667          48.000  
  22406933.583   117749227.985       -1221.823          46.000  
  22406932.759   117749231.296       -1222.266          50.000  
 25  8 13  8 57 17.6020000  0  7G 1G 8G 3G 6G 2G 5G 7
  22406978.880   117749495.077       -1221.572          48.000  
  22406960.280   117749480.059       -1222.114          46.000  
  22407057.005   117749552.172       -1221.829          47.000  
  22406941.792   117749505.984       -1222.474          44.000  
  22406979.641   117749489.615       -1221.699          46.000  
  22406980.068   117749472.313       -1221.570          46.000  
  22406979.308   117749475.712       -1222.191          50.000  
 25  8 13  8 57 17.8020000  0  7G 1G 8G 3G 6G 2G 5G 7
  22407025.337   117749739.370       -1221.541          46.000  
  22407006.918   117749724.418       -1221.646          48.000  
  22407103.536   117749796.540       -1221.873          47.000  
  22406988.280   117749750.512       -1222.662          44.000  
  22407026.266   117749733.994       -1221.959          45.000  
  22407026.532   117749716.631       -1221.784          44.000  
  22407025.856   117749720.130       -1222.091          50.000  
 25  8 13  8 57 18.0020000  0  7G 1G 8G 3G 6G 2G 5G 7
  22407071.862   117749983.755       -1221.890          46.000  
  22407053.584   117749968.778       -1221.863          48.000  
  22407150.072   117750040.874       -1221.180          44.000  
  22407034.819   117749995.011       -1222.646          42.000  
  22407072.883   117749978.419       -1222.096          44.000  
  22407072.952   117749961.174       -1223.142          37.000  
  22407072.343   117749964.580       -1222.293          49.000  
 25  8 13  8 57 18.2020000  0  8G 1G 8G 3G 6G 2G 5G 7G 4
  22407118.396   117750228.059       -1221.404          48.000  
  22407100.241   117750213.160       -1222.132          49.000  
  22407196.607   117750285.173       -1222.104          43.000  
  22407081.271   117750239.438       -1221.852          38.000  
  22407119.422   117750222.656       -1220.387          38.000  
  22407119.527                       -1222.198          24.000  
  22407118.896   117750208.962       -1221.995          49.000  
  22407118.130   117750200.0381      -1220.498          42.000  
 25  8 13  8 57 18.4020000  0  7G 1G 8G 3G 6G 2G 7G 4
  22407164.941   117750472.385       -1221.660          49.000  
  22407146.887   117750457.560       -1221.954          50.000  
  22407243.131   117750529.570       -1222.002          43.000  
  22407127.816   117750483.828       -1222.404          41.000  
  22407166.009   117750466.881       -1222.280          42.000  
  22407165.480   117750453.386       -1222.318          50.000  
  22407164.590   117750444.350       -1222.391          45.000  
 25  8 13  8 57 18.6020000  0  7G 1G 8G 3G 6G 2G 7G 4
  22407211.461   117750716.692       -1221.693          49.000  
  22407193.535   117750701.885       -1221.602          48.000  
  22407289.683   117750773.781       -1220.097          36.000  
  22407174.294   117750728.286       -1222.346          45.000  
  22407212.525   117750711.071       -1220.399          41.000  
  22407212.036   117750697.841       -1222.196          50.000  
  22407211.038   117750688.810       -1222.796          43.000  
 25  8 13  8 57 18.8020000  0  7G 1G 8G 3G 6G 2G 7G 4
  22407258.003   117750961.085       -1222.356          47.000  
  22407240.218   117750946.299       -1222.404          49.000  
  22407336.292   117751018.165       -1222.329          45.000  
  22407220.860   117750972.749       -1222.394          44.000  
  22407258.988   117750955.351       -1222.369          40.000  
  22407258.549   117750942.204       -1221.659          49.000  
  22407257.607   117750933.336       -1222.312          39.000  
 25  8 13  8 57 19.0020000  0  7G 1G 8G 3G 6G 2G 7G 4
  22407304.495   117751205.485       -1221.695          47.000  
  22407286.887   117751190.677       -1221.677          49.000  
  22407382.817   117751262.482       -1221.456          47.000  
  22407267.322   117751217.113       -1221.508          44.000  
  22407305.390   117751199.699       -1221.509          39.000  
  22407305.101   117751186.614       -1222.212          49.000  
  22407304.115   117751177.627       -1221.479          42.000  
 25  8 13  8 57 19.2020000  0  7G 1G 8G 3G 6G 2G 7G 4
  22407351.001   117751449.796       -1221.668          47.000  
  22407333.519   117751435.006       -1221.627          47.000  
  22407429.363   117751506.782       -1221.612          44.000  
  22407313.826   117751461.530       -1222.513          44.000  
  22407351.814   117751444.059       -1222.175          46.000  
  22407351.656   117751431.110       -1222.712          47.000  
  22407350.748   117751421.994       -1222.016          45.000  
 25  8 13  8 57 19.4020000  0  7G 1G 8G 3G 6G 2G 7G 4
  22407397.485   117751694.066       -1221.322          47.000  
  22407380.254   117751679.407       -1222.194          49.000  
  22407475.945   117751751.223       -1222.335          45.000  
  22407360.299   117751705.935       -1222.200          43.000  
  22407398.287   117751688.372       -1221.302          49.000  
  22407398.178   117751675.481       -1221.553          45.000  
  22407397.183   117751666.306       -1221.658          45.000  
 25  8 13  8 57 19.6020000  0  7G 1G 8G 3G 6G 2G 7G 4
  22407443.996   117751938.380       -1221.710          45.000  
  22407426.876   117751923.821       -1221.732          49.000  
  22407522.466   117751995.580       -1221.332          45.000  
  22407406.845   117751950.409       -1221.797          43.000  
  22407444.849   117751932.646       -1221.181          49.000  
  22407444.750   117751919.905       -1222.210          48.000  
  22407443.778   117751910.712       -1222.041          48.000  
 25  8 13  8 57 19.8020000  0  7G 1G 8G 3G 6G 2G 7G 4
  22407490.572   117752182.810       -1222.159          48.000  
  22407473.491   117752168.188       -1221.885          48.000  
  22407568.977   117752239.818       -1221.410          43.000  
  22407453.359   117752194.888       -1222.572          44.000  
  22407491.442   117752177.027       -1221.972          48.000  
  22407491.340   117752164.381       -1222.479          49.000  
  22407490.399   117752155.149       -1221.971          47.000  
 25  8 13  8 57 20.0020000  0  7G 1G 8G 3G 6G 2G 7G 4
  22407537.178   117752427.065       -1221.027          48.000  
  22407520.155   117752412.622       -1222.556          50.000  
  22407615.504   117752484.177       -1222.093          46.000  
  22407499.847   117752439.371       -1222.640          45.000  
  22407537.948   117752421.327       -1221.921          49.000  
  22407537.864   117752408.837       -1222.487          40.000  
  22407536.823   117752399.357       -1221.317          43.000  
 25  8 13  8 57 20.2020000  0  7G 1G 8G 3G 6G 2G 7G 4
  22407583.688   117752671.368       -1222.286          46.000  
  22407566.853   117752657.001       -1221.825          48.000  
  22407661.996   117752728.618       -1222.792          46.000  
  22407546.355   117752683.782       -1222.189          48.000  
  22407584.571   117752665.732       -1221.993          48.000  
  22407584.352   117752653.292       -1222.613          45.000  
  22407583.365   117752643.972       -1222.937          45.000  
 25  8 13  8 57 20.4020000  0  7G 1G 8G 3G 6G 2G 7G 4
  22407630.185   117752915.800       -1222.064          43.000  
  22407613.468   117752901.367       -1222.397          47.000  
  22407708.494   117752972.967       -1221.485          45.000  
  22407592.810   117752928.276       -1223.189          44.000  
  22407631.020   117752909.990       -1221.584          42.000  
  22407630.919   117752897.792       -1223.043          46.000  
  22407629.900   117752888.358       -1222.201          45.000  
 25  8 13  8 57 20.6020000  0  7G 1G 8G 3G 6G 2G 7G 4
  22407676.682   117753160.158       -1222.013          49.000  
  22407660.139   117753145.809       -1221.714          45.000  
  22407754.985   117753217.320       -1222.027          45.000  
  22407639.303   117753172.780       -1222.025          47.000  
  22407677.601   117753154.316       -1220.469          45.000  
  22407677.458   117753142.240       -1220.979          43.000  
  22407676.389   117753132.777       -1222.134          45.000  
 25  8 13  8 57 20.8020000  0  7G 1G 8G 3G 6G 2G 7G 4
  22407723.162   117753404.477       -1221.274          43.000  
  22407706.770   117753390.170       -1221.976          47.000  
  22407801.515   117753461.657       -1221.737          44.000  
  22407685.817   117753417.284       -1222.294          40.000  
  22407724.078   117753398.603       -1222.924          46.000  
  22407724.016   117753386.696       -1223.024          47.000  
  22407722.884   117753377.168       -1222.248          45.000  
 25  8 13  8 57 21.0020000  0  7G 1G 8G 3G 6G 2G 7G 4
  22407769.653   117753648.831       -1222.326          47.000  
  22407753.440   117753634.619       -1222.307          45.000  
  22407848.032   117753706.035       -1221.756          47.000  
  22407732.362   117753661.752       -1223.507          44.000  
  22407770.566   117753642.948       -1220.923          39.000  
  22407770.577   117753631.209       -1222.705          46.000  
  22407769.430   117753621.602       -1222.188          45.000  
 25  8 13  8 57 21.2020000  0  7G 1G 8G 3G 6G 2G 7G 4
  22407816.136   117753893.180       -1221.498          46.000  
  22407800.148   117753879.045       -1221.838          48.000  
  22407894.530   117753950.422       -1222.386          45.000  
  22407778.887   117753906.364       -1222.852          43.000  
  22407817.146   117753887.321       -1222.085          43.000  
  22407817.131   117753875.677       -1221.396          45.000  
  22407815.973   117753866.041       -1222.261          46.000  
 25  8 13  8 57 21.4020000  0  7G 1G 8G 3G 6G 2G 7G 4
  22407862.624   117754137.536       -1222.000          46.000  
  22407846.823   117754123.473       -1222.447          45.000  
  22407941.027   117754194.836       -1221.487          45.000  
  22407825.397   117754150.863       -1222.149          40.000  
  22407863.679   117754131.488       -1220.663          43.000  
  22407863.665   117754120.163       -1223.449          44.000  
  22407862.481   117754110.411       -1221.896          47.000  
 25  8 13  8 57 21.6020000  0  7G 1G 8G 3G 6G 2G 7G 4
  22407909.106   117754381.853       -1221.277          44.000  
  22407893.509   117754367.929       -1221.851          50.000  
  22407987.503   117754439.119       -1221.467          43.000  
  22407871.926   117754395.314       -1222.611          44.000  
  22407910.207   117754375.905       -1222.069          46.000  
  22407910.162   117754364.622       -1220.853          46.000  
  22407908.988   117754354.906       -1222.419          48.000  
 25  8 13  8 57 21.8020000  0  8G 1G 8G 3G 6G 2G 5G 7G 4
  22407955.576   117754626.251       -1222.748          46.000  
  22407940.171   117754612.365       -1222.836          48.000  
  22408034.080   117754683.587       -1222.609          44.000  
  22407918.501   117754639.992       -1223.656          43.000  
  22407956.720   117754620.205       -1222.027          46.000  
  22407959.099   117754619.6233      -1222.510          44.000  
  22407956.762   117754609.202       -1224.233          46.000  
  22407955.472   117754599.258       -1222.291          48.000  
 25  8 13  8 57 22.0020000  0  8G 1G 8G 3G 6G 2G 5G 7G 4
  22408002.130   117754870.623       -1221.816          49.000  
  22407986.825   117754856.832       -1221.804          48.000  
  22408080.510   117754927.809       -1221.050          44.000  
  22407964.970   117754884.469       -1223.062          43.000  
  22408003.259   117754864.507       -1221.502          48.000  
  22408005.905   117754864.2472      -1223.503          46.000  
  22408003.256   117754853.637       -1221.445          46.000  
  22408002.099   117754843.803       -1222.853          45.000  
 25  8 13  8 57 22.2020000  0  8G 1G 8G 3G 6G 2G 5G 7G 4
  22408048.639   117755114.949       -1221.646          47.000  
  22408033.462   117755101.365       -1223.397          46.000  
  22408127.016   117755172.324       -1222.458          43.000  
  22408011.532   117755129.122       -1223.244          42.000  
  22408049.859   117755108.958       -1221.659          49.000  
  22408057.060   117755108.7482      -1222.023          45.000  
  22408049.815   117755098.270       -1223.455          45.000  
  22408048.627   117755088.145       -1221.792          47.000  
 25  8 13  8 57 22.4020000  0  8G 1G 8G 3G 6G 2G 5G 7G 4
  22408095.197   117755359.438       -1221.188          47.000  
  22408080.093   117755345.672       -1220.857          46.000  
  22408173.516   117755416.710       -1221.716          43.000  
  22408057.994   117755373.615       -1220.537          41.000  
  22408096.396   117755353.263       -1222.522          48.000  
  22408104.813   117755353.2552      -1222.207          48.000  
  22408096.363   117755342.873       -1223.075          42.000  
  22408095.132   117755332.668       -1222.795          44.000  
 25  8 13  8 57 22.6020000  0  8G 1G 8G 3G 6G 2G 5G 7G 4
  22408141.754   117755603.793       -1223.195          49.000  
  22408126.829   117755590.251       -1222.541          46.000  
  22408219.993   117755661.120       -1226.944          37.000  
  22408104.594   117755618.356       -1224.234          43.000  
  22408142.947   117755597.614       -1221.035          48.000  
  22408150.736   117755597.8442      -1223.298          43.000  
  22408142.850   117755587.364       -1224.537          39.000  
  22408141.669   117755577.089       -1222.678          44.000  
 25  8 13  8 57 22.8020000  0  8G 1G 8G 3G 6G 2G 5G 7G 4
  22408188.278   117755848.083       -1220.668          46.000  
  22408173.533   117755834.651       -1222.694          48.000  
  22408266.397   117755905.201       -1217.059          40.000  
  22408151.164   117755862.878       -1221.970          45.000  
  22408189.543   117755841.996       -1222.186          47.000  
  22408198.933   117755842.3052      -1223.744          46.000  
  22408189.402   117755831.916       -1221.586          46.000  
  22408188.219   117755821.649       -1221.567          41.000  
 25  8 13  8 57 23.0020000  0  8G 1G 8G 3G 6G 2G 5G 7G 4
  22408234.890   117756092.584       -1222.154          48.000  
  22408220.266   117756079.170       -1222.351          47.000  
  22408312.952   117756149.789       -1224.434          41.000  
  22408197.680   117756107.421       -1224.390          45.000  
  22408236.125   117756086.355       -1220.929          45.000  
  22408248.003   117756086.8842      -1221.965          45.000  
  22408235.995   117756076.508       -1222.472          45.000  
  22408234.730   117756066.021       -1222.563          44.000  
 25  8 13  8 57 23.2020000  0  8G 1G 8G 3G 6G 2G 5G 7G 4
  22408281.402   117756336.944       -1222.573          50.000  
  22408266.942   117756323.640       -1223.414          45.000  
  22408359.400   117756393.976       -1221.606          45.000  
  22408244.199   117756351.971       -1221.849          45.000  
  22408282.722   117756330.752       -1222.924          45.000  
  22408295.674   117756331.3582      -1223.427          49.000  
  22408282.559   117756321.212       -1223.771          42.000  
  22408281.240   117756310.538       -1222.179          43.000  
 25  8 13  8 57 23.4020000  0  8G 1G 8G 3G 6G 2G 5G 7G 4
  22408327.909   117756581.354       -1221.980          48.000  
  22408313.597   117756568.071       -1220.904          45.000  
  22408406.036   117756638.561       -1223.851          35.000  
  22408290.753   117756596.598       -1222.600          45.000  
  22408329.288   117756575.106       -1219.097          44.000  
  22408343.381   117756575.9092      -1221.950          46.000  
  22408329.051   117756565.610       -1223.346          48.000  
  22408327.781   117756554.912       -1223.318          41.000  
 25  8 13  8 57 23.6020000  0  8G 1G 8G 3G 6G 2G 5G 7G 4
  22408374.523   117756825.819       -1222.243          48.000  
  22408360.298   117756812.665       -1222.157          43.000  
  22408452.652   117756882.942       -1221.374          41.000  
  22408337.374   117756841.287       -1223.825          43.000  
  22408375.868   117756819.352       -1221.708          45.000  
  22408388.989   117756820.5632      -1224.411          41.000  
  22408375.575   117756810.191       -1222.045          47.000  
  22408374.303   117756799.311       -1220.548          46.000  
 25  8 13  8 57 23.8020000  0  8G 1G 8G 3G 6G 2G 5G 7G 4
  22408420.998   117757070.274       -1222.233          49.000  
  22408406.964   117757057.268       -1223.523          41.000  
  22408499.218   117757127.496       -1222.173          46.000  
  22408383.947   117757086.033       -1223.378          38.000  
  22408422.399   117757063.870       -1222.146          46.000  
  22408433.251   117757065.2762      -1222.128          45.000  
  22408422.090   117757054.857       -1224.621          43.000  
  22408420.860   117757044.038       -1223.136          43.000  
 25  8 13  8 57 24.0020000  0  8G 1G 8G 3G 6G 2G 5G 7G 4
  22408467.544   117757314.824       -1222.757          49.000  
  22408453.665   117757301.813       -1223.400          43.000  
  22408545.753   117757371.851       -1223.342          43.000  
  22408430.538   117757330.853       -1224.020          40.000  
  22408468.914   117757308.271       -1223.624          45.000  
  22408478.941   117757309.9322      -1224.529          43.000  
  22408468.622   117757299.654       -1223.818          39.000  
  22408467.316   117757288.683       -1226.594          36.000  
 25  8 13  8 57 24.2020000  0  8G 1G 8G 3G 6G 2G 5G 7G 4
  22408514.045   117757559.215       -1222.362          49.000  
  22408500.371   117757546.352       -1223.144          43.000  
  22408592.308   117757616.384       -1221.627          43.000  
  22408477.050   117757575.432       -1223.531          45.000  
  22408515.535   117757552.589       -1219.779          46.000  
  22408525.219   117757554.4682      -1223.155          47.000  
  22408515.172   117757544.143       -1223.655          45.000  
  22408513.790   117757533.054       -1221.747          33.000  
 25  8 13  8 57 24.4020000  0  8G 1G 8G 3G 6G 2G 5G 7G 4
  22408560.560   117757803.675       -1222.570          49.000  
  22408547.110   117757790.929       -1223.359          43.000  
  22408638.825   117757860.777       -1221.458          46.000  
  22408523.567   117757820.014       -1223.552          44.000  
  22408562.090   117757797.209       -1223.849          44.000  
  22408571.771   117757799.1462      -1223.411          47.000  
  22408561.752   117757788.920       -1223.347          47.000  
  22408560.308   117757777.666       -1220.053          39.000  
 25  8 13  8 57 24.6020000  0  8G 1G 8G 3G 6G 2G 5G 7G 4
  22408607.152   117758048.191       -1221.874          47.000  
  22408593.799   117758035.408       -1221.631          44.000  
  22408685.387   117758105.350       -1223.434          46.000  
  22408570.066   117758064.642       -1221.868          44.000  
  22408608.613   117758041.459       -1221.763          44.000  
  22408618.276   117758043.6612      -1222.478          47.000  
  22408608.296   117758033.464       -1221.972          44.000  
  22408606.783   117758022.371       -1227.199          34.000  
 25  8 13  8 57 24.8020000  0  8G 1G 8G 3G 6G 2G 5G 7G 4
  22408653.659   117758292.717       -1223.288          45.000  
  22408640.479   117758280.038       -1221.792          44.000  
  22408731.895   117758349.581       -1220.059          44.000  
  22408616.665   117758309.303       -1221.292          39.000  
  22408655.178   117758285.841       -1221.857          48.000  
  22408664.766   117758288.2042      -1222.461          42.000  
  22408654.777   117758278.167       -1224.974          37.000  
  22408653.197   117758266.597       -1224.353          40.000  
 25  8 13  8 57 25.0020000  0  8G 1G 8G 3G 6G 2G 5G 7G 4
  22408700.152   117758537.041       -1222.648          50.000  
  22408687.159   117758524.622       -1223.746          45.000  
  22408778.435   117758594.198       -1225.486          38.000  
  22408663.244   117758553.902       -1221.937          46.000  
  22408701.750   117758530.181       -1221.426          50.000  
  22408711.289   117758532.7382      -1224.401          45.000  
  22408701.194   117758522.640       -1220.808          39.000  
  22408699.823   117758511.124       -1220.103          43.000  
 25  8 13  8 57 25.2020000  0  8G 1G 8G 3G 6G 2G 5G 7G 4
  22408746.702   117758781.633       -1221.875          48.000  
  22408733.847   117758769.139       -1223.189          46.000  
  22408824.791   117758838.188       -1218.024          37.000  
  22408709.792   117758798.520       -1222.468          42.000  
  22408748.265   117758774.495       -1221.468          47.000  
  22408757.749   117758777.1172      -1221.391          46.000  
  22408747.738   117758767.427       -1224.160          44.000  
  22408746.394   117758755.576       -1222.954          40.000  
 25  8 13  8 57 25.4020000  0  8G 1G 8G 3G 6G 2G 5G 7G 4
  22408793.240   117759025.901       -1222.292          47.000  
  22408780.504   117759013.555       -1221.342          44.000  
  22408871.439   117759082.668       -1221.379          42.000  
  22408756.257   117759042.759       -1224.356          38.000  
  22408794.806   117759018.849       -1221.646          44.000  
  22408804.237   117759021.527       -1220.904          48.000  
  22408794.228   117759011.795       -1221.255          44.000  
  22408792.847   117758999.611       -1218.444          40.000  
 25  8 13  8 57 25.6020000  0  8G 1G 8G 3G 6G 2G 5G 7G 4
  22408839.798   117759270.377       -1220.121          45.000  
  22408827.212   117759258.130       -1222.032          44.000  
  22408917.918   117759326.918       -1222.005          45.000  
  22408802.908                       -1222.084          28.000  
  22408841.274   117759263.097       -1222.575          48.000  
  22408850.699   117759265.960       -1221.763          45.000  
  22408840.896   117759256.472       -1222.864          45.000  
  22408839.355   117759243.866       -1220.094          43.000  
 25  8 13  8 57 25.8020000  0  7G 1G 8G 3G 2G 5G 7G 4
  22408886.267   117759514.692       -1224.026          48.000  
  22408873.815   117759502.517       -1222.858          43.000  
  22408964.356   117759571.084       -1219.470          42.000  
  22408887.761   117759507.318       -1219.864          45.000  
  22408897.133   117759510.242       -1221.373          48.000  
  22408887.424   117759500.728       -1221.608          46.000  
  22408886.003   117759488.663       -1223.686          32.000  
 25  8 13  8 57 26.0020000  0  7G 1G 8G 3G 2G 5G 7G 4
  22408932.807   117759759.026       -1220.140          49.000  
  22408920.481   117759746.911       -1221.562          46.000  
  22409010.845   117759815.299       -1221.014          45.000  
  22408934.334   117759751.635       -1219.833          47.000  
  22408943.539   117759754.464       -1221.345          45.000  
  22408933.900   117759745.164       -1220.314          41.000  
  22408926.626                       -1219.689          38.000  
 25  8 13  8 57 26.2020000  0  7G 1G 8G 3G 2G 5G 7G 4
  22408979.393   117760003.528       -1224.076          47.000  
  22408967.166   117759991.427       -1222.914          43.000  
  22409057.305   117760059.484       -1223.579          42.000  
  22408980.950   117759995.958       -1222.462          51.000  
  22408989.968   117759998.872       -1223.679          43.000  
  22408980.461   117759989.761       -1224.498          48.000  
  22408971.662   117759940.5193      -1219.256          43.000  
 25  8 13  8 57 26.4020000  0  7G 1G 8G 3G 2G 5G 7G 4
  22409025.862   117760247.755       -1222.654          51.000  
  22409013.810   117760235.682       -1220.509          41.000  
  22409103.782   117760303.504       -1220.544          45.000  
  22409027.510   117760240.167       -1222.206          49.000  
  22409036.291   117760242.888       -1220.920          49.000  
  22409026.997   117760234.054       -1220.171          47.000  
  22409027.371   117760184.7402      -1220.527          47.000  
 25  8 13  8 57 26.6020000  0  7G 1G 8G 3G 2G 5G 7G 4
  22409072.381   117760492.120       -1221.661          50.000  
  22409060.531   117760480.259       -1221.887          43.000  
  22409150.215   117760547.547       -1221.895          43.000  
  22409074.040   117760484.365       -1221.244          47.000  
  22409082.646   117760487.078       -1221.274          46.000  
  22409073.557   117760478.571       -1222.901          46.000  
  22409074.836   117760429.0072      -1221.479          43.000  
 25  8 13  8 57 26.8020000  0  7G 1G 8G 3G 2G 5G 7G 4
  22409118.873   117760736.487       -1221.398          41.000  
  22409107.183   117760724.696       -1223.586          47.000  
  22409196.720   117760791.823       -1218.676          42.000  
  22409120.540   117760728.634       -1222.242          47.000  
  22409129.043   117760731.284       -1220.473          48.000  
  22409120.023   117760722.823       -1222.113          44.000  
  22409124.127   117760673.0872      -1221.234          47.000  
 25  8 13  8 57 27.0020000  0  7G 1G 8G 3G 2G 5G 7G 4
  22409165.471   117760981.002       -1220.952          46.000  
  22409153.822   117760968.950       -1221.377          47.000  
  22409243.167   117761035.879       -1220.463          47.000  
  22409166.996   117760972.900       -1221.271          48.000  
  22409175.392   117760975.456       -1222.606          45.000  
  22409166.544   117760967.278       -1222.487          46.000  
  22409171.127   117760917.2302      -1220.674          45.000  
 25  8 13  8 57 27.2020000  0  7G 1G 8G 3G 2G 5G 7G 4
  22409212.019   117761225.466       -1224.126          51.000  
  22409200.429   117761213.461       -1221.803          45.000  
  22409289.649   117761280.052       -1220.335          42.000  
  22409213.470   117761217.192       -1221.578          50.000  
  22409221.752   117761219.695       -1222.460          47.000  
  22409213.003   117761211.524       -1221.313          42.000  
  22409215.382   117761161.3952      -1220.580          44.000  
 25  8 13  8 57 27.4020000  0  7G 1G 8G 3G 2G 5G 7G 4
  22409258.553   117761469.823       -1222.352          50.000  
  22409247.096   117761457.962       -1223.134          44.000  
  22409336.134   117761524.313       -1218.562          42.000  
  22409259.970   117761461.531       -1222.483          51.000  
  22409268.109   117761463.984       -1222.744          48.000  
  22409259.574   117761456.113       -1220.883          42.000  
  22409262.332   117761405.4902      -1220.722          45.000  
 25  8 13  8 57 27.6020000  0  7G 1G 8G 3G 2G 5G 7G 4
  22409305.095   117761714.170       -1220.226          49.000  
  22409293.698   117761702.381       -1224.177          45.000  
  22409382.680   117761768.665       -1220.939          44.000  
  22409306.481   117761705.793       -1220.539          50.000  
  22409314.505   117761708.153       -1222.734          48.000  
  22409306.104   117761700.588       -1224.522          45.000  
  22409311.744   117761649.8922      -1223.826          45.000  
 25  8 13  8 57 27.8020000  0  7G 1G 8G 3G 2G 5G 7G 4
  22409351.745   117761958.777       -1222.878          53.000  
  22409340.315   117761946.809       -1219.936          44.000  
  22409429.204   117762013.007       -1221.510          44.000  
  22409353.044   117761950.253       -1222.156          50.000  
  22409360.872   117761952.405       -1220.161          45.000  
  22409352.556   117761944.754       -1222.600          37.000  
  22409359.683   117761893.9872      -1220.191          47.000  
 25  8 13  8 57 28.0020000  0  7G 1G 8G 3G 2G 5G 7G 4
  22409398.295   117762203.171       -1223.658          49.000  
  22409387.062   117762191.417       -1222.825          47.000  
  22409475.704   117762257.212       -1222.368          47.000  
  22409399.575   117762194.569       -1222.200          51.000  
  22409407.204   117762196.661       -1221.294          46.000  
  22409399.103   117762189.288       -1219.282          45.000  
  22409405.262   117762138.1272      -1221.837          48.000  
 25  8 13  8 57 28.2020000  0  7G 1G 8G 3G 2G 5G 7G 4
  22409444.838   117762447.541       -1220.390          48.000  
  22409433.652   117762435.840       -1223.960          47.000  
  22409522.169   117762501.476       -1221.306          50.000  
  22409446.122   117762438.864       -1220.446          48.000  
  22409453.495   117762440.839       -1220.021          46.000  
  22409445.653   117762433.864       -1221.889          42.000  
  22409451.139   117762382.6442      -1222.765          40.000  
 25  8 13  8 57 28.4020000  0  7G 1G 8G 3G 2G 5G 7G 4
  22409491.437   117762692.061       -1222.335          51.000  
  22409480.346   117762680.259       -1220.516          46.000  
  22409568.620   117762745.673       -1223.162          44.000  
  22409492.662   117762683.218       -1220.894          49.000  
  22409499.829   117762685.083       -1221.980          46.000  
  22409492.173   117762678.268       -1225.623          39.000  
  22409493.186   117762626.5692      -1221.974          47.000  
 25  8 13  8 57 28.6020000  0  7G 1G 8G 3G 2G 5G 7G 4
  22409537.982   117762936.562       -1223.813          50.000  
  22409526.994   117762924.800       -1223.146          45.000  
  22409615.083   117762989.834       -1218.954          48.000  
  22409539.249   117762927.702       -1223.654          48.000  
  22409546.179   117762929.238       -1219.924          50.000  
  22409538.675   117762922.590       -1220.240          46.000  
  22409540.490   117762870.8082      -1222.888          44.000  
 25  8 13  8 57 28.8020000  0  7G 1G 8G 3G 2G 5G 7G 4
  22409584.537   117763181.011       -1221.661          51.000  
  22409573.692   117763169.440       -1222.175          39.000  
  22409661.615   117763234.117       -1222.405          40.000  
  22409585.809   117763172.072       -1222.434          49.000  
  22409592.684   117763173.725       -1221.224          47.000  
  22409585.262   117763167.310       -1223.181          46.000  
  22409591.740   117763115.0932      -1219.557          49.000  
 25  8 13  8 57 29.0020000  0  8G 1G 8G 3G 2G 5G 6G 7G 4
  22409631.066   117763425.565       -1222.565          50.000  
  22409620.383   117763414.064       -1224.828          40.000  
  22409708.233   117763478.593       -1222.233          43.000  
  22409632.377   117763416.533       -1222.421          49.000  
  22409639.049   117763418.076       -1223.095          46.000  
  22409642.189   117763464.2073      -1224.333          45.000  
  22409631.791   117763411.781       -1223.525          34.000  
  22409640.006   117763359.2792      -1222.024          49.000  
 25  8 13  8 57 29.2020000  0  8G 1G 8G 3G 2G 5G 6G 7G 4
  22409677.592   117763670.112       -1222.342          50.000  
  22409667.124   117763658.757       -1223.857          40.000  
  22409754.734   117763722.747       -1221.312          43.000  
  22409678.839   117763660.873       -1221.435          49.000  
  22409685.425   117763662.350       -1222.449          47.000  
  22409688.229   117763708.5562      -1221.779          46.000  
  22409678.267   117763656.353       -1224.537          40.000  
  22409688.050   117763603.6672      -1220.157          48.000  
 25  8 13  8 57 29.4020000  0  8G 1G 8G 3G 2G 5G 6G 7G 4
  22409724.115   117763914.641       -1222.052          49.000  
  22409713.820   117763903.124       -1223.360          41.000  
  22409801.262   117763967.134       -1220.730          43.000  
  22409725.334   117763905.318       -1221.683          46.000  
  22409731.845   117763906.660       -1222.423          46.000  
  22409731.159   117763953.1372      -1222.740          42.000  
  22409724.830   117763900.774       -1221.491          47.000  
  22409730.962   117763847.9402      -1222.162          48.000  
 25  8 13  8 57 29.6020000  0  8G 1G 8G 3G 2G 5G 6G 7G 4
  22409770.651   117764159.254       -1223.836          45.000  
  22409760.547   117764147.868       -1223.754          41.000  
  22409847.761   117764211.343       -1220.000          45.000  
  22409771.851   117764149.785       -1222.296          49.000  
  22409778.252   117764150.909       -1220.823          41.000  
  22409779.416   117764197.3962      -1223.569          46.000  
  22409771.437   117764145.425       -1222.687          39.000  
  22409773.234   117764092.2322      -1221.259          46.000  
 25  8 13  8 57 29.8020000  0  8G 1G 8G 3G 2G 5G 6G 7G 4
  22409817.076   117764403.790       -1221.771          40.000  
  22409807.247   117764392.316       -1222.314          46.000  
  22409894.302   117764455.799       -1221.471          44.000  
  22409818.450   117764394.331       -1223.982          47.000  
  22409824.540   117764395.212       -1220.377          35.000  
  22409826.566   117764441.8632      -1222.811          44.000  
  22409818.025   117764390.035       -1224.613          44.000  
  22409817.598   117764336.4752      -1220.926          45.000  
 25  8 13  8 57 30.0020000  0  8G 1G 8G 3G 2G 5G 6G 7G 4
  22409863.618   117764648.381       -1223.806          46.000  
  22409853.907   117764636.905       -1221.032          47.000  
  22409940.824   117764700.172       -1222.183          48.000  
  22409865.009   117764638.693       -1221.772          46.000  
  22409870.948   117764639.712       -1221.219          42.000  
  22409872.337   117764686.2502      -1219.767          42.000  
  22409864.550   117764634.426       -1223.140          44.000  
  22409863.191   117764580.8272      -1220.761          47.000  
 25  8 13  8 57 30.2020000  0  8G 1G 8G 3G 2G 5G 6G 7G 4
  22409910.128   117764892.864       -1222.208          46.000  
  22409900.604   117764881.604       -1222.198          46.000  
  22409987.336   117764944.570       -1223.142          49.000  
  22409911.560   117764883.167       -1221.120          45.000  
  22409917.300   117764883.900       -1221.551          41.000  
  22409917.632   117764930.7962      -1222.898          39.000  
  22409911.067   117764878.960       -1220.251          46.000  
  22409912.415   117764825.1462      -1222.901          46.000  
 25  8 13  8 57 30.4020000  0  8G 1G 8G 3G 2G 5G 6G 7G 4
  22409956.761   117765137.552       -1219.950          49.000  
  22409947.299   117765126.177       -1223.384          48.000  
  22410033.850   117765188.898       -1224.570          46.000  
  22409958.186   117765127.725       -1222.498          47.000  
  22409963.705   117765128.301       -1221.584          45.000  
  22409964.419   117765175.1642      -1220.115          44.000  
  22409957.600   117765123.511       -1220.814          49.000  
  22409955.963   117765069.4922      -1221.569          46.000  
 25  8 13  8 57 30.6020000  0  8G 1G 8G 3G 2G 5G 6G 7G 4
  22410003.321   117765382.162       -1224.514          47.000  
  22409993.917   117765370.687       -1224.646          45.000  
  22410080.286   117765433.128       -1221.119          49.000  
  22410004.660   117765372.150       -1223.731          44.000  
  22410010.118   117765372.604       -1224.033          45.000  
  22410010.765   117765419.7842      -1222.111          37.000  
  22410004.088   117765368.028       -1222.535          49.000  
  22410004.106   117765313.7642      -1221.928          47.000  
 25  8 13  8 57 30.8020000  0  8G 1G 8G 3G 2G 5G 6G 7G 4
  22410049.817   117765626.598       -1223.257          46.000  
  22410040.539   117765615.150       -1223.610          43.000  
  22410126.804   117765677.534       -1221.478          44.000  
  22410051.158   117765616.449       -1220.495          47.000  
  22410056.515   117765616.922       -1223.747          45.000  
  22410057.530   117765664.0372      -1222.872          45.000  
  22410050.635   117765612.561       -1222.427          46.000  
  22410052.963   117765558.080       -1222.843          49.000  
 25  8 13  8 57 31.0020000  0  8G 1G 8G 3G 2G 5G 6G 7G 4
  22410096.322   117765871.173       -1224.007          46.000  
  22410087.244   117765859.732       -1221.850          48.000  
  22410173.326   117765921.861       -1220.357          48.000  
  22410097.837   117765861.179       -1223.104          48.000  
  22410102.883   117765861.071       -1221.350          49.000  
  22410104.115   117765908.2282      -1221.730          45.000  
  22410097.164   117765856.922       -1222.508          47.000  
  22410101.452   117765802.206       -1221.285          50.000  
 25  8 13  8 57 31.2020000  0  8G 1G 8G 3G 2G 5G 6G 7G 4
  22410142.831   117766115.696       -1220.480          46.000  
  22410133.954   117766104.333       -1223.927          39.000  
  22410219.848   117766166.223       -1222.242          42.000  
  22410144.403   117766105.563       -1222.571          48.000  
  22410149.283   117766105.396       -1219.477          47.000  
  22410151.442   117766152.6402      -1222.405          48.000  
  22410143.709   117766101.425       -1222.465          47.000  
  22410146.076   117766046.647       -1221.295          48.000  
 25  8 13  8 57 31.4020000  0  8G 1G 8G 3G 2G 5G 6G 7G 4
  22410189.374   117766360.245       -1223.068          49.000  
  22410180.787   117766348.767       -1221.327          43.000  
  22410266.355   117766410.637       -1219.391          44.000  
  22410190.925   117766349.992       -1221.363          48.000  
  22410195.687   117766349.584       -1218.911          41.000  
  22410198.132   117766396.957       -1220.664          46.000  
  22410190.140   117766345.755       -1222.774          42.000  
  22410190.141   117766290.793       -1220.571          44.000  
 25  8 13  8 57 31.6020000  0  8G 1G 8G 3G 2G 5G 6G 7G 4
  22410235.908   117766604.856       -1222.880          45.000  
  22410227.499   117766593.303       -1220.577          43.000  
  22410312.940   117766655.085       -1223.807          45.000  
  22410237.502   117766594.523       -1222.494          48.000  
  22410242.037   117766593.942       -1222.260          44.000  
  22410244.554   117766641.175       -1220.115          46.000  
  22410236.651   117766590.201       -1221.362          47.000  
  22410234.981   117766535.082       -1221.110          46.000  
 25  8 13  8 57 31.8020000  0  8G 1G 8G 3G 2G 5G 6G 7G 4
  22410282.410   117766849.329       -1224.668          45.000  
  22410274.213   117766837.790       -1221.517          43.000  
  22410359.367   117766899.141       -1220.143          46.000  
  22410283.923   117766839.037       -1224.702          47.000  
  22410288.344   117766838.076       -1221.606          43.000  
  22410290.911   117766885.319       -1219.870          46.000  
  22410283.101   117766834.636       -1222.436          45.000  
  22410280.911   117766779.253       -1222.919          44.000  
 25  8 13  8 57 32.0020000  0  8G 1G 8G 3G 2G 5G 6G 7G 4
  22410328.903   117767093.804       -1221.370          46.000  
  22410320.870   117767082.219       -1224.901          42.000  
  22410405.900   117767143.800       -1222.252          50.000  
  22410330.371   117767083.389       -1221.470          41.000  
  22410334.665   117767082.197       -1221.601          42.000  
  22410337.393   117767129.790       -1222.953          41.000  
  22410329.612   117767078.929       -1222.577          44.000  
  22410330.584   117767023.409       -1219.353          47.000  
 25  8 13  8 57 32.2020000  0  8G 1G 8G 3G 2G 5G 6G 7G 4
  22410375.377   117767338.216       -1223.266          46.000  
  22410367.468   117767326.550       -1223.021          45.000  
  22410452.414   117767388.102       -1222.886          46.000  
  22410376.959   117767328.167       -1225.226          47.000  
  22410381.017   117767326.402       -1223.196          38.000  
  22410383.736   117767373.693       -1218.564          43.000  
  22410376.069   117767323.112       -1220.226          47.000  
  22410379.263   117767267.902       -1222.599          49.000  
 25  8 13  8 57 32.4020000  0  8G 1G 8G 3G 2G 5G 6G 7G 4
  22410421.890   117767582.800       -1223.506          45.000  
  22410414.028   117767570.872       -1221.552          41.000  
  22410498.865   117767632.477       -1222.167          47.000  
  22410423.508   117767572.468       -1222.462          48.000  
  22410427.336   117767570.534       -1221.129          48.000  
  22410430.145   117767617.952       -1219.436          40.000  
  22410422.559   117767567.428       -1222.042          46.000  
  22410424.791   117767512.199       -1222.984          48.000  
 25  8 13  8 57 32.6020000  0  8G 1G 8G 3G 2G 5G 6G 7G 4
  22410468.464   117767827.392       -1222.188          44.000  
  22410460.635   117767815.245       -1221.215          43.000  
  22410545.405   117767876.886       -1221.444          47.000  
  22410469.922   117767816.761       -1221.182          44.000  
  22410473.738   117767814.794       -1220.687          50.000  
  22410476.539   117767862.052       -1219.672          47.000  
  22410469.055   117767811.759       -1220.829          45.000  
  22410471.650   117767756.415       -1221.799          50.000  
 25  8 13  8 57 32.8020000  0  7G 1G 8G 3G 2G 5G 6G 4
  22410515.000   117768071.801       -1224.394          45.000  
  22410507.284   117768059.579       -1220.068          43.000  
  22410591.918   117768121.399       -1222.972          47.000  
  22410516.547   117768061.439       -1219.363          45.000  
  22410520.155   117768059.019       -1221.937          45.000  
  22410522.960   117768106.317       -1220.507          45.000  
  22410518.668   117768000.826       -1222.719          51.000  
 25  8 13  8 57 33.0020000  0  7G 1G 8G 3G 2G 5G 6G 4
  22410561.520   117768316.177       -1222.819          47.000  
  22410553.903   117768303.975       -1219.737          45.000  
  22410638.444   117768365.830       -1224.051          44.000  
  22410563.050   117768306.054       -1225.670          50.000  
  22410566.496   117768303.197       -1219.898          48.000  
  22410569.362   117768350.512       -1220.872          49.000  
  22410565.136   117768245.035       -1222.496          51.000  
 25  8 13  8 57 33.2020000  0  7G 1G 8G 3G 2G 5G 6G 4
  22410608.073   117768560.580       -1222.035          47.000  
  22410600.612   117768548.463       -1222.969          43.000  
  22410684.933   117768610.049       -1218.166          42.000  
  22410609.527   117768550.531       -1224.847          37.000  
  22410612.861   117768547.496       -1221.459          47.000  
  22410615.771   117768594.732       -1219.306          45.000  
  22410611.813   117768489.362       -1220.175          52.000  
 25  8 13  8 57 33.4020000  0  7G 1G 8G 3G 2G 5G 6G 4
  22410654.597   117768804.997       -1220.189          44.000  
  22410647.220   117768792.720       -1222.618          44.000  
  22410731.474   117768854.608       -1221.867          41.000  
  22410656.060   117768795.005       -1222.096          48.000  
  22410659.271   117768791.701       -1221.830          50.000  
  22410662.214   117768838.822       -1219.958          46.000  
  22410658.266   117768733.848       -1222.098          50.000  
 25  8 13  8 57 33.6020000  0  7G 1G 8G 3G 2G 5G 6G 4
  22410701.183   117769049.600       -1221.564          49.000  
  22410693.829   117769037.152       -1223.023          44.000  
  22410778.038   117769099.260       -1222.326          47.000  
  22410702.613   117769039.585       -1222.604          46.000  
  22410705.626   117769035.936       -1222.152          51.000  
  22410708.644   117769083.101       -1223.605          45.000  
  22410704.690   117768978.127       -1222.709          48.000  
 25  8 13  8 57 33.8020000  0  8G 1G 8G 3G 2G 5G 6G 7G 4
  22410747.690   117769294.099       -1224.886          47.000  
  22410740.486   117769281.405       -1220.010          42.000  
  22410824.560   117769343.691       -1223.427          46.000  
  22410749.050   117769284.106       -1224.353          44.000  
  22410752.004   117769280.262       -1222.246          50.000  
  22410755.012   117769327.264       -1221.467          50.000  
  22410747.965   117769275.1821      -1221.802          48.000  
  22410751.056   117769222.354       -1220.667          46.000  
 25  8 13  8 57 34.0020000  0  8G 1G 8G 3G 2G 5G 6G 7G 4
  22410794.288   117769538.563       -1222.056          46.000  
  22410787.139   117769525.987       -1220.829          44.000  
  22410871.116   117769588.255       -1224.108          44.000  
  22410795.603   117769528.688       -1222.971          48.000  
  22410798.363   117769524.474       -1220.864          50.000  
  22410801.491   117769571.590       -1221.265          47.000  
  22410794.472   117769519.459       -1221.189          48.000  
  22410797.457   117769466.882       -1220.514          49.000  
 25  8 13  8 57 34.2020000  0  8G 1G 8G 3G 2G 5G 6G 7G 4
  22410840.883   117769783.096       -1222.647          48.000  
  22410833.774   117769770.411       -1223.956          47.000  
  22410917.674   117769832.703       -1223.204          46.000  
  22410842.140   117769773.161       -1222.424          48.000  
  22410844.753   117769768.771       -1220.013          46.000  
  22410847.869   117769815.776       -1221.926          49.000  
  22410840.978   117769763.836       -1222.104          46.000  
  22410843.902   117769711.385       -1223.854          49.000  
 25  8 13  8 57 34.4020000  0  8G 1G 8G 3G 2G 5G 6G 7G 4
  22410887.423   117770027.615       -1223.878          46.000  
  22410880.407   117770014.737       -1222.167          45.000  
  22410964.220   117770077.268       -1224.920          44.000  
  22410888.745   117770017.862       -1223.275          51.000  
  22410891.201   117770013.228       -1223.497          48.000  
  22410894.297   117770060.074       -1220.195          46.000  
  22410887.487   117770008.221       -1221.714          43.000  
  22410890.278   117769955.713       -1224.608          49.000  
 25  8 13  8 57 34.6020000  0  8G 1G 8G 3G 2G 5G 6G 7G 4
  22410933.959   117770272.138       -1222.658          46.000  
  22410927.051   117770259.296       -1224.320          43.000  
  22411010.749   117770321.774       -1223.734          47.000  
  22410935.318   117770262.416       -1223.735          47.000  
  22410937.564   117770257.413       -1220.186          49.000  
  22410940.722   117770304.292       -1221.817          45.000  
  22410934.051   117770252.587       -1220.433          47.000  
  22410936.649   117770199.977       -1219.277          44.000  
 25  8 13  8 57 34.8020000  0  8G 1G 8G 3G 2G 5G 6G 7G 4
  22410980.567   117770516.774       -1223.771          49.000  
  22410973.692   117770503.680       -1222.067          46.000  
  22411057.308   117770566.378       -1224.223          47.000  
  22410981.936   117770507.095       -1223.386          47.000  
  22410983.955   117770501.814       -1221.559          48.000  
  22410987.096   117770548.601       -1220.038          48.000  
  22410980.610   117770496.959       -1222.290          46.000  
  22410983.111   117770444.514       -1219.744          48.000  
 25  8 13  8 57 35.0020000  0  8G 1G 8G 3G 2G 5G 6G 7G 4
  22411027.082   117770761.198       -1221.523          48.000  
  22411020.342   117770748.064       -1220.105          42.000  
  22411103.852   117770810.910       -1222.740          48.000  
  22411028.505   117770751.638       -1222.653          50.000  
  22411030.350   117770746.275       -1224.373          43.000  
  22411033.490   117770792.952       -1221.449          43.000  
  22411027.104   117770741.254       -1221.548          44.000  
  22411029.567   117770689.115       -1222.534          51.000  
 25  8 13  8 57 35.2020000  0  8G 1G 8G 3G 2G 5G 6G 7G 4
  22411073.661   117771005.849       -1222.755          46.000  
  22411067.003   117770992.667       -1223.269          45.000  
  22411150.437   117771055.561       -1223.284          45.000  
  22411075.068   117770996.319       -1223.296          46.000  
  22411076.702   117770990.442       -1219.448          47.000  
  22411079.785   117771037.169       -1221.379          45.000  
  22411073.644   117770985.698       -1222.947          43.000  
  22411075.999   117770933.628       -1223.044          46.000  
 25  8 13  8 57 35.4020000  0  8G 1G 8G 3G 2G 5G 6G 7G 4
  22411120.205   117771250.448       -1222.314          48.000  
  22411113.568   117771237.127       -1221.941          46.000  
  22411197.009   117771300.105       -1224.102          45.000  
  22411121.687   117771241.165       -1225.221          46.000  
  22411123.131   117771235.011       -1221.694          42.000  
  22411126.148   117771281.574       -1221.783          47.000  
  22411120.061   117771230.088       -1224.493          41.000  
  22411122.491   117771178.110       -1221.269          46.000  
 25  8 13  8 57 35.6020000  0  8G 1G 8G 3G 2G 5G 6G 7G 4
  22411166.702   117771495.146       -1224.135          36.000  
  22411160.179   117771481.650       -1223.155          45.000  
  22411243.510   117771544.651       -1220.955          45.000  
  22411168.273   117771485.742       -1225.386          46.000  
  22411169.481   117771479.381       -1224.475          43.000  
  22411172.560   117771525.833       -1220.365          47.000  
  22411166.553   117771474.372       -1223.592          46.000  
  22411168.988   117771422.627       -1222.443          51.000  
 25  8 13  8 57 35.8020000  0  8G 1G 8G 3G 2G 5G 6G 7G 4
  22411213.261   117771739.824       -1224.374          40.000  
  22411206.859   117771726.208       -1223.444          45.000  
  22411290.151   117771789.349       -1223.458          44.000  
  22411214.948   117771730.533       -1223.110          46.000  
  22411215.889   117771723.733       -1221.647          41.000  
  22411218.949   117771770.228       -1222.067          47.000  
  22411212.894   117771718.814       -1225.597          41.000  
  22411215.448   117771667.208       -1225.146          46.000  
 25  8 13  8 57 36.0020000  0  8G 1G 8G 3G 2G 5G 6G 7G 4
  22411259.871   117771984.594       -1224.487          41.000  
  22411253.467   117771970.646       -1224.159          40.000  
  22411336.695   117772034.000       -1223.722          44.000  
  22411261.552   117771975.163       -1224.169          47.000  
  22411262.299   117771968.121       -1220.755          44.000  
  22411265.280   117772014.633       -1220.613          47.000  
  22411259.345   117771963.367       -1227.713          37.000  
  22411261.847   117771911.617       -1222.619          47.000  
 25  8 13  8 57 36.2020000  0  8G 1G 8G 3G 2G 5G 6G 7G 4
  22411306.376   117772229.046       -1223.466          45.000  
  22411300.110   117772215.139       -1222.207          41.000  
  22411383.239   117772278.671       -1222.969          45.000  
  22411308.086   117772219.764       -1223.898          47.000  
  22411308.766   117772212.525       -1219.233          49.000  
  22411311.773   117772259.067       -1221.595          45.000  
  22411305.937   117772207.765       -1221.859          45.000  
  22411308.354   117772156.212       -1221.855          48.000  
 25  8 13  8 57 36.4020000  0  8G 1G 8G 3G 2G 5G 6G 7G 4
  22411352.858   117772473.554       -1222.415          46.000  
  22411346.788   117772459.713       -1222.461          40.000  
  22411429.920   117772523.565       -1225.161          46.000  
  22411354.637   117772464.504       -1223.334          42.000  
  22411355.237   117772457.035       -1222.583          46.000  
  22411358.178   117772503.401       -1222.219          43.000  
  22411352.488   117772452.106       -1223.020          47.000  
  22411354.793   117772400.843       -1222.762          49.000  
 25  8 13  8 57 36.6020000  0  8G 1G 8G 3G 2G 5G 6G 7G 4
  22411399.402   117772718.101       -1221.268          47.000  
  22411393.428   117772704.195       -1221.110          42.000  
  22411476.488   117772768.107       -1222.354          44.000  
  22411401.251   117772709.234       -1222.299          48.000  
  22411401.672   117772701.565       -1222.076          48.000  
  22411404.571   117772747.798       -1221.639          45.000  
  22411398.927   117772696.412       -1220.303          44.000  
  22411401.265   117772645.523       -1224.771          49.000  
 25  8 13  8 57 36.8020000  0  8G 1G 8G 3G 2G 5G 6G 7G 4
  22411446.006   117772962.852       -1221.974          45.000  
  22411440.062   117772948.673       -1221.689          42.000  
  22411523.079   117773012.931       -1222.464          46.000  
  22411447.899   117772953.988       -1224.542          46.000  
  22411448.120   117772954.1353      -1222.862          51.000  
  22411451.035   117772992.258       -1223.620          45.000  
  22411445.423   117772940.832       -1223.154          47.000  
  22411447.710   117772890.115       -1223.951          47.000  
 25  8 13  8 57 37.0020000  0  8G 1G 8G 3G 2G 5G 6G 7G 4
  22411495.637                       -1222.260          41.000  
  22411486.756   117773193.168       -1219.809          43.000  
  22411569.624   117773257.577       -1225.052          46.000  
  22411494.444   117773198.611       -1224.471          44.000  
  22411494.604   117773198.6032      -1221.258          48.000  
  22411497.448   117773236.522       -1221.333          44.000  
  22411491.916   117773185.164       -1219.340          41.000  
  22411494.220   117773134.734       -1222.713          45.000  
 25  8 13  8 57 37.2020000  0  8G 1G 8G 3G 2G 5G 6G 7G 4
  22411545.280   117773464.9613      -1223.409          46.000  
  22411533.384   117773437.724       -1224.222          43.000  
  22411616.143   117773502.204       -1222.369          45.000  
  22411540.960   117773443.129       -1222.877          39.000  
  22411541.162   117773443.2112      -1223.431          48.000  
  22411543.915   117773480.949       -1221.207          50.000  
  22411538.452   117773429.624       -1224.165          48.000  
  22411540.718   117773379.377       -1221.996          50.000  
 25  8 13  8 57 37.4020000  0  8G 1G 8G 3G 2G 5G 6G 7G 4
  22411587.278   117773709.3892      -1222.654          47.000  
  22411579.898   117773681.768       -1221.027          48.000  
  22411662.683   117773746.736       -1221.402          49.000  
  22411587.455   117773687.647       -1223.326          46.000  
  22411587.601   117773687.5992      -1222.883          45.000  
  22411590.376   117773725.318       -1222.661          49.000  
  22411584.905   117773673.754       -1221.499          46.000  
  22411587.172   117773623.953       -1222.421          44.000  
 25  8 13  8 57 37.6020000  0  8G 1G 8G 3G 2G 5G 6G 7G 4
  22411629.862   117773953.4292      -1219.251          41.000  
  22411626.501   117773926.057       -1218.354          39.000  
  22411709.245   117773991.306       -1223.719          45.000  
  22411633.891   117773931.995       -1220.494          43.000  
  22411634.023   117773932.0492      -1222.885          48.000  
  22411636.806   117773969.500       -1222.091          49.000  
  22411631.374   117773917.862       -1218.390          45.000  
  22411633.680   117773868.537       -1225.109          48.000  
 25  8 13  8 57 37.8020000  0  8G 1G 8G 3G 2G 5G 6G 7G 4
  22411680.955   117774197.8832      -1221.653          45.000  
  22411672.994   117774170.088       -1220.155          45.000  
  22411755.781   117774235.663       -1222.218          42.000  
  22411680.369   117774176.402       -1218.821          41.000  
  22411680.504   117774176.4552      -1222.685          49.000  
  22411683.242   117774213.866       -1220.681          48.000  
  22411677.872   117774162.196       -1220.500          47.000  
  22411680.139   117774112.936       -1223.867          46.000  
