     2.10           OBSERVATION DATA    M (MIXED)           RINEX VERSION / TYPE
RTKCONV 2.4.2                           20200424 140712 UTC PGM / RUN BY / DATE 
log: G:\54\GPS\0424\gps-4-1                                 COMMENT             
format: u-blox                                              COMMENT             
                                                            MARKER NAME         
                                                            MARKER NUMBER       
                                                            OBSERVER / AGENCY   
                                                            REC # / TYPE / VERS 
                                                            ANT # / TYPE        
        0.0000        0.0000        0.0000                  APPROX POSITION XYZ 
        0.0000        0.0000        0.0000                  ANTENNA: DELTA H/E/N
     1     1                                                WAVELENGTH FACT L1/2
     4    C1    L1    D1    S1                              # / TYPES OF OBSERV 
  2025     8    13     8    48    9.2020000     GPS         TIME OF FIRST OBS   
  2025     8    13     8    50   13.4020000     GPS         TIME OF LAST OBS    
                                                            END OF HEADER       
 25  8 13  8 48  9.2020000  0 29G 1G31G27G 8G 6G 2G24G17G19G29G 5G 4
                                G10G16G15G 7G13G20G23G 9G 3G26G22G18
                                G12G21G25G14G11
  22279259.445   117078500.313       -1225.327          50.000  
  22245884.867   116902912.598       -1225.409          40.000  
  22221855.221   116776636.940       -1225.401          40.000  
  22279286.989   117078481.812       -1225.374          50.000  
  22279293.814   117078486.458       -1225.367          50.000  
  22279286.635   117078494.539       -1225.307          50.000  
  22182294.107   116568751.625       -1225.404          39.000  
  22261717.265   116986123.021       -1225.411          37.000  
  22288084.032   117124700.099       -1225.291          38.000  
  22262883.021   116992276.552       -1225.234          37.000  
  22279287.928   117078454.338       -1225.434          44.000  
  22279286.131   117078479.664       -1225.397          49.000  
  22379936.011   117607355.452       -1225.545          38.000  
  22142732.628   116360920.043       -1225.421          39.000  
  22237097.833   116856823.030       -1225.316          37.000  
  22279276.916   117078496.177       -1225.388          50.000  
  22256434.544   116958389.550       -1225.325          37.000  
  22322081.547   117303350.559       -1225.552          39.000  
  22293358.775   117152411.332       -1225.273          38.000  
  22430802.189   117874657.065       -1225.263          38.000  
  22279282.325   117078459.526       -1225.361          50.000  
  22245008.168   116898320.964       -1225.436          39.000  
  22318563.971   117284865.523       -1225.425          40.000  
  22390358.920   117662135.229       -1225.314          39.000  
  22158847.790   116445561.572       -1225.400          40.000  
  22127199.031   116279234.310       -1225.397          39.000  
  22285448.570   117110826.921       -1225.376          39.000  
  22133353.890   116311590.072       -1225.320          40.000  
  22446627.209   117957826.419       -1225.445          38.000  
 25  8 13  8 48  9.4020000  0 29G 1G31G27G 8G 6G 2G24G17G19G29G 5G 4
                                G10G16G15G 7G13G20G23G 9G 3G26G22G18
                                G12G21G25G14G11
  22279305.824   117078745.366       -1225.300          50.000  
  22245931.472   116903157.650       -1225.267          40.000  
  22221901.875   116776881.989       -1225.256          40.000  
  22279333.587   117078726.862       -1225.270          50.000  
  22279340.452   117078731.507       -1225.229          50.000  
  22279333.236   117078739.588       -1225.217          50.000  
  22182340.711   116568996.679       -1225.341          39.000  
  22261763.863   116986368.076       -1225.247          37.000  
  22288130.688   117124945.163       -1225.390          38.000  
  22262929.656   116992521.610       -1225.377          37.000  
  22279334.518   117078699.388       -1225.242          44.000  
  22279332.718   117078724.716       -1225.254          49.000  
  22379982.674   117607600.497       -1225.225          38.000  
  22142779.196   116361165.090       -1225.374          39.000  
  22237144.400   116857068.080       -1225.176          37.000  
  22279323.543   117078741.227       -1225.247          50.000  
  22256481.224   116958634.610       -1225.330          37.000  
  22322128.143   117303595.603       -1225.179          39.000  
  22293405.401   117152656.386       -1225.265          38.000  
  22430848.791   117874902.127       -1225.356          37.000  
  22279328.933   117078704.576       -1225.260          50.000  
  22245054.758   116898566.012       -1225.215          39.000  
  22318610.571   117285110.573       -1225.196          40.000  
  22390405.555   117662380.281       -1225.275          39.000  
  22158894.350   116445806.624       -1225.223          39.000  
  22127245.632   116279479.360       -1225.118          39.000  
  22285495.187   117111071.973       -1225.254          39.000  
  22133400.440   116311835.126       -1225.248          40.000  
  22446673.844   117958071.474       -1225.287          38.000  
 25  8 13  8 48  9.6020000  0 29G 1G31G27G 8G 6G 2G24G17G19G29G 5G 4
                                G10G16G15G 7G13G20G23G 9G 3G26G22G18
                                G12G21G25G14G11
  22279352.148   117078990.419       -1225.269          50.000  
  22245978.094   116903402.703       -1225.296          39.000  
  22221948.458   116777127.043       -1225.156          40.000  
  22279380.120   117078971.915       -1225.243          50.000  
  22279387.107   117078976.563       -1225.269          50.000  
  22279379.785   117078984.644       -1225.249          50.000  
  22182387.366   116569241.732       -1225.344          39.000  
  22261810.493   116986613.137       -1225.426          37.000  
  22288177.331   117125190.214       -1225.374          38.000  
  22262976.319   116992766.659       -1225.303          37.000  
  22279381.124   117078944.445       -1225.309          44.000  
  22279379.319   117078969.773       -1225.321          49.000  
  22380029.307   117607845.551       -1225.190          38.000  
  22142825.799   116361410.145       -1225.389          39.000  
  22237190.989   116857313.142       -1225.345          37.000  
  22279370.103   117078986.284       -1225.294          50.000  
  22256527.817   116958879.662       -1225.281          37.000  
  22322174.793   117303840.672       -1225.383          39.000  
  22293452.017   117152901.439       -1225.297          38.000  
  22430895.425   117875147.177       -1225.294          37.000  
  22279375.451   117078949.631       -1225.249          50.000  
  22245101.351   116898811.070       -1225.301          39.000  
  22318657.247   117285355.630       -1225.264          40.000  
  22390452.169   117662625.339       -1225.334          39.000  
  22158940.982   116446051.686       -1225.332          39.000  
  22127292.269   116279724.420       -1225.197          39.000  
  22285541.802   117111317.032       -1225.352          40.000  
  22133447.038   116312080.184       -1225.339          40.000  
  22446720.504   117958316.524       -1225.170          38.000  
 25  8 13  8 48  9.8020000  0 29G 1G31G27G 8G 6G 2G24G17G19G29G 5G 4
                                G10G16G15G 7G13G20G23G 9G 3G26G22G18
                                G12G21G25G14G11
  22279398.724   117079235.479       -1225.319          50.000  
  22246024.729   116903647.763       -1225.280          39.000  
  22221995.082   116777372.106       -1225.286          40.000  
  22279426.729   117079216.975       -1225.294          50.000  
  22279433.739   117079221.620       -1225.260          50.000  
  22279426.324   117079229.700       -1225.229          50.000  
  22182434.012   116569486.790       -1225.308          39.000  
  22261857.114   116986858.191       -1225.339          38.000  
  22288223.968   117125435.267       -1225.364          38.000  
  22263022.986   116993011.724       -1225.295          37.000  
  22279427.766   117079189.505       -1225.352          44.000  
  22279426.014   117079214.831       -1225.326          49.000  
  22380075.965   117608090.612       -1225.312          38.000  
  22142872.365   116361655.198       -1225.259          39.000  
  22237237.576   116857558.195       -1225.259          37.000  
  22279416.740   117079231.342       -1225.286          50.000  
  22256574.473   116959124.723       -1225.378          37.000  
  22322221.405   117304085.728       -1225.372          39.000  
  22293498.706   117153146.498       -1225.286          39.000  
  22430942.062   117875392.226       -1225.231          37.000  
  22279422.073   117079194.690       -1225.253          50.000  
  22245147.992   116899056.124       -1225.240          39.000  
  22318703.876   117285600.690       -1225.258          40.000  
  22390498.810   117662870.399       -1225.300          39.000  
  22158987.606   116446296.740       -1225.333          39.000  
  22127338.936   116279969.482       -1225.403          39.000  
  22285588.475   117111562.089       -1225.306          40.000  
  22133493.634   116312325.243       -1225.299          40.000  
  22446767.132   117958561.585       -1225.333          38.000  
 25  8 13  8 48 10.0020000  0 29G 1G31G27G 8G 6G 2G24G17G19G29G 5G 4
                                G10G16G15G 7G13G20G23G 9G 3G26G22G18
                                G12G21G25G14G11
  22279445.512   117079480.512       -1225.259          50.000  
  22246071.360   116903892.798       -1225.236          39.000  
  22222041.738   116777617.157       -1225.421          40.000  
  22279473.291   117079462.017       -1225.292          50.000  
  22279480.395   117079466.659       -1225.216          50.000  
  22279472.869   117079474.738       -1225.191          50.000  
  22182480.688   116569731.821       -1225.153          39.000  
  22261903.735   116987103.238       -1225.436          38.000  
  22288270.583   117125680.304       -1225.223          38.000  
  22263069.563   116993256.738       -1225.057          37.000  
  22279474.438   117079434.549       -1225.366          44.000  
  22279472.705   117079459.865       -1225.252          49.000  
  22380122.633   117608335.657       -1225.424          38.000  
  22142918.971   116361900.225       -1225.144          39.000  
  22237284.183   116857803.238       -1225.293          37.000  
  22279463.335   117079476.380       -1225.250          50.000  
  22256621.092   116959369.784       -1225.589          37.000  
  22322268.041   117304330.780       -1225.448          39.000  
  22293545.273   117153391.512       -1224.997          39.000  
  22430988.662   117875637.244       -1224.942          37.000  
  22279468.694   117079439.734       -1225.280          50.000  
  22245194.604   116899301.175       -1225.403          39.000  
  22318750.485   117285845.719       -1225.174          40.000  
  22390545.453   117663115.440       -1225.322          39.000  
  22159034.254   116446541.802       -1225.605          39.000  
  22127385.592   116280214.516       -1225.286          39.000  
  22285635.093   117111807.137       -1225.396          40.000  
  22133540.212   116312570.269       -1225.142          40.000  
  22446813.792   117958806.615       -1225.220          38.000  
 25  8 13  8 48 10.2020000  0 29G 1G31G27G 8G 6G 2G24G17G19G29G 5G 4
                                G10G16G15G 7G13G20G23G 9G 3G26G22G18
                                G12G21G25G14G11
  22279492.683   117079725.569       -1225.393          49.000  
  22246117.958   116904137.845       -1225.296          39.000  
  22222088.385   116777862.207       -1225.362          40.000  
  22279519.897   117079707.069       -1225.348          50.000  
  22279527.019   117079711.712       -1225.323          50.000  
  22279519.448   117079719.791       -1225.358          50.000  
  22182527.339   116569976.874       -1225.336          39.000  
  22261950.361   116987348.283       -1225.366          38.000  
  22288317.164   117125925.360       -1225.441          38.000  
  22263116.142   116993501.802       -1225.376          37.000  
  22279521.053   117079679.598       -1225.323          44.000  
  22279519.443   117079704.918       -1225.356          49.000  
  22380169.284   117608580.706       -1225.282          38.000  
  22142965.587   116362145.283       -1225.498          39.000  
  22237330.798   116858048.292       -1225.421          37.000  
  22279509.949   117079721.432       -1225.375          50.000  
  22256667.786   116959614.825       -1225.386          37.000  
  22322314.643   117304575.826       -1225.349          39.000  
  22293591.954   117153636.573       -1225.305          39.000  
  22431035.254   117875882.308       -1225.371          37.000  
  22279515.320   117079684.785       -1225.363          50.000  
  22245241.242   116899546.223       -1225.342          39.000  
  22318797.125   117286090.773       -1225.333          40.000  
  22390592.093   117663360.489       -1225.383          39.000  
  22159080.894   116446786.845       -1225.359          39.000  
  22127432.156   116280459.572       -1225.394          39.000  
  22285681.766   117112052.179       -1225.333          40.000  
  22133586.783   116312815.328       -1225.419          40.000  
  22446860.397   117959051.672       -1225.273          38.000  
 25  8 13  8 48 10.4020000  0 29G 1G31G27G 8G 6G 2G24G17G19G29G 5G 4
                                G10G16G15G 7G13G20G23G 9G 3G26G22G18
                                G12G21G25G14G11
  22279539.880   117079970.625       -1225.283          49.000  
  22246164.557   116904382.905       -1225.269          39.000  
  22222134.955   116778107.269       -1225.255          40.000  
  22279566.480   117079952.129       -1225.310          50.000  
  22279573.672   117079956.774       -1225.309          50.000  
  22279565.941   117079964.853       -1225.316          50.000  
  22182573.927   116570221.938       -1225.306          39.000  
  22261996.984   116987593.347       -1225.267          38.000  
  22288363.767   117126170.415       -1225.242          38.000  
  22263162.754   116993746.858       -1225.247          37.000  
  22279567.701   117079924.660       -1225.342          44.000  
  22279566.150   117079949.980       -1225.300          49.000  
  22380215.899   117608825.767       -1225.248          38.000  
  22143012.184   116362390.337       -1225.298          39.000  
  22237377.415   116858293.346       -1225.225          37.000  
  22279556.533   117079966.492       -1225.302          50.000  
  22256714.426   116959859.884       -1225.191          37.000  
  22322361.257   117304820.890       -1225.319          39.000  
  22293638.546   117153881.633       -1225.267          39.000  
  22431081.876   117876127.362       -1225.222          37.000  
  22279561.890   117079929.847       -1225.322          50.000  
  22245287.831   116899791.286       -1225.309          39.000  
  22318843.688   117286335.830       -1225.224          40.000  
  22390638.771   117663605.549       -1225.294          39.000  
  22159127.513   116447031.907       -1225.253          39.000  
  22127478.810   116280704.634       -1225.212          39.000  
  22285728.384   117112297.245       -1225.326          40.000  
  22133633.394   116313060.385       -1225.295          40.000  
  22446907.030   117959296.731       -1225.201          38.000  
 25  8 13  8 48 10.6020000  0 29G 1G31G27G 8G 6G 2G24G17G19G29G 5G 4
                                G10G16G15G 7G13G20G23G 9G 3G26G22G18
                                G12G21G25G14G11
  22279587.231   117080215.660       -1225.119          49.000  
  22246211.189   116904627.943       -1225.152          39.000  
  22222181.618   116778352.307       -1225.124          40.000  
  22279613.067   117080197.163       -1225.074          50.000  
  22279620.312   117080201.810       -1225.086          50.000  
  22279612.508   117080209.886       -1225.087          50.000  
  22182620.565   116570466.968       -1225.046          39.000  
  22262043.603   116987838.381       -1225.039          38.000  
  22288410.361   117126415.457       -1225.151          38.000  
  22263209.349   116993991.895       -1225.033          37.000  
  22279614.310   117080169.697       -1225.065          44.000  
  22279612.872   117080195.017       -1225.113          49.000  
  22380262.546   117609070.802       -1225.133          38.000  
  22143058.771   116362635.374       -1224.990          39.000  
  22237424.060   116858538.386       -1225.138          37.000  
  22279603.103   117080211.523       -1225.068          50.000  
  22256761.079   116960104.923       -1225.176          36.000  
  22322407.865   117305065.922       -1225.135          39.000  
  22293685.102   117154126.667       -1225.093          39.000  
  22431128.537   117876372.396       -1225.052          37.000  
  22279608.450   117080174.882       -1225.097          50.000  
  22245334.471   116900036.317       -1225.068          39.000  
  22318890.327   117286580.874       -1225.203          40.000  
  22390685.408   117663850.584       -1225.006          39.000  
  22159174.126   116447276.943       -1225.078          39.000  
  22127525.403   116280949.671       -1225.156          39.000  
  22285775.025   117112542.278       -1225.102          40.000  
  22133679.987   116313305.419       -1225.027          40.000  
  22446953.624   117959541.769       -1225.178          38.000  
 25  8 13  8 48 10.8020000  0 29G 1G31G27G 8G 6G 2G24G17G19G29G 5G 4
                                G10G16G15G 7G13G20G23G 9G 3G26G22G18
                                G12G21G25G14G11
  22279634.520   117080460.697       -1225.294          49.000  
  22246257.826   116904872.974       -1225.191          39.000  
  22222228.237   116778597.343       -1225.277          40.000  
  22279659.697   117080442.190       -1225.143          50.000  
  22279666.958   117080446.845       -1225.212          50.000  
  22279659.079   117080454.922       -1225.219          50.000  
  22182667.171   116570712.004       -1225.212          39.000  
  22262090.184   116988083.421       -1225.288          38.000  
  22288457.011   117126660.491       -1225.305          38.000  
  22263256.000   116994236.935       -1225.208          37.000  
  22279660.939   117080414.726       -1225.154          44.000  
  22279659.624   117080440.053       -1225.257          49.000  
  22380309.171   117609315.837       -1225.279          38.000  
  22143105.398   116362880.417       -1225.339          39.000  
  22237470.692   116858783.420       -1225.231          37.000  
  22279649.690   117080456.561       -1225.198          50.000  
  22256807.669   116960349.959       -1225.324          36.000  
  22322454.487   117305310.960       -1225.311          39.000  
  22293731.744   117154371.704       -1225.269          39.000  
  22431175.178   117876617.436       -1225.298          37.000  
  22279655.024   117080419.914       -1225.174          50.000  
  22245381.035   116900281.350       -1225.191          39.000  
  22318936.934   117286825.905       -1225.298          40.000  
  22390732.051   117664095.622       -1225.264          39.000  
  22159220.762   116447521.981       -1225.264          40.000  
  22127572.061   116281194.705       -1225.266          39.000  
  22285821.617   117112787.313       -1225.229          40.000  
  22133726.602   116313550.461       -1225.309          40.000  
  22447000.271   117959786.812       -1225.375          38.000  
 25  8 13  8 48 11.0020000  0 29G 1G31G27G 8G 6G 2G24G17G19G29G 5G 4
                                G10G16G15G 7G13G20G23G 9G 3G26G22G18
                                G12G21G25G14G11
  22279681.546   117080705.759       -1225.338          49.000  
  22246304.484   116905118.027       -1225.400          39.000  
  22222274.863   116778842.374       -1225.719          40.000  
  22279706.293   117080687.252       -1225.431          50.000  
  22279713.572   117080691.903       -1225.353          50.000  
  22279705.648   117080699.983       -1225.347          50.000  
  22182713.789   116570957.079       -1225.300          39.000  
  22262136.815   116988328.457       -1225.472          38.000  
  22288503.628   117126905.545       -1225.488          38.000  
  22263302.619   116994481.984       -1225.613          37.000  
  22279707.574   117080659.792       -1225.455          44.000  
  22279706.313   117080685.110       -1225.319          49.000  
  22380355.824   117609560.885       -1225.296          38.000  
  22143152.006   116363125.482       -1225.273          39.000  
  22237517.287   116859028.462       -1225.609          37.000  
  22279696.279   117080701.625       -1225.390          50.000  
  22256854.306   116960595.011       -1225.303          36.000  
  22322501.102   117305556.010       -1225.400          39.000  
  22293778.370   117154616.767       -1225.297          37.000  
  22431221.813   117876862.516       -1225.218          37.000  
  22279701.617   117080664.965       -1225.315          50.000  
  22245427.639   116900526.404       -1225.283          38.000  
  22318983.539   117287070.962       -1225.261          40.000  
  22390778.666   117664340.670       -1225.495          39.000  
  22159267.358   116447767.022       -1225.529          39.000  
  22127618.688   116281439.752       -1225.441          39.000  
  22285868.218   117113032.376       -1225.239          39.000  
  22133773.195   116313795.529       -1225.369          40.000  
  22447046.887   117960031.875       -1225.243          38.000  
 25  8 13  8 48 11.2020000  0 29G 1G31G27G 8G 6G 2G24G17G19G29G 5G 4
                                G10G16G15G 7G13G20G23G 9G 3G26G22G18
                                G12G21G25G14G11
  22279728.516   117080950.830       -1225.368          49.000  
  22246351.097   116905363.097       -1225.288          40.000  
  22222321.448   116779087.435       -1225.245          40.000  
  22279752.894   117080932.320       -1225.238          50.000  
  22279760.219   117080936.971       -1225.279          50.000  
  22279752.196   117080945.055       -1225.290          50.000  
  22182760.422   116571202.148       -1225.342          39.000  
  22262183.406   116988573.530       -1225.320          37.000  
  22288550.235   117127150.612       -1225.303          38.000  
  22263349.237   116994727.044       -1225.331          37.000  
  22279754.234   117080904.861       -1225.233          44.000  
  22279752.984   117080930.173       -1225.377          49.000  
  22380402.459   117609805.961       -1225.293          38.000  
  22143198.638   116363370.555       -1225.393          39.000  
  22237563.870   116859273.527       -1225.319          37.000  
  22279742.894   117080946.682       -1225.221          50.000  
  22256900.937   116960840.086       -1225.313          37.000  
  22322547.725   117305801.079       -1225.348          39.000  
  22293825.052   117154861.836       -1225.297          37.000  
  22431268.453   117877107.583       -1225.352          37.000  
  22279748.222   117080910.032       -1225.291          50.000  
  22245474.256   116900771.485       -1225.319          38.000  
  22319030.166   117287316.039       -1225.311          40.000  
  22390825.295   117664585.736       -1225.327          39.000  
  22159313.978   116448012.092       -1225.355          39.000  
  22127665.330   116281684.823       -1225.294          38.000  
  22285914.850   117113277.450       -1225.313          39.000  
  22133819.801   116314040.594       -1225.310          40.000  
  22447093.546   117960276.951       -1225.387          38.000  
 25  8 13  8 48 11.4020000  0 29G 1G31G27G 8G 6G 2G24G17G19G29G 5G 4
                                G10G16G15G 7G13G20G23G 9G 3G26G22G18
                                G12G21G25G14G11
  22279775.569   117081195.869       -1225.264          49.000  
  22246397.743   116905608.139       -1225.348          40.000  
  22222368.091   116779332.479       -1225.334          40.000  
  22279799.528   117081177.364       -1225.287          50.000  
  22279806.880   117081182.018       -1225.339          50.000  
  22279798.798   117081190.098       -1225.321          50.000  
  22182807.057   116571447.184       -1225.325          39.000  
  22262230.032   116988818.573       -1225.466          37.000  
  22288596.827   117127395.656       -1225.381          38.000  
  22263395.896   116994972.091       -1225.425          37.000  
  22279800.879   117081149.900       -1225.308          44.000  
  22279799.651   117081175.214       -1225.342          49.000  
  22380449.083   117610051.006       -1225.412          38.000  
  22143245.253   116363615.594       -1225.334          39.000  
  22237610.471   116859518.570       -1225.320          37.000  
  22279789.473   117081191.733       -1225.377          50.000  
  22256947.610   116961085.125       -1225.325          37.000  
  22322594.379   117306046.119       -1225.294          39.000  
  22293871.705   117155106.880       -1225.326          37.000  
  22431315.082   117877352.630       -1225.332          37.000  
  22279794.853   117081155.079       -1225.324          50.000  
  22245520.860   116901016.526       -1225.359          38.000  
  22319076.782   117287561.081       -1225.414          40.000  
  22390871.909   117664830.780       -1225.274          39.000  
  22159360.564   116448257.129       -1225.370          39.000  
  22127711.978   116281929.863       -1225.264          38.000  
  22285961.524   117113522.491       -1225.328          39.000  
  22133866.412   116314285.637       -1225.370          40.000  
  22447140.204   117960521.990       -1225.344          38.000  
 25  8 13  8 48 11.6020000  0 29G 1G31G27G 8G 6G 2G24G17G19G29G 5G 4
                                G10G16G15G 7G13G20G23G 9G 3G26G22G18
                                G12G21G25G14G11
  22279821.783   117081440.913       -1225.254          49.000  
  22246444.308   116905853.186       -1225.235          40.000  
  22222414.693   116779577.525       -1225.294          40.000  
  22279846.100   117081422.409       -1225.233          50.000  
  22279853.531   117081427.057       -1225.175          50.000  
  22279845.369   117081435.136       -1225.190          50.000  
  22182853.681   116571692.227       -1225.098          39.000  
  22262276.618   116989063.604       -1225.020          37.000  
  22288643.462   117127640.690       -1225.106          38.000  
  22263442.547   116995217.130       -1225.190          37.000  
  22279847.532   117081394.944       -1225.279          44.000  
  22279845.919   117081420.263       -1225.220          49.000  
  22380495.704   117610296.048       -1225.163          38.000  
  22143291.849   116363860.637       -1225.208          39.000  
  22237657.080   116859763.609       -1225.257          37.000  
  22279836.058   117081436.775       -1225.195          50.000  
  22256994.201   116961330.173       -1225.279          37.000  
  22322640.991   117306291.165       -1225.227          40.000  
  22293918.320   117155351.927       -1225.346          37.000  
  22431361.751   117877597.667       -1225.198          37.000  
  22279841.408   117081400.126       -1225.239          50.000  
  22245567.478   116901261.562       -1225.205          38.000  
  22319123.323   117287806.120       -1225.146          40.000  
  22390918.553   117665075.828       -1225.361          38.000  
  22159407.177   116448502.171       -1225.128          39.000  
  22127758.623   116282174.909       -1225.339          38.000  
  22286008.116   117113767.531       -1225.198          39.000  
  22133912.960   116314530.679       -1225.121          40.000  
  22447186.842   117960767.030       -1225.211          38.000  
 25  8 13  8 48 11.8020000  0 29G 1G31G27G 8G 6G 2G24G17G19G29G 5G 4
                                G10G16G15G 7G13G20G23G 9G 3G26G22G18
                                G12G21G25G14G11
  22279867.833   117081685.941       -1225.155          49.000  
  22246490.953   116906098.232       -1225.369          40.000  
  22222461.319   116779822.583       -1225.500          40.000  
  22279892.655   117081667.445       -1225.205          50.000  
  22279900.152   117081672.089       -1225.187          50.000  
  22279891.926   117081680.167       -1225.168          50.000  
  22182900.286   116571937.244       -1224.928          39.000  
  22262323.269   116989308.667       -1225.424          37.000  
  22288690.074   117127885.737       -1225.400          38.000  
  22263489.164   116995462.171       -1225.233          37.000  
  22279894.188   117081639.984       -1225.262          44.000  
  22279892.617   117081665.297       -1225.257          49.000  
  22380542.327   117610541.103       -1225.504          38.000  
  22143338.453   116364105.671       -1225.319          39.000  
  22237703.710   116860008.659       -1225.461          37.000  
  22279882.633   117081681.807       -1225.180          50.000  
  22257040.863   116961575.153       -1224.558          37.000  
  22322687.622   117306536.199       -1225.170          39.000  
  22293964.898   117155596.947       -1225.041          37.000  
  22431408.407   117877842.699       -1225.308          37.000  
  22279888.012   117081645.158       -1225.165          50.000  
  22245614.101   116901506.592       -1225.094          38.000  
  22319169.969   117288051.163       -1225.272          40.000  
  22390965.193   117665320.870       -1225.326          38.000  
  22159453.803   116448747.210       -1225.260          39.000  
  22127805.268   116282419.951       -1225.280          38.000  
  22286054.831   117114012.551       -1224.942          39.000  
  22133959.552   116314775.691       -1224.889          40.000  
  22447233.464   117961012.056       -1225.170          38.000  
 25  8 13  8 48 12.0020000  0 29G 1G31G27G 8G 6G 2G24G17G19G29G 5G 4
                                G10G16G15G 7G13G20G23G 9G 3G26G22G18
                                G12G21G25G14G11
  22279913.933   117081930.959       -1225.027          49.000  
  22246537.557   116906343.247       -1225.107          40.000  
  22222507.944   116780067.594       -1225.176          40.000  
  22279939.258   117081912.464       -1225.120          50.000  
  22279946.784   117081917.104       -1225.037          50.000  
  22279938.479   117081925.192       -1225.199          50.000  
  22182946.935   116572182.268       -1225.099          39.000  
  22262369.870   116989553.678       -1225.191          37.000  
  22288736.661   117128130.749       -1225.061          38.000  
  22263535.805   116995707.190       -1225.125          37.000  
  22279940.764   117081885.000       -1225.101          44.000  
  22279939.376   117081910.313       -1225.114          49.000  
  22380588.947   117610786.113       -1225.068          38.000  
  22143385.074   116364350.682       -1225.034          39.000  
  22237750.331   116860253.669       -1225.118          37.000  
  22279929.209   117081926.827       -1225.134          50.000  
  22257087.506   116961820.208       -1225.277          37.000  
  22322734.247   117306781.229       -1225.237          39.000  
  22294011.553   117155841.968       -1225.039          37.000  
  22431455.041   117878087.709       -1225.021          37.000  
  22279934.585   117081890.177       -1225.108          50.000  
  22245660.714   116901751.616       -1225.143          38.000  
  22319216.616   117288296.183       -1225.170          40.000  
  22391011.824   117665565.888       -1225.148          39.000  
  22159500.485   116448992.228       -1225.114          40.000  
  22127851.878   116282664.973       -1225.143          38.000  
  22286101.430   117114257.578       -1225.101          39.000  
  22134006.112   116315020.720       -1225.138          40.000  
  22447280.070   117961257.082       -1225.161          38.000  
 25  8 13  8 48 12.2020000  0 29G 1G31G27G 8G 6G 2G24G17G19G29G 5G 4
                                G10G16G15G 7G13G20G23G 9G 3G26G22G18
                                G12G21G25G14G11
  22279959.994   117082175.984       -1225.090          50.000  
  22246584.182   116906588.276       -1225.140          40.000  
  22222554.555   116780312.617       -1225.097          40.000  
  22279985.844   117082157.488       -1225.130          50.000  
  22279993.427   117082162.133       -1225.076          50.000  
  22279985.015   117082170.215       -1225.104          50.000  
  22182993.543   116572427.295       -1225.181          39.000  
  22262416.556   116989798.703       -1225.056          37.000  
  22288783.283   117128375.779       -1225.101          38.000  
  22263582.410   116995952.219       -1225.213          37.000  
  22279987.346   117082130.024       -1225.134          44.000  
  22279986.026   117082155.342       -1225.082          49.000  
  22380635.568   117611031.143       -1225.188          38.000  
  22143431.696   116364595.713       -1225.100          39.000  
  22237796.936   116860498.700       -1225.090          37.000  
  22279975.783   117082171.851       -1225.134          50.000  
  22257134.136   116962065.223       -1225.215          37.000  
  22322780.895   117307026.252       -1225.267          39.000  
  22294058.133   117156086.997       -1225.149          38.000  
  22431501.666   117878332.746       -1225.205          37.000  
  22279981.177   117082135.203       -1225.090          50.000  
  22245707.328   116901996.640       -1225.132          38.000  
  22319263.251   117288541.209       -1225.140          40.000  
  22391058.480   117665810.913       -1225.181          39.000  
  22159547.140   116449237.259       -1225.184          40.000  
  22127898.498   116282909.999       -1225.250          39.000  
  22286148.097   117114502.600       -1225.142          39.000  
  22134052.732   116315265.746       -1225.128          40.000  
  22447326.712   117961502.105       -1225.165          38.000  
 25  8 13  8 48 12.4020000  0 29G 1G31G27G 8G 6G 2G24G17G19G29G 5G 4
                                G10G16G15G 7G13G20G23G 9G 3G26G22G18
                                G12G21G25G14G11
  22280006.162   117082420.995       -1225.074          50.000  
  22246630.812   116906833.288       -1225.163          40.000  
  22222601.202   116780557.629       -1225.149          40.000  
  22280032.441   117082402.502       -1225.082          50.000  
  22280040.079   117082407.144       -1225.049          50.000  
  22280031.531   117082415.230       -1225.081          50.000  
  22183040.147   116572672.306       -1225.101          39.000  
  22262463.140   116990043.718       -1225.147          37.000  
  22288829.922   117128620.798       -1225.177          38.000  
  22263629.037   116996197.226       -1225.083          37.000  
  22280033.919   117082375.036       -1225.074          44.000  
  22280032.686   117082400.352       -1225.115          49.000  
  22380682.170   117611276.153       -1225.175          38.000  
  22143478.292   116364840.733       -1225.110          39.000  
  22237843.546   116860743.709       -1225.062          37.000  
  22280022.390   117082416.864       -1225.061          50.000  
  22257180.728   116962310.231       -1225.018          37.000  
  22322827.475   117307271.254       -1225.021          39.000  
  22294104.787   117156332.006       -1225.134          38.000  
  22431548.304   117878577.751       -1225.049          38.000  
  22280027.740   117082380.212       -1225.018          50.000  
  22245753.922   116902241.653       -1225.074          38.000  
  22319309.877   117288786.219       -1225.109          40.000  
  22391105.112   117666055.924       -1225.108          39.000  
  22159593.773   116449482.264       -1225.077          40.000  
  22127945.120   116283155.001       -1225.100          39.000  
  22286194.690   117114747.610       -1225.004          39.000  
  22134099.338   116315510.756       -1225.092          40.000  
  22447373.317   117961747.113       -1225.084          38.000  
 25  8 13  8 48 12.6020000  0 29G 1G31G27G 8G 6G 2G24G17G19G29G 5G 4
                                G10G16G15G 7G13G20G23G 9G 3G26G22G18
                                G12G21G25G14G11
  22280052.832   117082665.992       -1224.877          50.000  
  22246677.439   116907078.282       -1224.877          40.000  
  22222647.832   116780802.624       -1224.892          40.000  
  22280078.986   117082647.500       -1224.891          50.000  
  22280086.678   117082652.143       -1224.869          50.000  
  22280078.032   117082660.231       -1224.909          50.000  
  22183086.744   116572917.304       -1224.897          39.000  
  22262509.739   116990288.720       -1224.986          37.000  
  22288876.532   117128865.787       -1224.758          38.000  
  22263675.637   116996442.223       -1224.872          37.000  
  22280080.534   117082620.033       -1224.884          44.000  
  22280079.270   117082645.354       -1224.928          49.000  
  22380728.804   117611521.159       -1225.081          38.000  
  22143524.868   116365085.727       -1224.861          40.000  
  22237890.156   116860988.712       -1224.842          37.000  
  22280068.966   117082661.862       -1224.882          50.000  
  22257227.333   116962555.230       -1224.858          37.000  
  22322874.050   117307516.261       -1224.908          39.000  
  22294151.378   117156577.007       -1225.023          38.000  
  22431594.936   117878822.752       -1224.797          38.000  
  22280074.315   117082625.208       -1224.872          50.000  
  22245800.499   116902486.653       -1224.922          38.000  
  22319356.482   117289031.221       -1224.955          40.000  
  22391151.738   117666300.921       -1224.885          39.000  
  22159640.388   116449727.265       -1224.908          40.000  
  22127991.733   116283400.002       -1224.921          39.000  
  22286241.335   117114992.610       -1224.831          39.000  
  22134145.931   116315755.755       -1224.874          40.000  
  22447419.983   117961992.119       -1224.958          38.000  
 25  8 13  8 48 12.8020000  0 29G 1G31G27G 8G 6G 2G24G17G19G29G 5G 4
                                G10G16G15G 7G13G20G23G 9G 3G26G22G18
                                G12G21G25G14G11
  22280099.752   117082911.005       -1224.892          49.000  
  22246724.037   116907323.264       -1225.221          40.000  
  22222694.553   116781047.649       -1224.859          40.000  
  22280125.623   117082892.504       -1224.949          50.000  
  22280133.302   117082897.141       -1224.939          50.000  
  22280124.628   117082905.240       -1224.971          50.000  
  22183133.413   116573162.304       -1224.982          39.000  
  22262556.348   116990533.712       -1225.198          37.000  
  22288923.160   117129110.786       -1224.914          38.000  
  22263722.275   116996687.225       -1224.879          35.000  
  22280127.136   117082865.042       -1225.038          44.000  
  22280125.978   117082890.351       -1224.859          49.000  
  22380775.436   117611766.145       -1225.038          38.000  
  22143571.508   116365330.717       -1225.154          39.000  
  22237936.789   116861233.709       -1225.137          37.000  
  22280115.563   117082906.863       -1224.944          50.000  
  22257273.949   116962800.238       -1224.901          37.000  
  22322920.679   117307761.263       -1224.961          39.000  
  22294198.027   117156822.023       -1224.775          38.000  
  22431641.540   117879067.751       -1224.944          35.000  
  22280120.930   117082870.215       -1224.930          50.000  
  22245847.111   116902731.666       -1224.709          38.000  
  22319403.144   117289276.208       -1224.979          40.000  
  22391198.386   117666545.925       -1224.962          39.000  
  22159687.027   116449972.273       -1224.880          40.000  
  22128038.361   116283645.011       -1224.940          39.000  
  22286287.916   117115237.617       -1225.001          39.000  
  22134192.499   116316000.771       -1224.869          40.000  
  22447466.588   117962237.109       -1224.942          38.000  
 25  8 13  8 48 13.0020000  0 29G 1G31G27G 8G 6G 2G24G17G19G29G 5G 4
                                G10G16G15G 7G13G20G23G 9G 3G26G22G18
                                G12G21G25G14G11
  22280146.567   117083156.036       -1224.960          49.000  
  22246770.702   116907568.277       -1224.849          39.000  
  22222741.184   116781292.673       -1224.952          40.000  
  22280172.241   117083137.525       -1224.900          50.000  
  22280179.932   117083142.160       -1224.883          50.000  
  22280171.171   117083150.251       -1224.826          50.000  
  22183180.027   116573407.327       -1225.038          39.000  
  22262602.963   116990778.719       -1224.839          38.000  
  22288969.773   117129355.807       -1224.935          38.000  
  22263768.894   116996932.246       -1224.819          35.000  
  22280173.785   117083110.068       -1224.996          44.000  
  22280172.743   117083135.382       -1225.074          49.000  
  22380822.077   117612011.168       -1224.795          38.000  
  22143618.098   116365575.734       -1224.836          39.000  
  22237983.354   116861478.723       -1224.750          37.000  
  22280162.186   117083151.878       -1224.870          50.000  
  22257320.579   116963045.247       -1224.865          36.000  
  22322967.296   117308006.280       -1224.895          39.000  
  22294244.666   117157067.052       -1225.015          38.000  
  22431688.128   117879312.772       -1224.832          35.000  
  22280167.542   117083115.239       -1224.933          50.000  
  22245893.739   116902976.689       -1224.893          38.000  
  22319449.803   117289521.228       -1224.879          40.000  
  22391244.983   117666790.951       -1225.008          39.000  
  22159733.645   116450217.294       -1224.896          39.000  
  22128084.986   116283890.034       -1224.877          39.000  
  22286334.563   117115482.637       -1224.887          40.000  
  22134239.103   116316245.792       -1224.971          40.000  
  22447513.210   117962482.135       -1224.918          38.000  
 25  8 13  8 48 13.2020000  0 29G 1G31G27G 8G 6G 2G24G17G19G29G 5G 4
                                G10G16G15G 7G13G20G23G 9G 3G26G22G18
                                G12G21G25G14G11
  22280193.851   117083401.051       -1225.149          49.000  
  22246817.317   116907813.301       -1225.205          39.000  
  22222787.845   116781537.686       -1225.242          40.000  
  22280218.885   117083382.531       -1224.995          50.000  
  22280226.574   117083387.175       -1224.931          50.000  
  22280217.773   117083395.264       -1224.983          50.000  
  22183226.659   116573652.338       -1225.165          39.000  
  22262649.575   116991023.743       -1225.170          38.000  
  22289016.408   117129600.822       -1225.046          38.000  
  22263815.575   116997177.259       -1225.114          35.000  
  22280220.371   117083355.071       -1225.284          44.000  
  22280219.476   117083380.394       -1225.118          49.000  
  22380868.723   117612256.188       -1225.153          38.000  
  22143664.747   116365820.751       -1225.187          39.000  
  22238029.952   116861723.748       -1225.287          37.000  
  22280208.528   117083396.897       -1225.125          50.000  
  22257367.212   116963290.268       -1225.245          36.000  
  22323013.900   117308251.303       -1225.164          39.000  
  22294291.312   117157312.066       -1225.200          38.000  
  22431734.775   117879557.789       -1225.018          35.000  
  22280214.151   117083360.242       -1224.870          50.000  
  22245940.371   116903221.695       -1225.078          38.000  
  22319496.456   117289766.243       -1225.220          40.000  
  22391291.619   117667035.955       -1225.088          39.000  
  22159780.262   116450462.311       -1225.154          39.000  
  22128131.572   116284135.051       -1225.239          39.000  
  22286381.177   117115727.652       -1225.220          40.000  
  22134285.669   116316490.807       -1225.095          40.000  
  22447559.817   117962727.146       -1225.103          39.000  
 25  8 13  8 48 13.4020000  0 29G 1G31G27G 8G 6G 2G24G17G19G29G 5G 4
                                G10G16G15G 7G13G20G23G 9G 3G26G22G18
                                G12G21G25G14G11
  22280241.117   117083646.077       -1225.230          49.000  
  22246863.972   116908058.326       -1225.129          39.000  
  22222834.439   116781782.707       -1225.220          40.000  
  22280265.500   117083627.560       -1225.164          50.000  
  22280273.194   117083632.206       -1225.101          50.000  
  22280264.382   117083640.285       -1225.017          50.000  
  22183273.298   116573897.366       -1225.236          39.000  
  22262696.166   116991268.760       -1225.127          38.000  
  22289063.027   117129845.863       -1225.277          38.000  
  22263862.228   116997422.282       -1225.145          35.000  
  22280266.979   117083600.087       -1224.972          44.000  
  22280266.187   117083625.426       -1225.195          49.000  
  22380915.370   117612501.217       -1225.236          38.000  
  22143711.341   116366065.777       -1225.254          39.000  
  22238076.536   116861968.765       -1225.119          37.000  
  22280254.983   117083641.926       -1225.142          50.000  
  22257413.829   116963535.287       -1225.105          36.000  
  22323060.497   117308496.325       -1225.182          39.000  
  22294337.936   117157557.092       -1225.276          38.000  
  22431781.399   117879802.817       -1225.184          35.000  
  22280260.791   117083605.276       -1225.113          50.000  
  22245986.987   116903466.725       -1225.255          38.000  
  22319543.093   117290011.267       -1225.236          40.000  
  22391338.239   117667280.982       -1225.198          39.000  
  22159826.891   116450707.333       -1225.242          39.000  
  22128178.178   116284380.070       -1225.162          39.000  
  22286427.852   117115972.672       -1225.146          40.000  
  22134332.243   116316735.836       -1225.243          40.000  
  22447606.447   117962972.176       -1225.258          39.000  
 25  8 13  8 48 13.6020000  0 29G 1G31G27G 8G 6G 2G24G17G19G29G 5G 4
                                G10G16G15G 7G13G20G23G 9G 3G26G22G18
                                G12G21G25G14G11
  22280288.139   117083891.100       -1225.394          49.000  
  22246910.560   116908303.395       -1225.829          39.000  
  22222881.117   116782027.728       -1225.264          40.000  
  22280312.154   117083872.597       -1225.362          50.000  
  22280319.868   117083877.256       -1225.462          50.000  
  22280310.981   117083885.335       -1225.456          50.000  
  22183319.940   116574142.419       -1225.641          39.000  
  22262742.793   116991513.850       -1225.984          38.000  
  22289109.676   117130090.898       -1225.533          38.000  
  22263908.845   116997667.325       -1225.511          37.000  
  22280313.635   117083845.139       -1225.541          44.000  
  22280312.919   117083870.453       -1225.360          49.000  
  22380962.019   117612746.245       -1225.410          38.000  
  22143758.027   116366310.861       -1225.968          39.000  
  22238123.159   116862213.842       -1225.895          37.000  
  22280301.549   117083886.967       -1225.452          50.000  
  22257460.438   116963780.328       -1225.490          37.000  
  22323107.152   117308741.365       -1225.507          39.000  
  22294384.591   117157802.103       -1225.195          38.000  
  22431828.036   117880047.867       -1225.556          37.000  
  22280307.376   117083850.311       -1225.331          50.000  
  22246033.639   116903711.737       -1225.209          38.000  
  22319589.748   117290256.315       -1225.628          40.000  
  22391384.845   117667526.039       -1225.716          39.000  
  22159873.514   116450952.379       -1225.553          39.000  
  22128224.794   116284625.128       -1225.748          39.000  
  22286474.510   117116217.717       -1225.512          40.000  
  22134378.783   116316980.864       -1225.386          40.000  
  22447653.105   117963217.217       -1225.551          39.000  
 25  8 13  8 48 13.8020000  0 29G 1G31G27G 8G 6G 2G24G17G19G29G 5G 4
                                G10G16G15G 7G13G20G23G 9G 3G26G22G18
                                G12G21G25G14G11
  22280334.781   117084136.135       -1225.187          49.000  
  22246957.277   116908548.416       -1225.226          39.000  
  22222927.703   116782272.766       -1225.139          40.000  
  22280358.716   117084117.633       -1225.239          50.000  
  22280366.492   117084122.288       -1225.219          50.000  
  22280357.533   117084130.371       -1225.204          50.000  
  22183366.572   116574387.445       -1225.150          39.000  
  22262789.416   116991758.861       -1225.078          38.000  
  22289156.279   117130335.930       -1225.234          38.000  
  22263955.462   116997912.360       -1225.278          37.000  
  22280360.296   117084090.178       -1225.245          44.000  
  22280359.618   117084115.491       -1225.185          49.000  
  22381008.608   117612991.279       -1225.128          38.000  
  22143804.614   116366555.875       -1225.283          39.000  
  22238169.786   116862458.856       -1225.184          37.000  
  22280348.174   117084132.002       -1225.231          50.000  
  22257507.056   116964025.359       -1225.134          37.000  
  22323153.755   117308986.395       -1225.088          39.000  
  22294431.215   117158047.147       -1225.132          38.000  
  22431874.637   117880292.895       -1225.262          37.000  
  22280353.974   117084095.345       -1225.240          50.000  
  22246080.236   116903956.773       -1225.146          38.000  
  22319636.391   117290501.344       -1225.152          40.000  
  22391431.446   117667771.064       -1225.223          39.000  
  22159920.109   116451197.407       -1225.142          39.000  
  22128271.408   116284870.152       -1225.059          39.000  
  22286521.132   117116462.747       -1225.233          38.000  
  22134425.388   116317225.898       -1225.135          40.000  
  22447699.704   117963462.248       -1225.170          39.000  
 25  8 13  8 48 14.0020000  0 29G 1G31G27G 8G 6G 2G24G17G19G29G 5G 4
                                G10G16G15G 7G13G20G23G 9G 3G26G22G18
                                G12G21G25G14G11
  22280380.986   117084381.182       -1225.280          49.000  
  22247003.864   116908793.466       -1225.280          40.000  
  22222974.353   116782517.810       -1225.302          39.000  
  22280405.321   117084362.673       -1225.228          50.000  
  22280413.160   117084367.331       -1225.274          50.000  
  22280404.083   117084375.414       -1225.261          50.000  
  22183413.214   116574632.490       -1225.228          39.000  
  22262836.022   116992003.913       -1225.194          37.000  
  22289202.924   117130580.976       -1225.293          38.000  
  22264002.084   116998157.396       -1225.183          37.000  
  22280406.906   117084335.222       -1225.257          44.000  
  22280406.300   117084360.536       -1225.301          49.000  
  22381055.256   117613236.322       -1225.275          38.000  
  22143851.208   116366800.924       -1225.223          39.000  
  22238216.401   116862703.904       -1225.209          37.000  
  22280394.738   117084377.045       -1225.281          50.000  
  22257553.692   116964270.400       -1225.266          37.000  
  22323200.403   117309231.445       -1225.373          39.000  
  22294477.855   117158292.188       -1225.269          38.000  
  22431921.332   117880537.940       -1225.286          37.000  
  22280400.565   117084340.388       -1225.267          50.000  
  22246126.871   116904201.817       -1225.248          39.000  
  22319683.007   117290746.388       -1225.228          40.000  
  22391478.103   117668016.112       -1225.220          39.000  
  22159966.776   116451442.453       -1225.323          39.000  
  22128318.067   116285115.207       -1225.338          39.000  
  22286567.743   117116707.791       -1225.282          38.000  
  22134471.967   116317470.945       -1225.275          40.000  
  22447746.333   117963707.290       -1225.291          39.000  
 25  8 13  8 48 14.2020000  0 29G 1G31G27G 8G 6G 2G24G17G19G29G 5G 4
                                G10G16G15G 7G13G20G23G 9G 3G26G22G18
                                G12G21G25G14G11
  22280427.195   117084626.244       -1225.373          49.000  
  22247050.518   116909038.527       -1225.405          40.000  
  22223020.969   116782762.874       -1225.358          39.000  
  22280451.904   117084607.739       -1225.413          50.000  
  22280459.784   117084612.393       -1225.380          50.000  
  22280450.687   117084620.479       -1225.432          50.000  
  22183459.837   116574877.556       -1225.339          39.000  
  22262882.667   116992248.976       -1225.337          37.000  
  22289249.541   117130826.039       -1225.399          38.000  
  22264048.711   116998402.460       -1225.391          37.000  
  22280453.555   117084580.287       -1225.296          44.000  
  22280452.984   117084605.600       -1225.424          49.000  
  22381101.871   117613481.386       -1225.391          38.000  
  22143897.844   116367045.987       -1225.431          40.000  
  22238263.019   116862948.973       -1225.482          37.000  
  22280441.309   117084622.109       -1225.417          50.000  
  22257600.367   116964515.463       -1225.332          37.000  
  22323247.034   117309476.505       -1225.427          39.000  
  22294524.462   117158537.254       -1225.405          38.000  
  22431967.980   117880783.008       -1225.468          38.000  
  22280447.158   117084585.453       -1225.411          50.000  
  22246173.457   116904446.885       -1225.476          39.000  
  22319729.603   117290991.453       -1225.357          40.000  
  22391524.747   117668261.177       -1225.391          39.000  
  22160013.382   116451687.520       -1225.426          39.000  
  22128364.707   116285360.264       -1225.402          39.000  
  22286614.368   117116952.855       -1225.391          38.000  
  22134518.592   116317716.008       -1225.385          40.000  
  22447792.959   117963952.353       -1225.374          39.000  
 25  8 13  8 48 14.4020000  0 29G 1G31G27G 8G 6G 2G24G17G19G29G 5G 4
                                G10G16G15G 7G13G20G23G 9G 3G26G22G18
                                G12G21G25G14G11
  22280473.411   117084871.279       -1225.062          49.000  
  22247097.112   116909283.562       -1225.082          40.000  
  22223067.617   116783007.910       -1225.033          39.000  
  22280498.425   117084852.771       -1225.054          50.000  
  22280506.414   117084857.429       -1225.079          50.000  
  22280497.147   117084865.512       -1225.067          50.000  
  22183506.493   116575122.590       -1225.046          39.000  
  22262929.311   116992494.012       -1225.108          37.000  
  22289296.142   117131071.070       -1225.061          38.000  
  22264095.313   116998647.494       -1224.987          37.000  
  22280500.104   117084825.322       -1225.054          44.000  
  22280499.620   117084850.631       -1225.049          49.000  
  22381148.510   117613726.423       -1225.060          38.000  
  22143944.453   116367291.017       -1225.070          40.000  
  22238309.603   116863194.003       -1225.108          37.000  
  22280487.892   117084867.142       -1225.074          50.000  
  22257646.975   116964760.499       -1224.988          37.000  
  22323293.679   117309721.542       -1225.067          39.000  
  22294571.114   117158782.288       -1225.019          38.000  
  22432014.562   117881028.032       -1225.009          38.000  
  22280493.691   117084830.485       -1225.055          50.000  
  22246220.104   116904691.916       -1225.069          39.000  
  22319776.194   117291236.492       -1225.055          40.000  
  22391571.417   117668506.210       -1225.074          39.000  
  22160059.984   116451932.552       -1225.034          39.000  
  22128411.332   116285605.302       -1225.016          39.000  
  22286661.017   117117197.886       -1225.088          38.000  
  22134565.181   116317961.042       -1225.065          40.000  
  22447839.555   117964197.392       -1225.097          39.000  
 25  8 13  8 48 14.6020000  0 29G 1G31G27G 8G 6G 2G24G17G19G29G 5G 4
                                G10G16G15G 7G13G20G23G 9G 3G26G22G18
                                G12G21G25G14G11
  22280519.630   117085116.324       -1225.166          49.000  
  22247143.802   116909528.601       -1225.226          40.000  
  22223114.196   116783252.952       -1225.175          40.000  
  22280545.008   117085097.807       -1225.123          50.000  
  22280553.023   117085102.468       -1225.110          50.000  
  22280543.666   117085110.544       -1225.093          50.000  
  22183553.111   116575367.629       -1225.194          39.000  
  22262975.913   116992739.032       -1225.270          37.000  
  22289342.765   117131316.111       -1225.220          38.000  
  22264141.976   116998892.545       -1225.066          37.000  
  22280546.788   117085070.357       -1225.256          44.000  
  22280546.302   117085095.679       -1225.144          49.000  
  22381195.164   117613971.444       -1225.415          38.000  
  22143991.081   116367536.057       -1225.210          40.000  
  22238356.192   116863439.036       -1225.342          38.000  
  22280534.488   117085112.185       -1225.192          50.000  
  22257693.579   116965005.545       -1225.199          37.000  
  22323340.294   117309966.565       -1225.408          39.000  
  22294617.806   117159027.344       -1225.135          38.000  
  22432061.220   117881273.081       -1225.194          38.000  
  22280540.292   117085075.529       -1225.136          50.000  
  22246266.703   116904936.969       -1225.125          39.000  
  22319822.851   117291481.528       -1225.369          40.000  
  22391618.039   117668751.248       -1225.235          38.000  
  22160106.622   116452177.585       -1225.225          39.000  
  22128457.956   116285850.347       -1225.201          39.000  
  22286707.644   117117442.933       -1225.145          38.000  
  22134611.844   116318206.086       -1225.192          40.000  
  22447886.186   117964442.409       -1225.495          38.000  
 25  8 13  8 48 14.8020000  0 29G 1G31G27G 8G 6G 2G24G17G19G29G 5G 4
                                G10G16G15G 7G13G20G23G 9G 3G26G22G18
                                G12G21G25G14G11
  22280565.887   117085361.362       -1225.189          50.000  
  22247190.416   116909773.634       -1225.119          40.000  
  22223160.875   116783497.989       -1225.152          40.000  
  22280591.571   117085342.846       -1225.124          50.000  
  22280599.653   117085347.506       -1225.113          50.000  
  22280590.212   117085355.585       -1225.118          50.000  
  22183599.786   116575612.668       -1225.164          38.000  
  22263022.520   116992984.069       -1225.078          37.000  
  22289389.389   117131561.154       -1225.246          38.000  
  22264188.601   116999137.588       -1225.228          37.000  
  22280593.339   117085315.395       -1225.176          44.000  
  22280592.908   117085340.720       -1225.222          49.000  
  22381241.781   117614216.474       -1225.057          38.000  
  22144037.713   116367781.099       -1225.306          40.000  
  22238402.794   116863684.071       -1225.173          38.000  
  22280581.082   117085357.222       -1225.197          50.000  
  22257740.184   116965250.582       -1225.172          38.000  
  22323386.935   117310211.599       -1225.180          39.000  
  22294664.430   117159272.381       -1225.188          38.000  
  22432107.875   117881518.113       -1225.145          38.000  
  22280586.873   117085320.567       -1225.145          50.000  
  22246313.405   116905182.008       -1225.229          39.000  
  22319869.478   117291726.555       -1225.110          40.000  
  22391664.685   117668996.285       -1225.164          38.000  
  22160153.268   116452422.625       -1225.247          39.000  
  22128504.576   116286095.385       -1225.181          39.000  
  22286754.277   117117687.971       -1225.175          39.000  
  22134658.446   116318451.122       -1225.198          40.000  
  22447932.805   117964687.433       -1224.983          38.000  
 25  8 13  8 48 15.0020000  0 29G 1G31G27G 8G 6G 2G24G17G19G29G 5G 4
                                G10G16G15G 7G13G20G23G 9G 3G26G22G18
                                G12G21G25G14G11
  22280612.188   117085606.410       -1225.251          50.000  
  22247237.108   116910018.688       -1225.260          40.000  
  22223207.472   116783743.044       -1225.294          40.000  
  22280638.149   117085587.896       -1225.218          50.000  
  22280646.284   117085592.556       -1225.232          50.000  
  22280636.818   117085600.635       -1225.239          50.000  
  22183646.373   116575857.719       -1225.291          38.000  
  22263069.181   116993229.122       -1225.288          37.000  
  22289436.004   117131806.196       -1225.210          38.000  
  22264235.235   116999382.644       -1225.373          37.000  
  22280639.994   117085560.444       -1225.289          44.000  
  22280639.640   117085585.768       -1225.277          49.000  
  22381288.379   117614461.532       -1225.306          38.000  
  22144084.369   116368026.138       -1225.216          40.000  
  22238449.401   116863929.123       -1225.270          38.000  
  22280627.706   117085602.271       -1225.256          50.000  
  22257786.814   116965495.639       -1225.344          38.000  
  22323433.569   117310456.654       -1225.332          39.000  
  22294711.102   117159517.432       -1225.290          38.000  
  22432154.501   117881763.163       -1225.190          38.000  
  22280633.475   117085565.616       -1225.212          50.000  
  22246360.019   116905427.055       -1225.223          39.000  
  22319916.160   117291971.615       -1225.299          39.000  
  22391711.313   117669241.335       -1225.283          38.000  
  22160199.860   116452667.676       -1225.334          39.000  
  22128551.258   116286340.435       -1225.233          39.000  
  22286800.890   117117933.019       -1225.270          39.000  
  22134705.059   116318696.171       -1225.277          40.000  
  22447979.405   117964932.494       -1225.254          38.000  
 25  8 13  8 48 15.2020000  0 29G 1G31G27G 8G 6G 2G24G17G19G29G 5G 4
                                G10G16G15G 7G13G20G23G 9G 3G26G22G18
                                G12G21G25G14G11
  22280658.491   117085851.451       -1225.214          50.000  
  22247283.699   116910263.725       -1225.222          40.000  
  22223254.191   116783988.083       -1225.228          40.000  
  22280684.792   117085832.935       -1225.142          50.000  
  22280692.928   117085837.595       -1225.129          50.000  
  22280683.350   117085845.675       -1225.183          50.000  
  22183693.030   116576102.757       -1225.143          38.000  
  22263115.735   116993474.160       -1225.275          37.000  
  22289482.628   117132051.236       -1225.149          38.000  
  22264281.832   116999627.678       -1225.229          37.000  
  22280686.536   117085805.483       -1225.227          44.000  
  22280686.284   117085830.803       -1225.176          49.000  
  22381335.038   117614706.567       -1225.172          38.000  
  22144130.975   116368271.188       -1225.270          40.000  
  22238495.986   116864174.159       -1225.197          38.000  
  22280674.316   117085847.310       -1225.175          50.000  
  22257833.429   116965740.671       -1225.212          38.000  
  22323480.287   117310701.684       -1225.200          39.000  
  22294757.716   117159762.469       -1225.169          38.000  
  22432201.081   117882008.206       -1225.181          38.000  
  22280680.076   117085810.654       -1225.124          50.000  
  22246406.668   116905672.098       -1225.179          39.000  
  22319962.759   117292216.648       -1225.170          39.000  
  22391757.947   117669486.373       -1225.242          38.000  
  22160246.496   116452912.711       -1225.226          39.000  
  22128597.929   116286585.475       -1225.245          39.000  
  22286847.531   117118178.058       -1225.215          39.000  
  22134751.653   116318941.209       -1225.178          40.000  
  22448026.025   117965177.533       -1225.227          38.000  
 25  8 13  8 48 15.4020000  0 29G 1G31G27G 8G 6G 2G24G17G19G29G 5G 4
                                G10G16G15G 7G13G20G23G 9G 3G26G22G18
                                G12G21G25G14G11
  22280704.808   117086096.479       -1225.139          50.000  
  22247330.352   116910508.747       -1225.035          40.000  
  22223300.755   116784233.101       -1225.002          40.000  
  22280731.392   117086077.968       -1225.126          50.000  
  22280739.544   117086082.627       -1225.132          50.000  
  22280729.920   117086090.708       -1225.143          50.000  
  22183739.607   116576347.793       -1225.231          38.000  
  22263162.308   116993719.179       -1225.046          37.000  
  22289529.295   117132296.259       -1225.098          38.000  
  22264328.533   116999872.678       -1224.850          37.000  
  22280733.228   117086050.516       -1225.184          44.000  
  22280732.942   117086075.836       -1225.218          49.000  
  22381381.653   117614951.587       -1224.973          38.000  
  22144177.598   116368516.220       -1225.349          40.000  
  22238542.593   116864419.177       -1225.001          38.000  
  22280720.935   117086092.341       -1225.160          50.000  
  22257880.045   116965985.702       -1225.081          38.000  
  22323526.895   117310946.731       -1225.251          39.000  
  22294804.401   117160007.493       -1225.143          38.000  
  22432247.742   117882253.235       -1225.191          38.000  
  22280726.653   117086055.684       -1225.082          50.000  
  22246453.297   116905917.124       -1225.107          39.000  
  22320009.391   117292461.677       -1225.097          39.000  
  22391804.552   117669731.399       -1225.149          38.000  
  22160293.111   116453157.738       -1225.054          39.000  
  22128644.538   116286830.484       -1224.796          39.000  
  22286894.135   117118423.089       -1225.160          39.000  
  22134798.264   116319186.257       -1225.364          40.000  
  22448072.654   117965422.562       -1225.209          38.000  
 25  8 13  8 48 15.6020000  0 29G 1G31G27G 8G 6G 2G24G17G19G29G 5G 4
                                G10G16G15G 7G13G20G23G 9G 3G26G22G18
                                G12G21G25G14G11
  22280751.358   117086341.526       -1225.404          50.000  
  22247376.964   116910753.804       -1225.452          40.000  
  22223347.463   116784478.155       -1225.369          40.000  
  22280778.000   117086323.018       -1225.396          50.000  
  22280786.193   117086327.676       -1225.384          50.000  
  22280776.513   117086335.759       -1225.397          50.000  
  22183786.229   116576592.836       -1225.339          38.000  
  22263208.942   116993964.226       -1225.359          37.000  
  22289575.894   117132541.305       -1225.358          38.000  
  22264375.101   117000117.741       -1225.464          38.000  
  22280779.857   117086295.563       -1225.383          44.000  
  22280779.599   117086320.881       -1225.424          49.000  
  22381428.315   117615196.644       -1225.343          38.000  
  22144224.237   116368761.261       -1225.454          40.000  
  22238589.173   116864664.231       -1225.377          38.000  
  22280767.509   117086337.390       -1225.409          50.000  
  22257926.677   116966230.756       -1225.440          38.000  
  22323573.518   117311191.777       -1225.444          39.000  
  22294850.985   117160252.540       -1225.378          38.000  
  22432294.363   117882498.281       -1225.435          38.000  
  22280773.271   117086300.735       -1225.396          50.000  
  22246499.972   116906162.169       -1225.359          39.000  
  22320056.033   117292706.730       -1225.394          39.000  
  22391851.202   117669976.454       -1225.522          38.000  
  22160339.727   116453402.790       -1225.377          40.000  
  22128691.201   116287075.546       -1225.388          39.000  
  22286940.798   117118668.139       -1225.464          38.000  
  22134844.823   116319431.299       -1225.457          40.000  
  22448119.282   117965667.606       -1225.288          38.000  
 25  8 13  8 48 15.8020000  0 29G 1G31G27G 8G 6G 2G24G17G19G29G 5G 4
                                G10G16G15G 7G13G20G23G 9G 3G26G22G18
                                G12G21G25G14G11
  22280797.918   117086586.567       -1225.231          50.000  
  22247423.660   116910998.845       -1225.284          40.000  
  22223394.083   116784723.198       -1225.242          40.000  
  22280824.593   117086568.061       -1225.277          50.000  
  22280832.813   117086572.721       -1225.282          50.000  
  22280823.016   117086580.804       -1225.275          50.000  
  22183832.850   116576837.884       -1225.210          38.000  
  22263255.559   116994209.278       -1225.219          37.000  
  22289622.534   117132786.348       -1225.239          38.000  
  22264421.700   117000362.782       -1225.275          38.000  
  22280826.458   117086540.605       -1225.211          44.000  
  22280826.249   117086565.923       -1225.212          49.000  
  22381474.910   117615441.683       -1225.172          38.000  
  22144270.867   116369006.302       -1225.244          40.000  
  22238635.802   116864909.274       -1225.240          38.000  
  22280814.151   117086582.431       -1225.243          50.000  
  22257973.287   116966475.795       -1225.248          38.000  
  22323620.117   117311436.819       -1225.217          39.000  
  22294897.645   117160497.582       -1225.146          38.000  
  22432340.998   117882743.322       -1225.224          38.000  
  22280819.895   117086545.781       -1225.288          50.000  
  22246546.546   116906407.211       -1225.159          39.000  
  22320102.659   117292951.773       -1225.257          39.000  
  22391897.840   117670221.498       -1225.276          38.000  
  22160386.372   116453647.830       -1225.219          40.000  
  22128737.833   116287320.583       -1225.236          39.000  
  22286987.434   117118913.181       -1225.198          38.000  
  22134891.466   116319676.340       -1225.159          40.000  
  22448165.920   117965912.653       -1225.258          38.000  
 25  8 13  8 48 16.0020000  0 29G 1G31G27G 8G 6G 2G24G17G19G29G 5G 4
                                G10G16G15G 7G13G20G23G 9G 3G26G22G18
                                G12G21G25G14G11
  22280844.561   117086831.619       -1225.255          50.000  
  22247470.294   116911243.894       -1225.302          40.000  
  22223440.779   116784968.251       -1225.297          40.000  
  22280871.200   117086813.110       -1225.261          50.000  
  22280879.455   117086817.771       -1225.281          50.000  
  22280869.592   117086825.854       -1225.300          50.000  
  22183879.511   116577082.934       -1225.233          38.000  
  22263302.145   116994454.329       -1225.228          37.000  
  22289669.173   117133031.398       -1225.231          38.000  
  22264468.334   117000607.829       -1225.221          38.000  
  22280873.077   117086785.656       -1225.234          44.000  
  22280872.831   117086810.974       -1225.240          49.000  
  22381521.569   117615686.736       -1225.282          38.000  
  22144317.468   116369251.353       -1225.288          40.000  
  22238682.395   116865154.322       -1225.168          38.000  
  22280860.737   117086827.482       -1225.246          50.000  
  22258019.904   116966720.851       -1225.302          38.000  
  22323666.767   117311681.872       -1225.260          39.000  
  22294944.231   117160742.634       -1225.212          38.000  
  22432387.622   117882988.370       -1225.209          39.000  
  22280866.487   117086790.831       -1225.300          50.000  
  22246593.183   116906652.266       -1225.246          39.000  
  22320149.298   117293196.822       -1225.228          39.000  
  22391944.507   117670466.544       -1225.249          38.000  
  22160432.999   116453892.883       -1225.269          40.000  
  22128784.476   116287565.636       -1225.260          39.000  
  22287034.034   117119158.232       -1225.261          38.000  
  22134938.082   116319921.393       -1225.226          40.000  
  22448212.557   117966157.703       -1225.239          38.000  
 25  8 13  8 48 16.2020000  0 29G 1G31G27G 8G 6G 2G24G17G19G29G 5G 4
                                G10G16G15G 7G13G20G23G 9G 3G26G22G18
                                G12G21G25G14G11
  22280891.239   117087076.652       -1225.225          50.000  
  22247516.942   116911488.929       -1225.245          40.000  
  22223487.369   116785213.282       -1225.226          40.000  
  22280917.747   117087058.145       -1225.232          50.000  
  22280926.071   117087062.804       -1225.219          50.000  
  22280916.141   117087070.885       -1225.200          50.000  
  22183926.143   116577327.968       -1225.215          38.000  
  22263348.753   116994699.358       -1225.068          37.000  
  22289715.804   117133276.433       -1225.205          38.000  
  22264514.946   117000852.866       -1225.237          38.000  
  22280919.724   117087030.690       -1225.206          44.000  
  22280919.389   117087056.007       -1225.219          49.000  
  22381568.193   117615931.771       -1225.110          38.000  
  22144364.115   116369496.389       -1225.294          40.000  
  22238729.009   116865399.361       -1225.210          38.000  
  22280907.320   117087072.517       -1225.211          50.000  
  22258066.496   116966965.884       -1225.232          38.000  
  22323713.375   117311926.904       -1225.172          39.000  
  22294990.946   117160987.671       -1225.265          38.000  
  22432434.290   117883233.411       -1225.274          39.000  
  22280913.070   117087035.865       -1225.237          50.000  
  22246639.803   116906897.303       -1225.251          39.000  
  22320195.978   117293441.860       -1225.258          39.000  
  22391991.135   117670711.577       -1225.301          38.000  
  22160479.644   116454137.916       -1225.171          40.000  
  22128831.087   116287810.675       -1225.206          38.000  
  22287080.642   117119403.264       -1225.180          38.000  
  22134984.695   116320166.427       -1225.222          40.000  
  22448259.190   117966402.738       -1225.125          38.000  
 25  8 13  8 48 16.4020000  0 29G 1G31G27G 8G 6G 2G24G17G19G29G 5G 4
                                G10G16G15G 7G13G20G23G 9G 3G26G22G18
                                G12G21G25G14G11
  22280937.822   117087321.678       -1225.190          50.000  
  22247563.553   116911733.955       -1225.092          40.000  
  22223534.031   116785458.316       -1225.188          40.000  
  22280964.338   117087303.175       -1225.157          50.000  
  22280972.693   117087307.834       -1225.196          50.000  
  22280962.611   117087315.914       -1225.203          50.000  
  22183972.778   116577573.008       -1225.200          38.000  
  22263395.357   116994944.409       -1225.156          37.000  
  22289762.438   117133521.460       -1225.171          38.000  
  22264561.547   117001097.900       -1225.034          38.000  
  22280966.316   117087275.716       -1225.191          44.000  
  22280965.963   117087301.036       -1225.188          49.000  
  22381614.820   117616176.803       -1225.069          38.000  
  22144410.724   116369741.418       -1225.117          40.000  
  22238775.554   116865644.387       -1225.117          38.000  
  22280953.881   117087317.545       -1225.163          50.000  
  22258113.125   116967210.903       -1225.206          38.000  
  22323759.997   117312171.931       -1225.204          39.000  
  22295037.523   117161232.695       -1225.071          38.000  
  22432480.867   117883478.433       -1225.262          39.000  
  22280959.683   117087280.895       -1225.188          50.000  
  22246686.400   116907142.331       -1225.180          39.000  
  22320242.583   117293686.895       -1225.042          39.000  
  22392037.768   117670956.604       -1225.146          38.000  
  22160526.259   116454382.954       -1225.104          40.000  
  22128877.695   116288055.709       -1225.055          38.000  
  22287127.295   117119648.297       -1225.250          38.000  
  22135031.309   116320411.450       -1225.219          40.000  
  22448305.801   117966647.775       -1225.094          38.000  
 25  8 13  8 48 16.6020000  0 29G 1G31G27G 8G 6G 2G24G17G19G29G 5G 4
                                G10G16G15G 7G13G20G23G 9G 3G26G22G18
                                G12G21G25G14G11
  22280984.450   117087566.712       -1225.132          50.000  
  22247610.214   116911978.994       -1225.124          40.000  
  22223580.640   116785703.345       -1225.160          40.000  
  22281010.898   117087548.207       -1225.079          50.000  
  22281019.320   117087552.864       -1225.080          50.000  
  22281009.142   117087560.942       -1225.046          50.000  
  22184019.382   116577818.043       -1225.251          38.000  
  22263441.991   116995189.439       -1225.125          37.000  
  22289809.071   117133766.492       -1225.083          38.000  
  22264608.184   117001342.938       -1225.099          38.000  
  22281012.963   117087520.746       -1225.067          44.000  
  22281012.648   117087546.069       -1225.118          49.000  
  22381661.487   117616421.837       -1225.176          38.000  
  22144457.370   116369986.453       -1225.104          40.000  
  22238822.151   116865889.422       -1225.185          38.000  
  22281000.463   117087562.578       -1225.132          50.000  
  22258159.786   116967455.936       -1225.133          37.000  
  22323806.572   117312416.964       -1225.132          39.000  
  22295084.210   117161477.732       -1225.116          38.000  
  22432527.469   117883723.462       -1225.175          39.000  
  22281006.267   117087525.923       -1225.094          50.000  
  22246733.002   116907387.362       -1225.226          39.000  
  22320289.214   117293931.933       -1225.190          39.000  
  22392084.417   117671201.641       -1225.139          38.000  
  22160572.908   116454627.985       -1225.164          40.000  
  22128924.314   116288300.741       -1225.145          39.000  
  22287173.890   117119893.323       -1225.033          38.000  
  22135077.958   116320656.485       -1225.150          40.000  
  22448352.458   117966892.809       -1225.185          38.000  
 25  8 13  8 48 16.8020000  0 29G 1G31G27G 8G 6G 2G24G17G19G29G 5G 4
                                G10G16G15G 7G13G20G23G 9G 3G26G22G18
                                G12G21G25G14G11
  22281031.066   117087811.758       -1225.339          50.000  
  22247656.802   116912224.038       -1225.301          40.000  
  22223627.308   116785948.392       -1225.312          40.000  
  22281057.512   117087793.255       -1225.320          50.000  
  22281065.959   117087797.914       -1225.321          50.000  
  22281055.723   117087805.992       -1225.327          50.000  
  22184066.053   116578063.084       -1225.341          38.000  
  22263488.640   116995434.486       -1225.298          37.000  
  22289855.687   117134011.542       -1225.373          38.000  
  22264654.781   117001587.985       -1225.346          37.000  
  22281059.583   117087765.793       -1225.292          44.000  
  22281059.333   117087791.118       -1225.356          49.000  
  22381708.112   117616666.891       -1225.464          38.000  
  22144503.954   116370231.497       -1225.281          40.000  
  22238868.775   116866134.470       -1225.352          38.000  
  22281047.041   117087807.623       -1225.301          50.000  
  22258206.413   116967700.983       -1225.340          37.000  
  22323853.258   117312662.009       -1225.256          39.000  
  22295130.810   117161722.779       -1225.337          38.000  
  22432574.127   117883968.509       -1225.325          39.000  
  22281052.891   117087770.969       -1225.269          50.000  
  22246779.647   116907632.408       -1225.334          39.000  
  22320335.813   117294176.981       -1225.385          39.000  
  22392131.079   117671446.683       -1225.249          38.000  
  22160619.549   116454873.030       -1225.303          40.000  
  22128970.969   116288545.792       -1225.427          39.000  
  22287220.504   117120138.373       -1225.213          38.000  
  22135124.569   116320901.533       -1225.380          40.000  
  22448399.091   117967137.858       -1225.378          38.000  
 25  8 13  8 48 17.0020000  0 29G 1G31G27G 8G 6G 2G24G17G19G29G 5G 4
                                G10G16G15G 7G13G20G23G 9G 3G26G22G18
                                G12G21G25G14G11
  22281077.646   117088056.815       -1225.289          50.000  
  22247703.474   116912469.095       -1225.269          40.000  
  22223673.870   116786193.447       -1225.282          40.000  
  22281104.047   117088038.312       -1225.289          50.000  
  22281112.594   117088042.970       -1225.268          50.000  
  22281102.236   117088051.047       -1225.276          50.000  
  22184112.623   116578308.142       -1225.350          38.000  
  22263535.253   116995679.540       -1225.290          37.000  
  22289902.327   117134256.596       -1225.251          38.000  
  22264701.443   117001833.042       -1225.316          37.000  
  22281106.190   117088010.854       -1225.352          44.000  
  22281105.986   117088036.171       -1225.284          49.000  
  22381754.762   117616911.936       -1225.220          38.000  
  22144550.594   116370476.557       -1225.239          40.000  
  22238915.385   116866379.527       -1225.302          38.000  
  22281093.606   117088052.681       -1225.283          50.000  
  22258253.028   116967946.034       -1225.220          37.000  
  22323899.921   117312907.063       -1225.345          39.000  
  22295177.502   117161967.833       -1225.256          38.000  
  22432620.740   117884213.567       -1225.302          39.000  
  22281099.453   117088016.029       -1225.302          50.000  
  22246826.240   116907877.466       -1225.335          39.000  
  22320382.458   117294422.033       -1225.329          39.000  
  22392177.695   117671691.743       -1225.334          38.000  
  22160666.163   116455118.086       -1225.234          40.000  
  22129017.617   116288790.846       -1225.292          39.000  
  22287267.120   117120383.427       -1225.264          38.000  
  22135171.183   116321146.586       -1225.303          40.000  
  22448445.701   117967382.910       -1225.243          38.000  
 25  8 13  8 48 17.2020000  0 29G 1G31G27G 8G 6G 2G24G17G19G29G 5G 4
                                G10G16G15G 7G13G20G23G 9G 3G26G22G18
                                G12G21G25G14G11
  22281124.249   117088301.857       -1225.246          50.000  
  22247750.080   116912714.132       -1225.189          40.000  
  22223720.553   116786438.495       -1225.345          40.000  
  22281150.655   117088283.351       -1225.210          50.000  
  22281159.245   117088288.008       -1225.198          50.000  
  22281148.773   117088296.085       -1225.184          50.000  
  22184159.266   116578553.161       -1225.013          38.000  
  22263581.883   116995924.589       -1225.339          37.000  
  22289948.949   117134501.646       -1225.258          38.000  
  22264748.054   117002078.069       -1225.075          37.000  
  22281152.825   117088255.894       -1225.254          44.000  
  22281152.613   117088281.212       -1225.195          49.000  
  22381801.418   117617156.994       -1225.352          38.000  
  22144597.197   116370721.587       -1225.077          40.000  
  22238961.988   116866624.562       -1225.158          38.000  
  22281140.219   117088297.721       -1225.201          50.000  
  22258299.661   116968191.077       -1225.181          37.000  
  22323946.540   117313152.108       -1225.191          39.000  
  22295224.067   117162212.863       -1225.115          38.000  
  22432667.357   117884458.620       -1225.381          39.000  
  22281146.028   117088261.068       -1225.197          50.000  
  22246872.928   116908122.508       -1225.259          39.000  
  22320429.061   117294667.076       -1225.252          39.000  
  22392224.316   117671936.783       -1225.222          38.000  
  22160712.801   116455363.131       -1225.317          40.000  
  22129064.209   116289035.885       -1225.262          39.000  
  22287313.734   117120628.463       -1225.159          38.000  
  22135217.830   116321391.619       -1225.140          40.000  
  22448492.308   117967627.942       -1225.074          38.000  
 25  8 13  8 48 17.4020000  0 29G 1G31G27G 8G 6G 2G24G17G19G29G 5G 4
                                G10G16G15G 7G13G20G23G 9G 3G26G22G18
                                G12G21G25G14G11
  22281170.791   117088546.899       -1225.334          50.000  
  22247796.749   116912959.179       -1225.330          40.000  
  22223767.117   116786683.530       -1225.210          40.000  
  22281197.297   117088528.393       -1225.266          50.000  
  22281205.887   117088533.051       -1225.254          50.000  
  22281195.288   117088541.129       -1225.286          50.000  
  22184205.870   116578798.211       -1225.327          38.000  
  22263628.498   116996169.626       -1225.201          37.000  
  22289995.589   117134746.690       -1225.384          38.000  
  22264794.684   117002323.118       -1225.279          38.000  
  22281199.499   117088500.938       -1225.360          44.000  
  22281199.330   117088526.257       -1225.325          49.000  
  22381848.078   117617402.032       -1225.345          38.000  
  22144643.857   116370966.637       -1225.353          40.000  
  22239008.570   116866869.611       -1225.326          38.000  
  22281186.840   117088542.766       -1225.352          50.000  
  22258346.311   116968436.126       -1225.369          37.000  
  22323993.155   117313397.155       -1225.365          39.000  
  22295270.742   117162457.912       -1225.325          38.000  
  22432713.959   117884703.661       -1225.427          39.000  
  22281192.590   117088506.111       -1225.267          50.000  
  22246919.569   116908367.550       -1225.352          39.000  
  22320475.679   117294912.120       -1225.346          40.000  
  22392270.918   117672181.825       -1225.322          38.000  
  22160759.418   116455608.168       -1225.240          40.000  
  22129110.867   116289280.928       -1225.338          39.000  
  22287360.382   117120873.510       -1225.298          38.000  
  22135264.435   116321636.666       -1225.331          40.000  
  22448539.001   117967872.992       -1225.337          38.000  
 25  8 13  8 48 17.6020000  0 29G 1G31G27G 8G 6G 2G24G17G19G29G 5G 4
                                G10G16G15G 7G13G20G23G 9G 3G26G22G18
                                G12G21G25G14G11
  22281217.536   117088791.964       -1225.248          50.000  
  22247843.374   116913204.242       -1225.315          40.000  
  22223813.796   116786928.602       -1225.253          40.000  
  22281243.916   117088773.455       -1225.185          50.000  
  22281252.519   117088778.112       -1225.158          50.000  
  22281241.869   117088786.188       -1225.152          50.000  
  22184252.510   116579043.272       -1225.200          38.000  
  22263675.141   116996414.694       -1225.261          37.000  
  22290042.200   117134991.749       -1225.232          38.000  
  22264841.320   117002568.187       -1225.186          38.000  
  22281246.158   117088746.001       -1225.268          44.000  
  22281245.995   117088771.319       -1225.215          49.000  
  22381894.728   117617647.094       -1225.197          38.000  
  22144690.470   116371211.699       -1225.240          40.000  
  22239055.199   116867114.677       -1225.306          38.000  
  22281233.488   117088787.828       -1225.228          50.000  
  22258392.964   116968681.187       -1225.268          37.000  
  22324039.772   117313642.214       -1225.184          39.000  
  22295317.351   117162702.973       -1225.177          38.000  
  22432760.543   117884948.723       -1225.287          39.000  
  22281239.218   117088751.173       -1225.197          50.000  
  22246966.221   116908612.616       -1225.265          39.000  
  22320522.298   117295157.179       -1225.142          40.000  
  22392317.552   117672426.889       -1225.229          38.000  
  22160806.070   116455853.235       -1225.234          40.000  
  22129157.502   116289525.993       -1225.284          39.000  
  22287407.001   117121118.574       -1225.208          38.000  
  22135311.067   116321881.728       -1225.234          41.000  
  22448585.606   117968118.056       -1225.276          39.000  
 25  8 13  8 48 17.8020000  0 29G 1G31G27G 8G 6G 2G24G17G19G29G 5G 4
                                G10G16G15G 7G13G20G23G 9G 3G26G22G18
                                G12G21G25G14G11
  22281264.195   117089037.018       -1225.374          50.000  
  22247890.057   116913449.295       -1225.315          40.000  
  22223860.397   116787173.658       -1225.317          40.000  
  22281290.536   117089018.512       -1225.293          50.000  
  22281299.161   117089023.170       -1225.281          50.000  
  22281288.444   117089031.245       -1225.228          50.000  
  22184299.134   116579288.332       -1225.405          38.000  
  22263721.751   116996659.752       -1225.365          37.000  
  22290088.835   117135236.804       -1225.398          38.000  
  22264887.966   117002813.244       -1225.350          38.000  
  22281292.776   117088991.058       -1225.399          44.000  
  22281292.670   117089016.377       -1225.419          49.000  
  22381941.388   117617892.149       -1225.241          38.000  
  22144737.084   116371456.756       -1225.466          40.000  
  22239101.832   116867359.730       -1225.399          38.000  
  22281280.106   117089032.883       -1225.326          50.000  
  22258439.550   116968926.242       -1225.368          37.000  
  22324086.370   117313887.273       -1225.265          39.000  
  22295364.099   117162948.034       -1225.438          38.000  
  22432807.222   117885193.775       -1225.434          39.000  
  22281285.818   117088996.228       -1225.241          50.000  
  22247012.841   116908857.670       -1225.397          39.000  
  22320568.928   117295402.240       -1225.319          40.000  
  22392364.197   117672671.947       -1225.385          38.000  
  22160852.722   116456098.293       -1225.347          40.000  
  22129204.140   116289771.046       -1225.312          39.000  
  22287453.599   117121363.633       -1225.417          38.000  
  22135357.663   116322126.782       -1225.294          41.000  
  22448632.243   117968363.111       -1225.386          38.000  
 25  8 13  8 48 18.0020000  0 29G 1G31G27G 8G 6G 2G24G17G19G29G 5G 4
                                G10G16G15G 7G13G20G23G 9G 3G26G22G18
                                G12G21G25G14G11
  22281310.814   117089282.056       -1225.416          50.000  
  22247936.633   116913694.333       -1225.375          40.000  
  22223907.072   116787418.700       -1225.537          40.000  
  22281337.173   117089263.551       -1225.348          50.000  
  22281345.802   117089268.210       -1225.360          50.000  
  22281335.009   117089276.288       -1225.348          50.000  
  22184345.801   116579533.367       -1225.460          38.000  
  22263768.347   116996904.789       -1225.394          37.000  
  22290135.432   117135481.834       -1225.234          38.000  
  22264934.612   117003058.278       -1225.369          38.000  
  22281339.391   117089236.093       -1225.456          44.000  
  22281339.292   117089261.414       -1225.362          49.000  
  22381988.018   117618137.194       -1225.430          38.000  
  22144783.726   116371701.791       -1225.494          40.000  
  22239148.453   116867604.770       -1225.479          38.000  
  22281326.707   117089277.920       -1225.362          50.000  
  22258486.188   116969171.284       -1225.486          37.000  
  22324133.023   117314132.313       -1225.391          39.000  
  22295410.675   117163193.070       -1225.421          38.000  
  22432853.888   117885438.811       -1225.330          39.000  
  22281332.451   117089241.270       -1225.354          50.000  
  22247059.486   116909102.705       -1225.381          39.000  
  22320615.554   117295647.278       -1225.426          40.000  
  22392410.850   117672916.984       -1225.442          38.000  
  22160899.312   116456343.334       -1225.551          40.000  
  22129250.761   116290016.091       -1225.437          39.000  
  22287500.259   117121608.665       -1225.316          38.000  
  22135404.268   116322371.822       -1225.398          41.000  
  22448678.856   117968608.146       -1225.288          38.000  
 25  8 13  8 48 18.2020000  0 29G 1G31G27G 8G 6G 2G24G17G19G29G 5G 4
                                G10G16G15G 7G13G20G23G 9G 3G26G22G18
                                G12G21G25G14G11
  22281357.527   117089527.098       -1225.083          50.000  
  22247983.300   116913939.351       -1225.304          40.000  
  22223953.636   116787663.715       -1225.328          40.000  
  22281383.747   117089508.586       -1225.164          50.000  
  22281392.426   117089513.244       -1225.166          50.000  
  22281381.616   117089521.326       -1225.176          50.000  
  22184392.407   116579778.410       -1225.162          38.000  
  22263814.911   116997149.816       -1225.301          37.000  
  22290182.072   117135726.876       -1225.222          38.000  
  22264981.209   117003303.317       -1225.191          38.000  
  22281386.023   117089481.129       -1225.079          44.000  
  22281385.673   117089506.451       -1225.106          49.000  
  22382034.659   117618382.226       -1225.306          38.000  
  22144830.324   116371946.820       -1225.060          40.000  
  22239195.086   116867849.804       -1225.148          38.000  
  22281373.345   117089522.958       -1225.097          50.000  
  22258532.799   116969416.339       -1225.016          37.000  
  22324179.672   117314377.342       -1225.333          39.000  
  22295457.342   117163438.110       -1225.140          38.000  
  22432900.515   117885683.848       -1225.091          38.000  
  22281379.057   117089486.305       -1225.185          50.000  
  22247106.056   116909347.744       -1225.131          39.000  
  22320662.188   117295892.303       -1225.333          40.000  
  22392457.471   117673162.012       -1225.215          38.000  
  22160945.984   116456588.355       -1225.317          39.000  
  22129297.416   116290261.121       -1225.225          39.000  
  22287546.870   117121853.712       -1225.069          38.000  
  22135450.871   116322616.859       -1225.123          40.000  
  22448725.508   117968853.181       -1225.277          38.000  
 25  8 13  8 48 18.4020000  0 29G 1G31G27G 8G 6G 2G24G17G19G29G 5G 4
                                G10G16G15G 7G13G20G23G 9G 3G26G22G18
                                G12G21G25G14G11
  22281404.274   117089772.125       -1225.052          50.000  
  22248029.907   116914184.377       -1224.939          40.000  
  22224000.255   116787908.733       -1224.963          40.000  
  22281430.301   117089753.610       -1225.048          50.000  
  22281439.045   117089758.269       -1225.060          50.000  
  22281428.191   117089766.350       -1225.087          50.000  
  22184439.067   116580023.431       -1225.142          38.000  
  22263861.491   116997394.834       -1225.003          37.000  
  22290228.697   117135971.898       -1225.254          38.000  
  22265027.865   117003548.342       -1225.124          37.000  
  22281432.625   117089726.160       -1225.074          44.000  
  22281432.126   117089751.477       -1225.045          49.000  
  22382081.305   117618627.245       -1225.054          38.000  
  22144876.898   116372191.853       -1225.072          40.000  
  22239241.692   116868094.827       -1225.101          38.000  
  22281419.968   117089767.986       -1225.031          50.000  
  22258579.457   116969661.372       -1225.148          37.000  
  22324226.297   117314622.355       -1224.880          39.000  
  22295503.922   117163683.136       -1225.096          37.000  
  22432947.137   117885928.877       -1225.136          38.000  
  22281425.624   117089731.330       -1225.059          50.000  
  22247152.694   116909592.764       -1224.935          39.000  
  22320708.780   117296137.324       -1225.052          39.000  
  22392504.132   117673407.042       -1225.237          38.000  
  22160992.567   116456833.377       -1225.181          39.000  
  22129344.051   116290506.146       -1225.128          38.000  
  22287593.468   117122098.740       -1225.111          39.000  
  22135497.498   116322861.883       -1225.040          40.000  
  22448772.104   117969098.193       -1224.933          38.000  
 25  8 13  8 48 18.6020000  0 29G 1G31G27G 8G 6G 2G24G17G19G29G 5G 4
                                G10G16G15G 7G13G20G23G 9G 3G26G22G18
                                G12G21G25G14G11
  22281451.129   117090017.151       -1225.129          50.000  
  22248076.505   116914429.405       -1225.155          40.000  
  22224046.872   116788153.768       -1225.165          40.000  
  22281476.856   117089998.634       -1225.091          50.000  
  22281485.701   117090003.295       -1225.123          50.000  
  22281474.720   117090011.375       -1225.134          50.000  
  22184485.680   116580268.458       -1225.223          38.000  
  22263908.045   116997639.872       -1225.224          36.000  
  22290275.336   117136216.924       -1225.237          38.000  
  22265074.502   117003793.370       -1225.208          37.000  
  22281479.273   117089971.181       -1225.145          44.000  
  22281478.654   117089996.505       -1225.168          49.000  
  22382127.975   117618872.279       -1225.279          39.000  
  22144923.543   116372436.871       -1225.161          40.000  
  22239288.311   116868339.857       -1225.261          38.000  
  22281466.533   117090013.012       -1225.163          50.000  
  22258626.068   116969906.396       -1225.359          38.000  
  22324272.953   117314867.394       -1225.096          39.000  
  22295550.635   117163928.157       -1225.126          37.000  
  22432993.770   117886173.900       -1225.226          38.000  
  22281472.227   117089976.355       -1225.109          50.000  
  22247199.332   116909837.802       -1225.146          39.000  
  22320755.380   117296382.349       -1225.122          39.000  
  22392550.747   117673652.062       -1225.298          38.000  
  22161039.204   116457078.406       -1225.365          39.000  
  22129390.717   116290751.169       -1225.054          38.000  
  22287640.087   117122343.764       -1225.151          39.000  
  22135544.112   116323106.909       -1225.082          40.000  
  22448818.726   117969343.234       -1225.067          38.000  
 25  8 13  8 48 18.8020000  0 29G 1G31G27G 8G 6G 2G24G17G19G29G 5G 4
                                G10G16G15G 7G13G20G23G 9G 3G26G22G18
                                G12G21G25G14G11
  22281497.990   117090262.182       -1225.146          50.000  
  22248123.167   116914674.438       -1225.173          40.000  
  22224093.487   116788398.794       -1225.096          40.000  
  22281523.446   117090243.665       -1225.107          50.000  
  22281532.329   117090248.323       -1225.096          50.000  
  22281521.278   117090256.404       -1225.068          50.000  
  22184532.307   116580513.484       -1224.998          38.000  
  22263954.695   116997884.898       -1225.126          36.000  
  22290321.947   117136461.948       -1224.975          38.000  
  22265121.105   117004038.398       -1225.113          37.000  
  22281525.887   117090216.216       -1225.176          44.000  
  22281525.183   117090241.534       -1225.127          49.000  
  22382174.617   117619117.302       -1225.075          39.000  
  22144970.125   116372681.910       -1225.228          40.000  
  22239334.955   116868584.888       -1225.096          38.000  
  22281513.120   117090258.044       -1225.131          50.000  
  22258672.751   116970151.431       -1225.250          37.000  
  22324319.588   117315112.422       -1225.174          39.000  
  22295597.231   117164173.187       -1225.087          37.000  
  22433040.367   117886418.927       -1225.033          38.000  
  22281518.823   117090221.386       -1225.114          50.000  
  22247245.964   116910082.827       -1225.166          39.000  
  22320801.972   117296627.382       -1225.139          39.000  
  22392597.358   117673897.094       -1225.158          37.000  
  22161085.808   116457323.431       -1225.078          39.000  
  22129437.331   116290996.197       -1225.038          38.000  
  22287686.718   117122588.797       -1225.138          39.000  
  22135590.704   116323351.944       -1225.164          40.000  
  22448865.343   117969588.257       -1225.149          38.000  
 25  8 13  8 48 19.0020000  0 29G 1G31G27G 8G 6G 2G24G17G19G29G 5G 4
                                G10G16G15G 7G13G20G23G 9G 3G26G22G18
                                G12G21G25G14G11
  22281544.981   117090507.206       -1225.136          49.000  
  22248169.787   116914919.481       -1225.359          40.000  
  22224140.093   116788643.856       -1225.516          40.000  
  22281570.064   117090488.701       -1225.191          50.000  
  22281578.981   117090493.357       -1225.174          50.000  
  22281567.780   117090501.430       -1225.114          50.000  
  22184578.953   116580758.524       -1225.222          38.000  
  22264001.342   116998129.912       -1225.050          36.000  
  22290368.639   117136706.997       -1225.185          38.000  
  22265167.723   117004283.445       -1225.290          37.000  
  22281572.544   117090461.243       -1225.215          44.000  
  22281571.745   117090486.567       -1225.193          49.000  
  22382221.278   117619362.322       -1225.043          38.000  
  22145016.832   116372926.919       -1225.066          40.000  
  22239381.561   116868829.933       -1225.405          38.000  
  22281559.674   117090503.070       -1225.135          50.000  
  22258719.326   116970396.440       -1225.046          37.000  
  22324366.209   117315357.464       -1225.366          39.000  
  22295643.852   117164418.226       -1225.282          38.000  
  22433086.954   117886663.959       -1225.127          38.000  
  22281565.394   117090466.424       -1225.257          50.000  
  22247292.558   116910327.864       -1225.262          39.000  
  22320848.612   117296872.389       -1224.975          39.000  
  22392644.000   117674142.117       -1225.191          37.000  
  22161132.407   116457568.495       -1225.503          39.000  
  22129483.970   116291241.221       -1225.033          38.000  
  22287733.374   117122833.812       -1225.010          39.000  
  22135637.295   116323596.973       -1225.173          40.000  
  22448911.928   117969833.284       -1225.083          38.000  
 25  8 13  8 48 19.2020000  0 29G 1G31G27G 8G 6G 2G24G17G19G29G 5G 4
                                G10G16G15G 7G13G20G23G 9G 3G26G22G18
                                G12G21G25G14G11
  22281592.181   117090752.263       -1225.424          49.000  
  22248216.401   116915164.533       -1225.349          40.000  
  22224186.751   116788888.897       -1225.312          40.000  
  22281616.695   117090733.753       -1225.321          50.000  
  22281625.615   117090738.410       -1225.328          50.000  
  22281614.366   117090746.485       -1225.329          50.000  
  22184625.584   116581003.583       -1225.438          38.000  
  22264047.951   116998374.972       -1225.331          36.000  
  22290415.217   117136952.060       -1225.534          38.000  
  22265214.409   117004528.498       -1225.390          37.000  
  22281619.180   117090706.293       -1225.342          44.000  
  22281618.465   117090731.622       -1225.417          49.000  
  22382267.906   117619607.379       -1225.355          38.000  
  22145063.443   116373171.979       -1225.405          40.000  
  22239428.173   116869074.982       -1225.373          38.000  
  22281606.309   117090748.126       -1225.373          50.000  
  22258766.017   116970641.494       -1225.253          37.000  
  22324412.809   117315602.509       -1225.243          39.000  
  22295690.449   117164663.273       -1225.362          39.000  
  22433133.531   117886909.014       -1225.480          38.000  
  22281612.021   117090711.474       -1225.322          50.000  
  22247339.246   116910572.914       -1225.362          39.000  
  22320895.278   117297117.450       -1225.330          39.000  
  22392690.605   117674387.177       -1225.485          38.000  
  22161179.069   116457813.537       -1225.430          39.000  
  22129530.592   116291486.278       -1225.377          39.000  
  22287779.993   117123078.875       -1225.402          39.000  
  22135683.955   116323842.026       -1225.312          40.000  
  22448958.547   117970078.341       -1225.312          39.000  
 25  8 13  8 48 19.4020000  0 29G 1G31G27G 8G 6G 2G24G17G19G29G 5G 4
                                G10G16G15G 7G13G20G23G 9G 3G26G22G18
                                G12G21G25G14G11
  22281639.293   117090997.282       -1225.109          49.000  
  22248263.005   116915409.558       -1225.105          40.000  
  22224233.344   116789133.922       -1225.052          40.000  
  22281663.255   117090978.777       -1225.099          50.000  
  22281672.243   117090983.435       -1225.099          50.000  
  22281660.912   117090991.511       -1225.111          50.000  
  22184672.203   116581248.595       -1225.020          38.000  
  22264094.527   116998619.995       -1225.127          37.000  
  22290461.824   117137197.061       -1224.984          38.000  
  22265261.050   117004773.511       -1225.103          37.000  
  22281665.782   117090951.318       -1225.046          44.000  
  22281665.193   117090976.639       -1225.069          49.000  
  22382314.565   117619852.401       -1225.182          38.000  
  22145110.114   116373417.005       -1225.186          40.000  
  22239474.777   116869319.998       -1225.004          38.000  
  22281652.898   117090993.148       -1225.098          50.000  
  22258812.616   116970886.523       -1225.075          37.000  
  22324459.414   117315847.538       -1225.083          39.000  
  22295737.102   117164908.295       -1225.073          39.000  
  22433180.113   117887154.025       -1225.051          38.000  
  22281658.630   117090956.499       -1225.104          50.000  
  22247385.836   116910817.940       -1225.133          39.000  
  22320941.873   117297362.473       -1225.132          39.000  
  22392737.247   117674632.188       -1225.003          38.000  
  22161225.694   116458058.553       -1224.982          39.000  
  22129577.211   116291731.298       -1225.024          39.000  
  22287826.582   117123323.892       -1225.074          39.000  
  22135730.592   116324087.052       -1225.146          40.000  
  22449005.149   117970323.369       -1225.157          39.000  
 25  8 13  8 48 19.6020000  0 29G 1G31G27G 8G 6G 2G24G17G19G29G 5G 4
                                G10G16G15G 7G13G20G23G 9G 3G26G22G18
                                G12G21G25G14G11
  22281686.380   117091242.326       -1225.287          49.000  
  22248309.656   116915654.602       -1225.302          40.000  
  22224279.953   116789378.964       -1225.295          40.000  
  22281709.835   117091223.821       -1225.308          50.000  
  22281718.867   117091228.477       -1225.263          50.000  
  22281707.458   117091236.552       -1225.269          50.000  
  22184718.850   116581493.648       -1225.286          38.000  
  22264141.180   116998865.036       -1225.274          37.000  
  22290508.475   117137442.119       -1225.325          38.000  
  22265307.696   117005018.554       -1225.316          37.000  
  22281712.386   117091196.364       -1225.286          44.000  
  22281711.906   117091221.686       -1225.293          49.000  
  22382361.199   117620097.434       -1225.198          38.000  
  22145156.705   116373662.049       -1225.273          40.000  
  22239521.393   116869565.046       -1225.228          38.000  
  22281699.436   117091238.193       -1225.301          50.000  
  22258859.293   116971131.557       -1225.094          37.000  
  22324506.034   117316092.576       -1225.242          39.000  
  22295783.726   117165153.342       -1225.360          39.000  
  22433226.707   117887399.070       -1225.236          38.000  
  22281705.221   117091201.540       -1225.256          50.000  
  22247432.466   116911062.978       -1225.214          39.000  
  22320988.506   117297607.513       -1225.285          39.000  
  22392783.814   117674877.241       -1225.218          38.000  
  22161272.302   116458303.601       -1225.220          39.000  
  22129623.853   116291976.333       -1225.186          39.000  
  22287873.231   117123568.941       -1225.288          39.000  
  22135777.178   116324332.094       -1225.295          40.000  
  22449051.744   117970568.403       -1225.270          39.000  
 25  8 13  8 48 19.8020000  0 29G 1G31G27G 8G 6G 2G24G17G19G29G 5G 4
                                G10G16G15G 7G13G20G23G 9G 3G26G22G18
                                G12G21G25G14G11
  22281733.457   117091487.369       -1225.257          49.000  
  22248356.279   116915899.642       -1225.232          40.000  
  22224326.617   116789624.004       -1225.125          40.000  
  22281756.472   117091468.862       -1225.230          50.000  
  22281765.517   117091473.519       -1225.222          50.000  
  22281754.041   117091481.595       -1225.256          50.000  
  22184765.446   116581738.688       -1225.201          38.000  
  22264187.807   116999110.076       -1225.179          37.000  
  22290555.131   117137687.152       -1225.163          37.000  
  22265354.373   117005263.595       -1225.236          37.000  
  22281759.012   117091441.409       -1225.309          44.000  
  22281758.620   117091466.726       -1225.252          49.000  
  22382407.857   117620342.482       -1225.218          38.000  
  22145203.374   116373907.096       -1225.477          40.000  
  22239568.010   116869810.087       -1225.198          38.000  
  22281746.006   117091483.234       -1225.270          50.000  
  22258905.951   116971376.606       -1225.224          36.000  
  22324552.657   117316337.614       -1225.116          39.000  
  22295830.409   117165398.379       -1225.266          39.000  
  22433273.304   117887644.116       -1225.241          37.000  
  22281751.816   117091446.583       -1225.216          50.000  
  22247479.096   116911308.023       -1225.235          39.000  
  22321035.128   117297852.550       -1225.136          39.000  
  22392830.479   117675122.288       -1225.320          38.000  
  22161318.934   116458548.644       -1225.228          39.000  
  22129670.504   116292221.374       -1224.937          39.000  
  22287919.821   117123813.982       -1225.226          38.000  
  22135823.796   116324577.134       -1225.220          40.000  
  22449098.357   117970813.442       -1225.103          39.000  
 25  8 13  8 48 20.0020000  0 29G 1G31G27G 8G 6G 2G24G17G19G29G 5G 4
                                G10G16G15G 7G13G20G23G 9G 3G26G22G18
                                G12G21G25G14G11
  22281779.937   117091732.435       -1225.436          49.000  
  22248402.876   116916144.712       -1225.364          40.000  
  22224373.258   116789869.067       -1225.416          40.000  
  22281803.052   117091713.929       -1225.409          50.000  
  22281812.130   117091718.588       -1225.383          50.000  
  22281800.634   117091726.663       -1225.343          50.000  
  22184812.063   116581983.761       -1225.439          38.000  
  22264234.383   116999355.158       -1225.246          37.000  
  22290601.745   117137932.220       -1225.529          38.000  
  22265400.920   117005508.661       -1225.431          37.000  
  22281805.630   117091686.470       -1225.411          44.000  
  22281805.255   117091711.793       -1225.396          49.000  
  22382454.501   117620587.560       -1225.365          38.000  
  22145249.986   116374152.174       -1225.237          40.000  
  22239614.624   116870055.147       -1225.484          38.000  
  22281792.583   117091728.301       -1225.409          50.000  
  22258952.638   116971621.663       -1225.581          37.000  
  22324599.261   117316582.688       -1225.462          39.000  
  22295876.980   117165643.454       -1225.378          39.000  
  22433320.004   117887889.184       -1225.392          38.000  
  22281798.427   117091691.647       -1225.403          50.000  
  22247525.757   116911553.083       -1225.531          39.000  
  22321081.771   117298097.648       -1225.082          39.000  
  22392877.099   117675367.358       -1225.395          38.000  
  22161365.569   116458793.704       -1225.452          39.000  
  22129717.151   116292466.464       -1225.349          39.000  
  22287966.528   117124059.056       -1225.462          38.000  
  22135870.392   116324822.206       -1225.437          40.000  
  22449144.975   117971058.530       -1225.222          39.000  
 25  8 13  8 48 20.2020000  0 29G 1G31G27G 8G 6G 2G24G17G19G29G 5G 4
                                G10G16G15G 7G13G20G23G 9G 3G26G22G18
                                G12G21G25G14G11
  22281826.411   117091977.455       -1225.048          49.000  
  22248449.480   116916389.737       -1225.101          40.000  
  22224419.899   116790114.088       -1225.067          40.000  
  22281849.632   117091958.950       -1225.054          50.000  
  22281858.770   117091963.611       -1225.059          50.000  
  22281847.178   117091971.688       -1225.100          50.000  
  22184858.721   116582228.777       -1225.038          38.000  
  22264280.981   116999600.182       -1225.074          37.000  
  22290648.366   117138177.237       -1225.020          38.000  
  22265447.524   117005753.680       -1225.015          37.000  
  22281852.264   117091931.489       -1225.016          44.000  
  22281851.846   117091956.814       -1225.041          49.000  
  22382501.105   117620832.581       -1225.068          38.000  
  22145296.641   116374397.197       -1225.093          40.000  
  22239661.272   116870300.164       -1225.059          38.000  
  22281839.177   117091973.322       -1225.067          50.000  
  22258999.241   116971866.679       -1224.963          37.000  
  22324645.925   117316827.701       -1224.998          39.000  
  22295923.666   117165888.474       -1225.073          38.000  
  22433366.641   117888134.202       -1225.108          38.000  
  22281845.032   117091936.671       -1225.100          50.000  
  22247572.371   116911798.100       -1225.032          39.000  
  22321128.416   117298342.675       -1225.124          39.000  
  22392923.676   117675612.378       -1225.067          38.000  
  22161412.179   116459038.724       -1225.001          40.000  
  22129763.775   116292711.486       -1225.120          39.000  
  22288013.113   117124304.071       -1225.056          38.000  
  22135916.952   116325067.225       -1225.027          40.000  
  22449191.646   117971303.551       -1225.095          39.000  
 25  8 13  8 48 20.4020000  0 29G 1G31G27G 8G 6G 2G24G17G19G29G 5G 4
                                G10G16G15G 7G13G20G23G 9G 3G26G22G18
                                G12G21G25G14G11
  22281872.863   117092222.478       -1225.191          50.000  
  22248496.088   116916634.759       -1225.203          40.000  
  22224466.526   116790359.114       -1225.209          40.000  
  22281896.232   117092203.972       -1225.186          50.000  
  22281905.406   117092208.632       -1225.165          50.000  
  22281893.746   117092216.707       -1225.159          50.000  
  22184905.337   116582473.800       -1225.166          38.000  
  22264327.685   116999845.202       -1225.152          37.000  
  22290695.000   117138422.260       -1225.233          38.000  
  22265494.121   117005998.702       -1225.193          37.000  
  22281898.880   117092176.516       -1225.216          44.000  
  22281898.575   117092201.836       -1225.185          49.000  
  22382547.752   117621077.606       -1225.068          38.000  
  22145343.247   116374642.212       -1225.154          40.000  
  22239707.892   116870545.183       -1225.048          38.000  
  22281885.749   117092218.344       -1225.172          50.000  
  22259045.892   116972111.707       -1225.129          37.000  
  22324692.558   117317072.732       -1225.180          39.000  
  22295970.243   117166133.495       -1225.159          38.000  
  22433413.288   117888379.219       -1225.165          38.000  
  22281891.606   117092181.691       -1225.193          50.000  
  22247618.990   116912043.124       -1225.117          39.000  
  22321175.062   117298587.697       -1225.157          39.000  
  22392970.302   117675857.400       -1225.239          38.000  
  22161458.768   116459283.749       -1225.171          40.000  
  22129810.418   116292956.509       -1225.123          39.000  
  22288059.786   117124549.091       -1225.147          38.000  
  22135963.577   116325312.249       -1225.162          40.000  
  22449238.257   117971548.572       -1225.084          39.000  
 25  8 13  8 48 20.6020000  0 29G 1G31G27G 8G 6G 2G24G17G19G29G 5G 4
                                G10G16G15G 7G13G20G23G 9G 3G26G22G18
                                G12G21G25G14G11
  22281919.385   117092467.501       -1225.157          50.000  
  22248542.691   116916879.781       -1225.139          40.000  
  22224513.169   116790604.132       -1225.158          40.000  
  22281942.795   117092448.995       -1225.150          50.000  
  22281952.058   117092453.656       -1225.156          50.000  
  22281940.227   117092461.731       -1225.132          50.000  
  22184951.981   116582718.827       -1225.188          38.000  
  22264374.310   117000090.225       -1225.193          37.000  
  22290741.632   117138667.287       -1225.166          38.000  
  22265540.783   117006243.731       -1225.234          37.000  
  22281945.453   117092421.538       -1225.184          44.000  
  22281945.180   117092446.859       -1225.144          49.000  
  22382594.379   117621322.630       -1225.226          38.000  
  22145389.868   116374887.243       -1225.173          40.000  
  22239754.490   116870790.208       -1225.104          38.000  
  22281932.293   117092463.368       -1225.170          50.000  
  22259092.496   116972356.731       -1225.260          37.000  
  22324739.186   117317317.755       -1225.314          39.000  
  22296016.909   117166378.517       -1225.083          38.000  
  22433459.917   117888624.252       -1225.200          38.000  
  22281938.157   117092426.715       -1225.135          50.000  
  22247665.613   116912288.151       -1225.230          39.000  
  22321221.688   117298832.718       -1225.166          39.000  
  22393016.954   117676102.421       -1225.104          38.000  
  22161505.367   116459528.768       -1225.127          40.000  
  22129857.030   116293201.530       -1225.192          39.000  
  22288106.373   117124794.119       -1225.161          38.000  
  22136010.213   116325557.275       -1225.212          40.000  
  22449284.898   117971793.603       -1225.261          39.000  
 25  8 13  8 48 20.8020000  0 29G 1G31G27G 8G 6G 2G24G17G19G29G 5G 4
                                G10G16G15G 7G13G20G23G 9G 3G26G22G18
                                G12G21G25G14G11
  22281965.781   117092712.527       -1225.102          50.000  
  22248589.347   116917124.808       -1225.128          40.000  
  22224559.785   116790849.159       -1225.104          40.000  
  22281989.327   117092694.021       -1225.104          50.000  
  22281998.671   117092698.680       -1225.098          50.000  
  22281986.728   117092706.757       -1225.092          50.000  
  22184998.605   116582963.851       -1225.176          38.000  
  22264420.917   117000335.245       -1224.960          38.000  
  22290788.245   117138912.313       -1225.181          38.000  
  22265587.373   117006488.758       -1225.243          37.000  
  22281992.091   117092666.562       -1225.130          44.000  
  22281991.796   117092691.886       -1225.096          49.000  
  22382640.989   117621567.654       -1225.133          38.000  
  22145436.495   116375132.269       -1225.181          40.000  
  22239801.053   116871035.234       -1225.045          38.000  
  22281978.846   117092708.394       -1225.116          50.000  
  22259139.160   116972601.751       -1225.067          37.000  
  22324785.822   117317562.777       -1225.121          38.000  
  22296063.490   117166623.549       -1225.198          38.000  
  22433506.540   117888869.280       -1225.178          38.000  
  22281984.681   117092671.741       -1225.123          50.000  
  22247712.242   116912533.172       -1225.092          39.000  
  22321268.347   117299077.745       -1225.138          39.000  
  22393063.560   117676347.451       -1225.134          38.000  
  22161551.995   116459773.797       -1225.055          40.000  
  22129903.688   116293446.554       -1225.081          39.000  
  22288152.992   117125039.142       -1225.118          38.000  
  22136056.819   116325802.296       -1225.065          40.000  
  22449331.567   117972038.626       -1225.123          39.000  
 25  8 13  8 48 21.0020000  0 29G 1G31G27G 8G 6G 2G24G17G19G29G 5G 4
                                G10G16G15G 7G13G20G23G 9G 3G26G22G18
                                G12G21G25G14G11
  22282012.230   117092957.533       -1225.062          50.000  
  22248635.971   116917369.818       -1225.178          40.000  
  22224606.415   116791094.169       -1225.127          40.000  
  22282035.930   117092939.029       -1225.140          50.000  
  22282045.314   117092943.691       -1225.138          50.000  
  22282033.317   117092951.770       -1225.198          50.000  
  22185045.257   116583208.853       -1225.024          38.000  
  22264467.502   117000580.263       -1225.225          38.000  
  22290834.862   117139157.312       -1224.955          38.000  
  22265634.015   117006733.759       -1225.088          37.000  
  22282038.755   117092911.569       -1225.154          44.000  
  22282038.453   117092936.890       -1225.135          49.000  
  22382687.610   117621812.663       -1225.141          38.000  
  22145483.118   116375377.270       -1225.065          40.000  
  22239847.665   116871280.242       -1225.134          38.000  
  22282025.439   117092953.401       -1225.114          50.000  
  22259185.784   116972846.768       -1225.156          37.000  
  22324832.441   117317807.787       -1225.172          38.000  
  22296110.162   117166868.555       -1225.175          38.000  
  22433553.148   117889114.280       -1225.101          38.000  
  22282031.294   117092916.750       -1225.134          50.000  
  22247758.888   116912778.180       -1225.114          39.000  
  22321314.932   117299322.755       -1225.152          39.000  
  22393110.171   117676592.456       -1225.102          38.000  
  22161598.618   116460018.806       -1225.160          40.000  
  22129950.349   116293691.568       -1225.178          39.000  
  22288199.588   117125284.147       -1225.060          38.000  
  22136103.392   116326047.305       -1225.073          40.000  
  22449378.196   117972283.634       -1225.093          38.000  
 25  8 13  8 48 21.2020000  0 29G 1G31G27G 8G 6G 2G24G17G19G29G 5G 4
                                G10G16G15G 7G13G20G23G 9G 3G26G22G18
                                G12G21G25G14G11
  22282058.846   117093202.576       -1225.201          50.000  
  22248682.607   116917614.855       -1225.168          40.000  
  22224653.021   116791339.208       -1225.215          40.000  
  22282082.498   117093184.068       -1225.181          50.000  
  22282091.935   117093188.728       -1225.169          50.000  
  22282079.929   117093196.805       -1225.184          50.000  
  22185091.859   116583453.900       -1225.251          38.000  
  22264514.135   117000825.297       -1225.176          38.000  
  22290881.506   117139402.360       -1225.144          38.000  
  22265680.640   117006978.803       -1225.234          37.000  
  22282085.409   117093156.610       -1225.208          44.000  
  22282085.071   117093181.937       -1225.230          49.000  
  22382734.218   117622057.701       -1225.162          38.000  
  22145529.800   116375622.320       -1225.254          40.000  
  22239894.292   116871525.281       -1225.151          38.000  
  22282072.035   117093198.442       -1225.175          50.000  
  22259232.459   116973091.799       -1225.118          37.000  
  22324879.088   117318052.826       -1225.207          38.000  
  22296156.751   117167113.597       -1225.258          38.000  
  22433599.768   117889359.324       -1225.134          38.000  
  22282077.897   117093161.787       -1225.169          50.000  
  22247805.516   116913023.220       -1225.141          39.000  
  22321361.565   117299567.793       -1225.222          40.000  
  22393156.785   117676837.501       -1225.206          38.000  
  22161645.287   116460263.845       -1225.188          40.000  
  22129996.984   116293936.608       -1225.288          39.000  
  22288246.246   117125529.189       -1225.208          38.000  
  22136150.027   116326292.348       -1225.240          40.000  
  22449424.840   117972528.677       -1225.271          38.000  
 25  8 13  8 48 21.4020000  0 29G 1G31G27G 8G 6G 2G24G17G19G29G 5G 4
                                G10G16G15G 7G13G20G23G 9G 3G26G22G18
                                G12G21G25G14G11
  22282105.335   117093447.624       -1225.291          50.000  
  22248729.181   116917859.907       -1225.337          40.000  
  22224699.645   116791584.254       -1225.281          40.000  
  22282129.123   117093429.117       -1225.272          50.000  
  22282138.593   117093433.776       -1225.246          50.000  
  22282126.508   117093441.854       -1225.266          50.000  
  22185138.498   116583698.940       -1225.274          38.000  
  22264560.759   117001070.344       -1225.315          38.000  
  22290928.165   117139647.411       -1225.388          38.000  
  22265727.256   117007223.850       -1225.356          37.000  
  22282132.024   117093401.659       -1225.330          44.000  
  22282131.746   117093426.982       -1225.346          49.000  
  22382780.848   117622302.748       -1225.233          38.000  
  22145576.464   116375867.364       -1225.442          40.000  
  22239940.919   116871770.326       -1225.227          38.000  
  22282118.643   117093443.491       -1225.304          50.000  
  22259279.080   116973336.848       -1225.203          37.000  
  22324925.735   117318297.871       -1225.236          38.000  
  22296203.348   117167358.639       -1225.280          38.000  
  22433646.415   117889604.377       -1225.346          38.000  
  22282124.482   117093406.836       -1225.297          50.000  
  22247852.165   116913268.266       -1225.313          39.000  
  22321408.160   117299812.837       -1225.200          40.000  
  22393203.463   117677082.550       -1225.343          38.000  
  22161691.893   116460508.888       -1225.183          40.000  
  22130043.606   116294181.651       -1225.194          39.000  
  22288292.860   117125774.238       -1225.318          38.000  
  22136196.680   116326537.392       -1225.281          40.000  
  22449471.438   117972773.719       -1225.294          38.000  
 25  8 13  8 48 21.6020000  0 29G 1G31G27G 8G 6G 2G24G17G19G29G 5G 4
                                G10G16G15G 7G13G20G23G 9G 3G26G22G18
                                G12G21G25G14G11
  22282151.848   117093692.673       -1225.271          50.000  
  22248775.833   116918104.957       -1225.279          40.000  
  22224746.258   116791829.305       -1225.219          40.000  
  22282175.702   117093674.167       -1225.231          50.000  
  22282185.198   117093678.826       -1225.238          50.000  
  22282173.048   117093686.904       -1225.225          50.000  
  22185185.124   116583943.992       -1225.252          38.000  
  22264607.344   117001315.394       -1225.120          38.000  
  22290974.794   117139892.449       -1225.170          38.000  
  22265773.900   117007468.897       -1225.301          37.000  
  22282178.681   117093646.707       -1225.207          44.000  
  22282178.403   117093672.030       -1225.199          49.000  
  22382827.500   117622547.800       -1225.224          38.000  
  22145623.064   116376112.409       -1225.217          40.000  
  22239987.530   116872015.380       -1225.266          38.000  
  22282165.223   117093688.541       -1225.237          50.000  
  22259325.690   116973581.900       -1225.157          37.000  
  22324972.361   117318542.923       -1225.184          38.000  
  22296249.984   117167603.689       -1225.185          38.000  
  22433693.056   117889849.421       -1225.259          38.000  
  22282171.071   117093651.887       -1225.265          50.000  
  22247898.776   116913513.318       -1225.231          39.000  
  22321454.789   117300057.895       -1225.284          40.000  
  22393250.088   117677327.599       -1225.271          38.000  
  22161738.519   116460753.945       -1225.203          40.000  
  22130090.214   116294426.701       -1225.186          39.000  
  22288339.468   117126019.288       -1225.352          38.000  
  22136243.321   116326782.442       -1225.193          40.000  
  22449518.067   117973018.771       -1225.246          38.000  
 25  8 13  8 48 21.8020000  0 29G 1G31G27G 8G 6G 2G24G17G19G29G 5G 4
                                G10G16G15G 7G13G20G23G 9G 3G26G22G18
                                G12G21G25G14G11
  22282198.286   117093937.702       -1224.998          50.000  
  22248822.392   116918349.982       -1225.078          40.000  
  22224792.928   116792074.333       -1225.071          40.000  
  22282222.317   117093919.195       -1225.030          50.000  
  22282231.837   117093923.856       -1225.051          50.000  
  22282219.620   117093931.934       -1225.084          50.000  
  22185231.786   116584189.023       -1225.006          38.000  
  22264653.971   117001560.424       -1225.114          38.000  
  22291021.379   117140137.484       -1225.000          38.000  
  22265820.549   117007713.919       -1225.078          37.000  
  22282225.279   117093891.740       -1225.094          44.000  
  22282224.983   117093917.058       -1225.064          49.000  
  22382874.154   117622792.820       -1225.173          38.000  
  22145669.681   116376357.437       -1225.118          40.000  
  22240034.107   116872260.405       -1225.038          38.000  
  22282211.842   117093933.569       -1225.050          50.000  
  22259372.300   116973826.942       -1225.007          37.000  
  22325018.975   117318787.962       -1225.027          38.000  
  22296296.607   117167848.713       -1225.066          38.000  
  22433739.661   117890094.456       -1225.042          38.000  
  22282217.680   117093896.914       -1225.025          50.000  
  22247945.362   116913758.352       -1224.962          39.000  
  22321501.415   117300302.917       -1225.151          40.000  
  22393296.724   117677572.619       -1225.092          38.000  
  22161785.167   116460998.975       -1225.101          40.000  
  22130136.845   116294671.727       -1225.084          39.000  
  22288386.078   117126264.318       -1224.872          38.000  
  22136289.911   116327027.477       -1225.006          40.000  
  22449564.679   117973263.804       -1225.000          38.000  
 25  8 13  8 48 22.0020000  0 29G 1G31G27G 8G 6G 2G24G17G19G29G 5G 4
                                G10G16G15G 7G13G20G23G 9G 3G26G22G18
                                G12G21G25G14G11
  22282244.762   117094182.749       -1225.291          50.000  
  22248869.019   116918595.027       -1225.206          40.000  
  22224839.516   116792319.375       -1225.188          40.000  
  22282268.914   117094164.240       -1225.234          50.000  
  22282278.451   117094168.899       -1225.221          50.000  
  22282266.199   117094176.974       -1225.182          50.000  
  22185278.404   116584434.068       -1225.168          38.000  
  22264700.595   117001805.466       -1225.273          37.000  
  22291067.973   117140382.530       -1225.238          38.000  
  22265867.130   117007958.968       -1225.258          37.000  
  22282271.943   117094136.783       -1225.274          44.000  
  22282271.666   117094162.104       -1225.279          49.000  
  22382920.804   117623037.863       -1225.268          38.000  
  22145716.280   116376602.483       -1225.253          40.000  
  22240080.703   116872505.453       -1225.327          38.000  
  22282258.430   117094178.611       -1225.215          50.000  
  22259418.964   116974071.989       -1225.304          37.000  
  22325065.633   117319033.009       -1225.345          39.000  
  22296343.229   117168093.757       -1225.235          37.000  
  22433786.278   117890339.497       -1225.255          38.000  
  22282264.311   117094141.959       -1225.201          50.000  
  22247991.975   116914003.402       -1225.317          39.000  
  22321548.051   117300547.962       -1225.320          40.000  
  22393343.338   117677817.663       -1225.214          38.000  
  22161831.787   116461244.020       -1225.308          40.000  
  22130183.490   116294916.770       -1225.294          38.000  
  22288432.723   117126509.372       -1225.262          38.000  
  22136336.564   116327272.524       -1225.306          40.000  
  22449611.322   117973508.851       -1225.336          38.000  
 25  8 13  8 48 22.2020000  0 29G 1G31G27G 8G 6G 2G24G17G19G29G 5G 4
                                G10G16G15G 7G13G20G23G 9G 3G26G22G18
                                G12G21G25G14G11
  22282291.298   117094427.812       -1225.403          50.000  
  22248915.639   116918840.092       -1225.464          40.000  
  22224886.190   116792564.443       -1225.420          40.000  
  22282315.531   117094409.300       -1225.319          50.000  
  22282325.104   117094413.959       -1225.312          50.000  
  22282312.759   117094422.038       -1225.326          50.000  
  22185325.073   116584679.132       -1225.315          38.000  
  22264747.280   117002050.525       -1225.428          37.000  
  22291114.591   117140627.596       -1225.330          38.000  
  22265913.822   117008204.028       -1225.484          37.000  
  22282318.547   117094381.844       -1225.343          45.000  
  22282318.341   117094407.165       -1225.384          49.000  
  22382967.451   117623282.928       -1225.395          38.000  
  22145762.929   116376847.545       -1225.479          40.000  
  22240127.275   116872750.510       -1225.373          38.000  
  22282305.069   117094423.675       -1225.351          50.000  
  22259465.566   116974317.048       -1225.365          37.000  
  22325112.255   117319278.067       -1225.367          39.000  
  22296389.883   117168338.826       -1225.424          37.000  
  22433832.948   117890584.566       -1225.395          38.000  
  22282310.907   117094387.019       -1225.320          50.000  
  22248038.642   116914248.462       -1225.423          39.000  
  22321594.701   117300793.022       -1225.378          40.000  
  22393389.980   117678062.725       -1225.410          38.000  
  22161878.402   116461489.083       -1225.416          40.000  
  22130230.110   116295161.837       -1225.299          38.000  
  22288479.351   117126754.431       -1225.431          38.000  
  22136383.155   116327517.583       -1225.367          40.000  
  22449657.963   117973753.910       -1225.330          38.000  
 25  8 13  8 48 22.4020000  0 29G 1G31G27G 8G 6G 2G24G17G19G29G 5G 4
                                G10G16G15G 7G13G20G23G 9G 3G26G22G18
                                G12G21G25G14G11
  22282337.743   117094672.872       -1225.427          50.000  
  22248962.316   116919085.152       -1225.428          40.000  
  22224932.797   116792809.503       -1225.439          40.000  
  22282362.104   117094654.364       -1225.379          50.000  
  22282371.759   117094659.024       -1225.419          50.000  
  22282359.326   117094667.103       -1225.417          50.000  
  22185371.690   116584924.197       -1225.458          38.000  
  22264793.887   117002295.586       -1225.368          37.000  
  22291161.227   117140872.656       -1225.399          38.000  
  22265960.447   117008449.089       -1225.511          37.000  
  22282365.183   117094626.910       -1225.444          44.000  
  22282365.043   117094652.226       -1225.406          49.000  
  22383014.068   117623527.989       -1225.379          38.000  
  22145809.565   116377092.600       -1225.410          40.000  
  22240173.864   116872995.574       -1225.417          38.000  
  22282351.643   117094668.735       -1225.373          50.000  
  22259512.230   116974562.113       -1225.445          37.000  
  22325158.897   117319523.132       -1225.419          38.000  
  22296436.493   117168583.880       -1225.347          37.000  
  22433879.566   117890829.624       -1225.427          38.000  
  22282357.511   117094632.085       -1225.410          50.000  
  22248085.281   116914493.523       -1225.469          39.000  
  22321641.355   117301038.083       -1225.393          39.000  
  22393436.663   117678307.786       -1225.426          39.000  
  22161925.032   116461734.142       -1225.381          39.000  
  22130276.750   116295406.899       -1225.448          38.000  
  22288525.972   117126999.496       -1225.464          38.000  
  22136429.766   116327762.646       -1225.413          40.000  
  22449704.607   117973998.972       -1225.354          38.000  
 25  8 13  8 48 22.6020000  0 29G 1G31G27G 8G 6G 2G24G17G19G29G 5G 4
                                G10G16G15G 7G13G20G23G 9G 3G26G22G18
                                G12G21G25G14G11
  22282384.161   117094917.941       -1225.262          50.000  
  22249008.891   116919330.216       -1225.194          40.000  
  22224979.439   116793054.573       -1225.316          40.000  
  22282408.671   117094899.433       -1225.296          50.000  
  22282418.383   117094904.090       -1225.252          50.000  
  22282405.831   117094912.171       -1225.278          50.000  
  22185418.350   116585169.253       -1225.198          38.000  
  22264840.518   117002540.651       -1225.161          37.000  
  22291207.907   117141117.728       -1225.333          38.000  
  22266007.111   117008694.162       -1225.266          37.000  
  22282411.776   117094871.975       -1225.244          44.000  
  22282411.635   117094897.300       -1225.346          49.000  
  22383060.750   117623773.081       -1225.609          38.000  
  22145856.173   116377337.671       -1225.182          40.000  
  22240220.469   116873240.662       -1225.512          38.000  
  22282398.236   117094913.801       -1225.240          50.000  
  22259558.847   116974807.162       -1225.027          37.000  
  22325205.526   117319768.190       -1225.168          38.000  
  22296483.111   117168828.949       -1225.258          37.000  
  22433926.174   117891074.694       -1225.364          38.000  
  22282404.119   117094877.156       -1225.315          50.000  
  22248131.943   116914738.583       -1225.149          39.000  
  22321687.978   117301283.144       -1225.201          39.000  
  22393483.291   117678552.877       -1225.445          39.000  
  22161971.702   116461979.208       -1225.291          39.000  
  22130323.381   116295651.976       -1225.486          38.000  
  22288572.585   117127244.545       -1225.048          38.000  
  22136476.336   116328007.706       -1225.182          40.000  
  22449751.214   117974244.018       -1225.063          38.000  
 25  8 13  8 48 22.8020000  0 29G 1G31G27G 8G 6G 2G24G17G19G29G 5G 4
                                G10G16G15G 7G13G20G23G 9G 3G26G22G18
                                G12G21G25G14G11
  22282430.412   117095163.010       -1225.507          50.000  
  22249055.569   116919575.287       -1225.447          40.000  
  22225026.073   116793299.641       -1225.422          40.000  
  22282455.288   117095144.500       -1225.423          50.000  
  22282465.017   117095149.158       -1225.388          50.000  
  22282452.405   117095157.240       -1225.355          50.000  
  22185464.960   116585414.325       -1225.472          38.000  
  22264887.118   117002785.719       -1225.387          37.000  
  22291254.576   117141362.799       -1225.562          38.000  
  22266053.745   117008939.230       -1225.470          38.000  
  22282458.432   117095117.051       -1225.412          45.000  
  22282458.386   117095142.363       -1225.465          49.000  
  22383107.368   117624018.138       -1225.472          38.000  
  22145902.798   116377582.739       -1225.369          40.000  
  22240267.122   116873485.724       -1225.456          38.000  
  22282444.828   117095158.868       -1225.422          50.000  
  22259605.483   116975052.237       -1225.351          37.000  
  22325252.169   117320013.259       -1225.466          38.000  
  22296529.771   117169074.022       -1225.595          37.000  
  22433972.797   117891319.762       -1225.481          39.000  
  22282450.727   117095122.223       -1225.377          50.000  
  22248178.563   116914983.655       -1225.494          39.000  
  22321734.614   117301528.219       -1225.475          39.000  
  22393529.934   117678797.937       -1225.408          38.000  
  22162018.361   116462224.275       -1225.494          39.000  
  22130369.997   116295897.038       -1225.430          38.000  
  22288619.235   117127489.625       -1225.457          38.000  
  22136522.957   116328252.776       -1225.402          40.000  
  22449797.878   117974489.096       -1225.466          38.000  
 25  8 13  8 48 23.0020000  0 29G 1G31G27G 8G 6G 2G24G17G19G29G 5G 4
                                G10G16G15G 7G13G20G23G 9G 3G26G22G18
                                G12G21G25G14G11
  22282476.699   117095408.063       -1225.171          50.000  
  22249102.155   116919820.340       -1225.190          40.000  
  22225072.721   116793544.695       -1225.232          40.000  
  22282501.907   117095389.556       -1225.156          50.000  
  22282511.669   117095394.214       -1225.158          50.000  
  22282498.970   117095402.297       -1225.190          50.000  
  22185511.619   116585659.380       -1225.236          38.000  
  22264933.720   117003030.778       -1225.215          37.000  
  22291301.185   117141607.856       -1225.149          38.000  
  22266100.360   117009184.286       -1225.161          38.000  
  22282505.105   117095362.105       -1225.223          45.000  
  22282504.937   117095387.420       -1225.162          49.000  
  22383154.021   117624263.194       -1225.176          38.000  
  22145949.385   116377827.803       -1225.184          40.000  
  22240313.752   116873730.776       -1225.150          38.000  
  22282491.475   117095403.926       -1225.175          50.000  
  22259652.064   116975297.291       -1225.244          37.000  
  22325298.785   117320258.314       -1225.230          38.000  
  22296576.408   117169319.074       -1225.204          37.000  
  22434019.374   117891564.816       -1225.191          39.000  
  22282497.333   117095367.283       -1225.202          50.000  
  22248225.209   116915228.705       -1225.099          39.000  
  22321781.235   117301773.272       -1225.243          40.000  
  22393576.576   117679042.997       -1225.294          38.000  
  22162064.999   116462469.330       -1225.209          39.000  
  22130416.620   116296142.095       -1225.215          39.000  
  22288665.852   117127734.678       -1225.203          38.000  
  22136569.551   116328497.833       -1225.187          40.000  
  22449844.451   117974734.146       -1225.106          38.000  
 25  8 13  8 48 23.2020000  0 29G 1G31G27G 8G 6G 2G24G17G19G29G 5G 4
                                G10G16G15G 7G13G20G23G 9G 3G26G22G18
                                G12G21G25G14G11
  22282523.156   117095653.114       -1225.244          50.000  
  22249148.832   116920065.393       -1225.218          40.000  
  22225119.355   116793789.745       -1225.178          40.000  
  22282548.518   117095634.607       -1225.185          50.000  
  22282558.288   117095639.266       -1225.158          50.000  
  22282545.505   117095647.348       -1225.186          50.000  
  22185558.194   116585904.433       -1225.222          38.000  
  22264980.318   117003275.829       -1225.284          37.000  
  22291347.831   117141852.911       -1225.229          38.000  
  22266147.018   117009429.338       -1225.231          38.000  
  22282551.797   117095607.156       -1225.229          45.000  
  22282551.602   117095632.475       -1225.255          49.000  
  22383200.668   117624508.248       -1225.228          38.000  
  22145996.011   116378072.857       -1225.275          40.000  
  22240360.380   116873975.831       -1225.155          38.000  
  22282538.070   117095648.978       -1225.203          50.000  
  22259698.684   116975542.342       -1225.216          38.000  
  22325345.433   117320503.362       -1225.207          38.000  
  22296623.064   117169564.128       -1225.242          37.000  
  22434066.036   117891809.868       -1225.196          39.000  
  22282543.926   117095612.331       -1225.152          50.000  
  22248271.805   116915473.765       -1225.215          39.000  
  22321827.849   117302018.325       -1225.296          40.000  
  22393623.222   117679288.042       -1225.206          38.000  
  22162111.608   116462714.379       -1225.217          39.000  
  22130463.280   116296387.144       -1225.176          39.000  
  22288712.459   117127979.731       -1225.255          38.000  
  22136616.191   116328742.887       -1225.276          40.000  
  22449891.092   117974979.204       -1225.270          38.000  
 25  8 13  8 48 23.4020000  0 29G 1G31G27G 8G 6G 2G24G17G19G29G 5G 4
                                G10G16G15G 7G13G20G23G 9G 3G26G22G18
                                G12G21G25G14G11
  22282569.733   117095898.155       -1225.280          50.000  
  22249195.423   116920310.437       -1225.313          40.000  
  22225166.015   116794034.790       -1225.226          40.000  
  22282595.144   117095879.651       -1225.227          50.000  
  22282604.954   117095884.310       -1225.221          50.000  
  22282592.046   117095892.391       -1225.228          50.000  
  22185604.847   116586149.473       -1225.219          38.000  
  22265026.904   117003520.868       -1225.194          37.000  
  22291394.456   117142097.952       -1225.260          38.000  
  22266193.645   117009674.379       -1225.234          38.000  
  22282598.385   117095852.201       -1225.321          45.000  
  22282598.229   117095877.516       -1225.267          49.000  
  22383247.306   117624753.291       -1225.314          38.000  
  22146042.670   116378317.899       -1225.345          40.000  
  22240407.004   116874220.876       -1225.294          38.000  
  22282584.700   117095894.022       -1225.252          50.000  
  22259745.316   116975787.385       -1225.234          38.000  
  22325392.080   117320748.410       -1225.251          38.000  
  22296669.668   117169809.168       -1225.293          37.000  
  22434112.663   117892054.911       -1225.288          39.000  
  22282590.506   117095857.376       -1225.234          50.000  
  22248318.468   116915718.806       -1225.320          39.000  
  22321874.462   117302263.365       -1225.235          40.000  
  22393669.903   117679533.088       -1225.300          38.000  
  22162158.232   116462959.423       -1225.269          39.000  
  22130509.900   116296632.191       -1225.347          39.000  
  22288759.085   117128224.775       -1225.259          38.000  
  22136662.808   116328987.929       -1225.280          40.000  
  22449937.714   117975224.244       -1225.324          38.000  
 25  8 13  8 48 23.6020000  0 29G 1G31G27G 8G 6G 2G24G17G19G29G 5G 4
                                G10G16G15G 7G13G20G23G 9G 3G26G22G18
                                G12G21G25G14G11
  22282616.036   117096143.203       -1225.344          50.000  
  22249242.085   116920555.481       -1225.319          40.000  
  22225212.609   116794279.836       -1225.338          40.000  
  22282641.720   117096124.697       -1225.319          50.000  
  22282651.584   117096129.358       -1225.325          50.000  
  22282638.636   117096137.436       -1225.266          50.000  
  22185651.421   116586394.523       -1225.414          38.000  
  22265073.522   117003765.915       -1225.265          37.000  
  22291441.112   117142343.002       -1225.471          38.000  
  22266240.256   117009919.430       -1225.405          38.000  
  22282645.039   117096097.241       -1225.289          45.000  
  22282644.886   117096122.565       -1225.384          49.000  
  22383293.921   117624998.330       -1225.200          38.000  
  22146089.273   116378562.946       -1225.332          40.000  
  22240453.625   116874465.921       -1225.320          38.000  
  22282631.294   117096139.070       -1225.356          50.000  
  22259791.937   116976032.435       -1225.443          38.000  
  22325438.716   117320993.459       -1225.428          38.000  
  22296716.320   117170054.217       -1225.432          37.000  
  22434159.298   117892299.961       -1225.349          39.000  
  22282637.097   117096102.425       -1225.331          50.000  
  22248365.062   116915963.853       -1225.364          39.000  
  22321921.101   117302508.413       -1225.411          40.000  
  22393716.528   117679778.136       -1225.443          38.000  
  22162204.836   116463204.468       -1225.306          39.000  
  22130556.545   116296877.233       -1225.306          39.000  
  22288805.705   117128469.819       -1225.325          38.000  
  22136709.419   116329232.975       -1225.386          40.000  
  22449984.354   117975469.294       -1225.411          38.000  
 25  8 13  8 48 23.8020000  0 29G 1G31G27G 8G 6G 2G24G17G19G29G 5G 4
                                G10G16G15G 7G13G20G23G 9G 3G26G22G18
                                G12G21G25G14G11
  22282662.782   117096388.280       -1225.405          50.000  
  22249288.699   116920800.561       -1225.363          40.000  
  22225259.276   116794524.912       -1225.318          40.000  
  22282688.302   117096369.775       -1225.378          50.000  
  22282698.228   117096374.435       -1225.372          50.000  
  22282685.246   117096382.513       -1225.340          50.000  
  22185698.040   116586639.595       -1225.313          38.000  
  22265120.164   117004010.998       -1225.315          37.000  
  22291487.684   117142588.077       -1225.479          38.000  
  22266286.868   117010164.505       -1225.371          38.000  
  22282691.643   117096342.322       -1225.338          45.000  
  22282691.450   117096367.640       -1225.345          49.000  
  22383340.556   117625243.413       -1225.337          38.000  
  22146135.918   116378808.025       -1225.518          40.000  
  22240500.248   116874710.998       -1225.337          38.000  
  22282677.897   117096384.148       -1225.390          50.000  
  22259838.587   116976277.505       -1225.300          38.000  
  22325485.328   117321238.528       -1225.195          38.000  
  22296762.941   117170299.296       -1225.523          37.000  
  22434205.966   117892545.035       -1225.387          39.000  
  22282683.688   117096347.499       -1225.352          50.000  
  22248411.720   116916208.930       -1225.404          39.000  
  22321967.752   117302753.492       -1225.343          39.000  
  22393763.149   117680023.211       -1225.345          38.000  
  22162251.511   116463449.549       -1225.380          39.000  
  22130603.223   116297122.314       -1225.432          39.000  
  22288852.340   117128714.899       -1225.370          38.000  
  22136756.019   116329478.052       -1225.356          40.000  
  22450030.967   117975714.367       -1225.333          38.000  
 25  8 13  8 48 24.0020000  0 29G 1G31G27G 8G 6G 2G24G17G19G29G 5G 4
                                G10G16G15G 7G13G20G23G 9G 3G26G22G18
                                G12G21G25G14G11
  22282709.650   117096633.323       -1225.268          50.000  
  22249335.387   116921045.606       -1225.252          40.000  
  22225305.838   116794769.965       -1225.349          40.000  
  22282734.903   117096614.821       -1225.272          50.000  
  22282744.862   117096619.481       -1225.258          50.000  
  22282731.793   117096627.562       -1225.239          50.000  
  22185744.631   116586884.643       -1225.294          38.000  
  22265166.809   117004256.048       -1225.456          37.000  
  22291534.331   117142833.116       -1225.158          38.000  
  22266333.504   117010409.548       -1225.249          38.000  
  22282738.352   117096587.369       -1225.233          45.000  
  22282738.172   117096612.689       -1225.331          49.000  
  22383387.185   117625488.462       -1225.278          38.000  
  22146182.538   116379053.060       -1225.192          40.000  
  22240546.901   116874956.052       -1225.374          38.000  
  22282724.483   117096629.195       -1225.266          50.000  
  22259885.220   116976522.556       -1225.249          38.000  
  22325531.931   117321483.585       -1225.347          38.000  
  22296809.594   117170544.336       -1225.308          37.000  
  22434252.628   117892790.083       -1225.325          39.000  
  22282730.262   117096592.545       -1225.252          50.000  
  22248458.337   116916453.976       -1225.314          39.000  
  22322014.373   117302998.541       -1225.363          39.000  
  22393809.762   117680268.258       -1225.326          38.000  
  22162298.123   116463694.600       -1225.337          39.000  
  22130649.836   116297367.359       -1225.325          39.000  
  22288898.994   117128959.945       -1225.284          38.000  
  22136802.623   116329723.097       -1225.299          40.000  
  22450077.619   117975959.416       -1225.278          38.000  
 25  8 13  8 48 24.2020000  0 29G 1G31G27G 8G 6G 2G24G17G19G29G 5G 4
                                G10G16G15G 7G13G20G23G 9G 3G26G22G18
                                G12G21G25G14G11
  22282756.509   117096878.363       -1225.242          50.000  
  22249381.984   116921290.646       -1225.282          40.000  
  22225352.530   116795015.002       -1225.316          40.000  
  22282781.528   117096859.862       -1225.249          50.000  
  22282791.523   117096864.520       -1225.221          50.000  
  22282778.371   117096872.601       -1225.235          50.000  
  22185791.256   116587129.682       -1225.197          38.000  
  22265213.377   117004501.078       -1225.199          37.000  
  22291580.981   117143078.160       -1225.189          38.000  
  22266380.140   117010654.588       -1225.236          38.000  
  22282784.942   117096832.413       -1225.378          45.000  
  22282784.808   117096857.724       -1225.239          49.000  
  22383433.807   117625733.504       -1225.317          38.000  
  22146229.164   116379298.105       -1225.203          40.000  
  22240593.509   116875201.085       -1225.263          38.000  
  22282771.069   117096874.232       -1225.223          50.000  
  22259931.834   116976767.593       -1225.317          38.000  
  22325578.592   117321728.620       -1225.336          38.000  
  22296856.155   117170789.383       -1225.252          37.000  
  22434299.240   117893035.121       -1225.264          39.000  
  22282776.828   117096837.586       -1225.222          50.000  
  22248504.999   116916699.012       -1225.193          39.000  
  22322061.006   117303243.577       -1225.330          39.000  
  22393856.388   117680513.293       -1225.236          38.000  
  22162344.734   116463939.635       -1225.311          39.000  
  22130696.469   116297612.403       -1225.341          38.000  
  22288945.621   117129204.983       -1225.262          38.000  
  22136849.222   116329968.136       -1225.277          40.000  
  22450124.243   117976204.461       -1225.355          38.000  
 25  8 13  8 48 24.4020000  0 29G 1G31G27G 8G 6G 2G24G17G19G29G 5G 4
                                G10G16G15G 7G13G20G23G 9G 3G26G22G18
                                G12G21G25G14G11
  22282803.362   117097123.403       -1225.209          50.000  
  22249428.668   116921535.686       -1225.189          40.000  
  22225399.075   116795260.038       -1225.173          40.000  
  22282828.101   117097104.900       -1225.195          50.000  
  22282838.140   117097109.561       -1225.182          50.000  
  22282824.872   117097117.644       -1225.189          50.000  
  22185837.860   116587374.723       -1225.163          38.000  
  22265259.961   117004746.123       -1225.212          37.000  
  22291627.577   117143323.207       -1225.230          38.000  
  22266426.738   117010899.631       -1225.246          38.000  
  22282831.592   117097077.450       -1225.191          45.000  
  22282831.415   117097102.768       -1225.175          49.000  
  22383480.458   117625978.540       -1225.242          38.000  
  22146275.757   116379543.153       -1225.265          40.000  
  22240640.142   116875446.128       -1225.227          38.000  
  22282817.694   117097119.275       -1225.208          50.000  
  22259978.433   116977012.632       -1225.243          38.000  
  22325625.211   117321973.655       -1225.193          38.000  
  22296902.817   117171034.420       -1225.261          37.000  
  22434345.895   117893280.163       -1225.229          39.000  
  22282823.405   117097082.620       -1225.153          50.000  
  22248551.605   116916944.053       -1225.197          39.000  
  22322107.628   117303488.614       -1225.243          39.000  
  22393902.989   117680758.334       -1225.149          38.000  
  22162391.360   116464184.675       -1225.217          39.000  
  22130743.100   116297857.434       -1225.146          38.000  
  22288992.235   117129450.023       -1225.215          38.000  
  22136895.850   116330213.178       -1225.282          40.000  
  22450170.867   117976449.496       -1225.237          38.000  
 25  8 13  8 48 24.6020000  0 29G 1G31G27G 8G 6G 2G24G17G19G29G 5G 4
                                G10G16G15G 7G13G20G23G 9G 3G26G22G18
                                G12G21G25G14G11
  22282850.381   117097368.404       -1225.035          49.000  
  22249475.245   116921780.687       -1225.041          40.000  
  22225445.739   116795505.039       -1224.968          40.000  
  22282874.691   117097349.903       -1225.034          50.000  
  22282884.785   117097354.562       -1225.014          50.000  
  22282871.398   117097362.646       -1225.042          50.000  
  22185884.517   116587619.727       -1225.075          38.000  
  22265306.566   117004991.121       -1225.018          37.000  
  22291674.171   117143568.205       -1225.049          38.000  
  22266473.358   117011144.628       -1225.080          38.000  
  22282878.202   117097322.453       -1225.029          45.000  
  22282878.060   117097347.769       -1225.029          49.000  
  22383527.118   117626223.545       -1225.153          38.000  
  22146322.398   116379788.143       -1224.940          40.000  
  22240686.755   116875691.130       -1225.082          38.000  
  22282864.258   117097364.274       -1225.001          50.000  
  22260025.108   116977257.634       -1225.090          38.000  
  22325671.832   117322218.661       -1225.122          38.000  
  22296949.382   117171279.421       -1225.069          37.000  
  22434392.530   117893525.161       -1225.029          39.000  
  22282869.973   117097327.623       -1225.013          50.000  
  22248598.253   116917189.054       -1225.016          39.000  
  22322154.237   117303733.618       -1225.174          39.000  
  22393949.686   117681003.337       -1225.001          38.000  
  22162438.004   116464429.679       -1225.123          39.000  
  22130789.726   116298102.439       -1225.046          38.000  
  22289038.904   117129695.018       -1225.003          38.000  
  22136942.404   116330458.175       -1225.031          40.000  
  22450217.526   117976694.497       -1225.115          38.000  
 25  8 13  8 48 24.8020000  0 29G 1G31G27G 8G 6G 2G24G17G19G29G 5G 4
                                G10G16G15G 7G13G20G23G 9G 3G26G22G18
                                G12G21G25G14G11
  22282897.428   117097613.464       -1225.313          49.000  
  22249521.909   116922025.742       -1225.335          40.000  
  22225492.355   116795750.098       -1225.281          40.000  
  22282921.311   117097594.957       -1225.285          50.000  
  22282931.412   117097599.615       -1225.324          50.000  
  22282917.937   117097607.697       -1225.298          50.000  
  22185931.150   116587864.782       -1225.321          38.000  
  22265353.205   117005236.177       -1225.341          37.000  
  22291720.844   117143813.253       -1225.232          38.000  
  22266520.005   117011389.684       -1225.362          38.000  
  22282924.846   117097567.507       -1225.322          45.000  
  22282924.748   117097592.822       -1225.256          49.000  
  22383573.737   117626468.591       -1225.231          38.000  
  22146369.059   116380033.203       -1225.348          40.000  
  22240733.387   116875936.181       -1225.249          38.000  
  22282910.881   117097609.329       -1225.311          50.000  
  22260071.728   116977502.690       -1225.350          38.000  
  22325718.454   117322463.717       -1225.375          38.000  
  22296996.065   117171524.471       -1225.245          37.000  
  22434439.229   117893770.217       -1225.299          39.000  
  22282916.562   117097572.679       -1225.363          50.000  
  22248644.866   116917434.109       -1225.323          39.000  
  22322200.822   117303978.672       -1225.347          39.000  
  22393996.334   117681248.400       -1225.431          38.000  
  22162484.630   116464674.732       -1225.255          39.000  
  22130836.394   116298347.490       -1225.175          38.000  
  22289085.549   117129940.078       -1225.313          38.000  
  22136989.062   116330703.234       -1225.341          40.000  
  22450264.160   117976939.552       -1225.224          38.000  
 25  8 13  8 48 25.0020000  0 29G 1G31G27G 8G 6G 2G24G17G19G29G 5G 4
                                G10G16G15G 7G13G20G23G 9G 3G26G22G18
                                G12G21G25G14G11
  22282944.300   117097858.491       -1225.150          49.000  
  22249568.507   116922270.767       -1225.076          40.000  
  22225539.028   116795995.125       -1225.130          40.000  
  22282967.865   117097839.984       -1225.122          50.000  
  22282978.053   117097844.643       -1225.149          50.000  
  22282964.532   117097852.725       -1225.150          50.000  
  22185977.797   116588109.806       -1225.128          38.000  
  22265399.860   117005481.200       -1225.151          37.000  
  22291767.439   117144058.284       -1225.149          38.000  
  22266566.605   117011634.710       -1225.148          38.000  
  22282971.432   117097812.530       -1225.144          45.000  
  22282971.351   117097837.849       -1225.122          49.000  
  22383620.367   117626713.625       -1225.203          38.000  
  22146415.656   116380278.227       -1225.137          40.000  
  22240779.978   116876181.211       -1225.160          38.000  
  22282957.511   117097854.355       -1225.130          50.000  
  22260118.409   116977747.712       -1225.099          38.000  
  22325765.083   117322708.737       -1225.094          38.000  
  22297042.646   117171769.505       -1225.169          37.000  
  22434485.903   117894015.244       -1225.188          39.000  
  22282963.180   117097817.705       -1225.110          50.000  
  22248691.509   116917679.137       -1225.096          39.000  
  22322247.417   117304223.699       -1225.195          39.000  
  22394042.947   117681493.418       -1225.106          38.000  
  22162531.288   116464919.762       -1225.161          39.000  
  22130883.076   116298592.527       -1225.236          38.000  
  22289132.203   117130185.102       -1225.174          38.000  
  22137035.638   116330948.257       -1225.137          40.000  
  22450310.804   117977184.580       -1225.129          38.000  
 25  8 13  8 48 25.2020000  0 29G 1G31G27G 8G 6G 2G24G17G19G29G 5G 4
                                G10G16G15G 7G13G20G23G 9G 3G26G22G18
                                G12G21G25G14G11
  22282991.238   117098103.552       -1225.386          49.000  
  22249615.171   116922515.834       -1225.417          40.000  
  22225585.621   116796240.188       -1225.325          40.000  
  22283014.487   117098085.050       -1225.398          50.000  
  22283024.688   117098089.707       -1225.392          50.000  
  22283011.122   117098097.789       -1225.372          50.000  
  22186024.449   116588354.877       -1225.537          38.000  
  22265446.473   117005726.269       -1225.445          37.000  
  22291814.077   117144303.349       -1225.417          38.000  
  22266613.248   117011879.772       -1225.424          38.000  
  22283018.088   117098057.597       -1225.377          45.000  
  22283018.054   117098082.915       -1225.370          49.000  
  22383666.973   117626958.682       -1225.210          38.000  
  22146462.311   116380523.295       -1225.443          40.000  
  22240826.624   116876426.274       -1225.377          38.000  
  22283004.136   117098099.420       -1225.384          50.000  
  22260165.060   116977992.781       -1225.370          38.000  
  22325811.722   117322953.803       -1225.291          38.000  
  22297089.286   117172014.568       -1225.365          37.000  
  22434532.578   117894260.310       -1225.430          39.000  
  22283009.765   117098062.768       -1225.386          50.000  
  22248738.126   116917924.202       -1225.410          39.000  
  22322294.045   117304468.760       -1225.344          39.000  
  22394089.603   117681738.484       -1225.397          38.000  
  22162577.888   116465164.822       -1225.311          39.000  
  22130929.692   116298837.584       -1225.284          38.000  
  22289178.819   117130430.171       -1225.401          38.000  
  22137082.269   116331193.324       -1225.404          40.000  
  22450357.484   117977429.646       -1225.343          38.000  
 25  8 13  8 48 25.4020000  0 29G 1G31G27G 8G 6G 2G24G17G19G29G 5G 4
                                G10G16G15G 7G13G20G23G 9G 3G26G22G18
                                G12G21G25G14G11
  22283037.870   117098348.618       -1225.376          49.000  
  22249661.803   116922760.895       -1225.304          40.000  
  22225632.294   116796485.256       -1225.475          40.000  
  22283061.084   117098330.112       -1225.365          50.000  
  22283071.338   117098334.773       -1225.390          50.000  
  22283057.697   117098342.853       -1225.358          50.000  
  22186071.105   116588599.935       -1225.407          38.000  
  22265493.072   117005971.331       -1225.469          37.000  
  22291860.705   117144548.414       -1225.458          38.000  
  22266659.882   117012124.837       -1225.425          38.000  
  22283064.695   117098302.664       -1225.428          45.000  
  22283064.686   117098327.979       -1225.423          49.000  
  22383713.595   117627203.758       -1225.510          38.000  
  22146508.903   116380768.356       -1225.410          40.000  
  22240873.224   116876671.341       -1225.454          38.000  
  22283050.753   117098344.485       -1225.383          50.000  
  22260211.716   116978237.845       -1225.435          38.000  
  22325858.373   117323198.873       -1225.418          38.000  
  22297135.879   117172259.632       -1225.410          37.000  
  22434579.238   117894505.372       -1225.458          39.000  
  22283056.343   117098307.831       -1225.357          50.000  
  22248784.793   116918169.263       -1225.276          39.000  
  22322340.685   117304713.827       -1225.401          39.000  
  22394136.214   117681983.548       -1225.365          38.000  
  22162624.483   116465409.893       -1225.420          39.000  
  22130976.314   116299082.655       -1225.461          38.000  
  22289225.431   117130675.230       -1225.432          38.000  
  22137128.912   116331438.387       -1225.411          40.000  
  22450404.092   117977674.711       -1225.435          38.000  
 25  8 13  8 48 25.6020000  0 29G 1G31G27G 8G 6G 2G24G17G19G29G 5G 4
                                G10G16G15G 7G13G20G23G 9G 3G26G22G18
                                G12G21G25G14G11
  22283084.385   117098593.685       -1225.343          50.000  
  22249708.444   116923005.963       -1225.371          40.000  
  22225678.862   116796730.315       -1225.294          40.000  
  22283107.696   117098575.178       -1225.326          50.000  
  22283117.982   117098579.839       -1225.350          50.000  
  22283104.231   117098587.920       -1225.365          50.000  
  22186117.741   116588845.002       -1225.327          38.000  
  22265539.703   117006216.388       -1225.303          37.000  
  22291907.385   117144793.480       -1225.330          38.000  
  22266706.501   117012369.906       -1225.385          38.000  
  22283111.357   117098547.727       -1225.281          45.000  
  22283111.294   117098573.045       -1225.385          49.000  
  22383760.224   117627448.816       -1225.433          38.000  
  22146555.576   116381013.429       -1225.414          40.000  
  22240919.836   116876916.406       -1225.453          38.000  
  22283097.339   117098589.551       -1225.351          50.000  
  22260258.295   116978482.904       -1225.282          38.000  
  22325904.992   117323443.932       -1225.367          38.000  
  22297182.604   117172504.698       -1225.331          37.000  
  22434625.856   117894750.441       -1225.376          39.000  
  22283102.893   117098552.899       -1225.372          50.000  
  22248831.372   116918414.334       -1225.426          39.000  
  22322387.326   117304958.885       -1225.236          39.000  
  22394182.817   117682228.612       -1225.253          38.000  
  22162671.109   116465654.953       -1225.361          39.000  
  22131022.952   116299327.712       -1225.309          38.000  
  22289272.052   117130920.298       -1225.379          38.000  
  22137175.513   116331683.446       -1225.270          40.000  
  22450450.678   117977919.773       -1225.413          38.000  
 25  8 13  8 48 25.8020000  0 29G 1G31G27G 8G 6G 2G24G17G19G29G 5G 4
                                G10G16G15G 7G13G20G23G 9G 3G26G22G18
                                G12G21G25G14G11
  22283131.071   117098838.750       -1225.201          50.000  
  22249755.072   116923251.028       -1225.161          40.000  
  22225725.526   116796975.378       -1225.040          40.000  
  22283154.318   117098820.245       -1225.201          50.000  
  22283164.595   117098824.906       -1225.244          50.000  
  22283150.856   117098832.988       -1225.289          50.000  
  22186164.379   116589090.065       -1225.076          38.000  
  22265586.343   117006461.459       -1225.168          37.000  
  22291953.994   117145038.549       -1225.313          38.000  
  22266753.143   117012614.969       -1225.164          38.000  
  22283157.964   117098792.792       -1225.110          45.000  
  22283157.887   117098818.108       -1225.190          49.000  
  22383806.843   117627693.883       -1225.162          38.000  
  22146602.231   116381258.494       -1225.359          40.000  
  22240966.437   116877161.468       -1225.171          38.000  
  22283143.950   117098834.618       -1225.216          50.000  
  22260304.939   116978727.969       -1225.028          38.000  
  22325951.619   117323688.997       -1225.104          38.000  
  22297229.217   117172749.766       -1225.219          37.000  
  22434672.486   117894995.507       -1225.289          39.000  
  22283149.522   117098797.964       -1225.218          50.000  
  22248877.996   116918659.394       -1225.049          39.000  
  22322433.975   117305203.956       -1225.089          39.000  
  22394229.460   117682473.678       -1225.129          38.000  
  22162717.704   116465900.015       -1225.043          39.000  
  22131069.575   116299572.780       -1225.067          38.000  
  22289318.657   117131165.362       -1225.240          38.000  
  22137222.140   116331928.514       -1225.101          40.000  
  22450497.298   117978164.839       -1225.155          38.000  
 25  8 13  8 48 26.0020000  0 29G 1G31G27G 8G 6G 2G24G17G19G29G 5G 4
                                G10G16G15G 7G13G20G23G 9G 3G26G22G18
                                G12G21G25G14G11
  22283177.782   117099083.835       -1225.459          50.000  
  22249801.763   116923496.115       -1225.539          40.000  
  22225772.127   116797220.470       -1225.453          40.000  
  22283200.973   117099065.326       -1225.395          50.000  
  22283211.239   117099069.986       -1225.396          50.000  
  22283197.442   117099078.067       -1225.405          50.000  
  22186211.011   116589335.152       -1225.475          38.000  
  22265632.959   117006706.542       -1225.438          37.000  
  22292000.623   117145283.636       -1225.550          38.000  
  22266799.811   117012860.055       -1225.526          38.000  
  22283204.649   117099037.879       -1225.467          45.000  
  22283204.634   117099063.194       -1225.512          49.000  
  22383853.482   117627938.969       -1225.566          38.000  
  22146648.906   116381503.577       -1225.541          40.000  
  22241013.096   116877406.553       -1225.510          38.000  
  22283190.567   117099079.700       -1225.414          50.000  
  22260351.556   116978973.060       -1225.460          38.000  
  22325998.280   117323934.082       -1225.463          38.000  
  22297275.858   117172994.851       -1225.558          37.000  
  22434719.094   117895240.585       -1225.428          39.000  
  22283196.147   117099043.047       -1225.422          50.000  
  22248924.608   116918904.485       -1225.511          39.000  
  22322480.625   117305449.040       -1225.454          39.000  
  22394276.122   117682718.765       -1225.467          38.000  
  22162764.383   116466145.106       -1225.507          39.000  
  22131116.211   116299817.864       -1225.453          38.000  
  22289365.291   117131410.446       -1225.494          38.000  
  22137268.778   116332173.600       -1225.463          40.000  
  22450543.930   117978409.922       -1225.466          38.000  
 25  8 13  8 48 26.2020000  0 29G 1G31G27G 8G 6G 2G24G17G19G29G 5G 4
                                G10G16G15G 7G13G20G23G 9G 3G26G22G18
                                G12G21G25G14G11
  22283224.558   117099328.878       -1225.382          50.000  
  22249848.435   116923741.155       -1225.315          40.000  
  22225818.785   116797465.513       -1225.374          40.000  
  22283247.630   117099310.374       -1225.339          50.000  
  22283257.892   117099315.035       -1225.346          50.000  
  22283244.037   117099323.117       -1225.366          50.000  
  22186257.646   116589580.197       -1225.333          38.000  
  22265679.542   117006951.588       -1225.354          37.000  
  22292047.255   117145528.674       -1225.358          38.000  
  22266846.457   117013105.101       -1225.385          38.000  
  22283251.260   117099282.921       -1225.342          44.000  
  22283251.238   117099308.235       -1225.330          49.000  
  22383900.106   117628184.007       -1225.391          38.000  
  22146695.471   116381748.616       -1225.271          40.000  
  22241059.668   116877651.599       -1225.346          38.000  
  22283237.183   117099324.745       -1225.346          50.000  
  22260398.236   116979218.102       -1225.308          38.000  
  22326044.887   117324179.126       -1225.309          38.000  
  22297322.421   117173239.890       -1225.321          37.000  
  22434765.727   117895485.630       -1225.329          39.000  
  22283242.757   117099288.094       -1225.353          50.000  
  22248971.290   116919149.528       -1225.408          39.000  
  22322527.271   117305694.084       -1225.388          39.000  
  22394322.770   117682963.808       -1225.362          38.000  
  22162811.009   116466390.147       -1225.331          39.000  
  22131162.815   116300062.913       -1225.381          38.000  
  22289411.985   117131655.491       -1225.346          38.000  
  22137315.413   116332418.648       -1225.369          40.000  
  22450590.566   117978654.965       -1225.340          38.000  
 25  8 13  8 48 26.4020000  0 29G 1G31G27G 8G 6G 2G24G17G19G29G 5G 4
                                G10G16G15G 7G13G20G23G 9G 3G26G22G18
                                G12G21G25G14G11
  22283271.277   117099573.922       -1225.076          50.000  
  22249895.065   116923986.202       -1225.082          40.000  
  22225865.356   116797710.561       -1225.087          40.000  
  22283294.175   117099555.419       -1225.101          50.000  
  22283304.519   117099560.080       -1225.156          50.000  
  22283290.595   117099568.160       -1225.130          50.000  
  22186304.319   116589825.247       -1225.151          38.000  
  22265726.145   117007196.641       -1225.192          37.000  
  22292093.876   117145773.716       -1225.057          38.000  
  22266893.060   117013350.147       -1225.140          38.000  
  22283297.884   117099527.968       -1225.095          44.000  
  22283297.865   117099553.284       -1225.114          49.000  
  22383946.730   117628429.056       -1225.033          38.000  
  22146742.110   116381993.663       -1225.120          40.000  
  22241106.299   116877896.645       -1225.042          38.000  
  22283283.806   117099569.792       -1225.094          50.000  
  22260444.883   116979463.155       -1225.099          38.000  
  22326091.547   117324424.180       -1225.131          38.000  
  22297369.094   117173484.938       -1225.122          37.000  
  22434812.309   117895730.677       -1225.055          39.000  
  22283289.299   117099533.139       -1225.116          50.000  
  22249017.870   116919394.574       -1225.068          39.000  
  22322573.878   117305939.134       -1225.100          39.000  
  22394369.398   117683208.853       -1225.129          38.000  
  22162857.636   116466635.198       -1225.125          39.000  
  22131209.485   116300307.959       -1225.079          38.000  
  22289458.566   117131900.537       -1225.106          38.000  
  22137362.002   116332663.693       -1225.109          40.000  
  22450637.202   117978900.013       -1225.053          38.000  
 25  8 13  8 48 26.6020000  0 29G 1G31G27G 8G 6G 2G24G17G19G29G 5G 4
                                G10G16G15G 7G13G20G23G 9G 3G26G22G18
                                G12G21G25G14G11
  22283318.199   117099818.992       -1225.484          50.000  
  22249941.706   116924231.273       -1225.523          40.000  
  22225912.052   116797955.630       -1225.502          40.000  
  22283340.821   117099800.484       -1225.414          50.000  
  22283351.171   117099805.143       -1225.361          50.000  
  22283337.197   117099813.222       -1225.330          50.000  
  22186350.971   116590070.308       -1225.433          38.000  
  22265772.728   117007441.709       -1225.610          37.000  
  22292140.534   117146018.789       -1225.431          38.000  
  22266939.698   117013595.212       -1225.419          38.000  
  22283344.529   117099773.036       -1225.485          44.000  
  22283344.514   117099798.349       -1225.492          49.000  
  22383993.323   117628674.124       -1225.546          38.000  
  22146788.722   116382238.734       -1225.497          40.000  
  22241152.922   116878141.714       -1225.519          38.000  
  22283330.412   117099814.858       -1225.427          50.000  
  22260491.501   116979708.221       -1225.547          38.000  
  22326138.149   117324669.248       -1225.599          38.000  
  22297415.691   117173730.002       -1225.475          37.000  
  22434858.984   117895975.746       -1225.486          39.000  
  22283335.913   117099778.200       -1225.343          50.000  
  22249064.518   116919639.642       -1225.499          39.000  
  22322620.515   117306184.197       -1225.503          39.000  
  22394416.042   117683453.919       -1225.440          38.000  
  22162904.262   116466880.258       -1225.444          39.000  
  22131256.106   116300553.023       -1225.457          38.000  
  22289505.231   117132145.606       -1225.510          38.000  
  22137408.625   116332908.760       -1225.448          40.000  
  22450683.849   117979145.084       -1225.627          38.000  
 25  8 13  8 48 26.8020000  0 29G 1G31G27G 8G 6G 2G24G17G19G29G 5G 4
                                G10G16G15G 7G13G20G23G 9G 3G26G22G18
                                G12G21G25G14G11
  22283365.081   117100064.052       -1225.397          40.000  
  22249988.370   116924476.337       -1225.578          31.000  
  22225958.643   116798200.693       -1225.444          33.000  
  22283387.657   117100045.541       -1225.289          43.000  
  22283397.722   117100050.203       -1225.322          44.000  
  22283383.925   117100058.286       -1225.422          44.000  
  22186397.592   116590315.380       -1225.650          28.000  
  22265819.359   117007686.730       -1224.966          32.000  
  22292187.178   117146263.831       -1225.354          29.000  
  22266986.346   117013840.274       -1225.227          28.000  
  22283391.225   117100018.098       -1225.523          35.000  
  22283391.132   117100043.396       -1225.201          41.000  
  22384039.954   117628919.233       -1226.183          32.000  
  22146835.388   116382483.794       -1225.513          34.000  
  22241199.539   116878386.764       -1225.360          29.000  
  22283377.185   117100059.912       -1225.323          42.000  
  22260538.132   116979953.296       -1225.545          32.000  
  22326184.774   117324914.275       -1225.003          30.000  
  22297462.286   117173975.050       -1225.391          32.000  
  22434905.609   117896220.790       -1225.213          31.000  
  22283382.653   117100023.262       -1225.260          43.000  
  22249111.122   116919884.699       -1225.411          32.000  
  22322667.095   117306429.245       -1225.063          32.000  
  22394462.691   117683698.952       -1225.100          29.000  
  22162950.877   116467125.334       -1225.516          31.000  
  22131302.757   116300798.076       -1225.220          30.000  
  22289551.862   117132390.650       -1225.058          29.000  
  22137455.241   116333153.798       -1225.017          31.000  
  22450730.427   117979390.125       -1225.252          29.000  
 25  8 13  8 48 27.0020000  0 29G 1G31G27G 8G 6G 2G24G17G19G29G 5G 4
                                G10G16G15G 7G13G20G23G 9G 3G26G22G18
                                G12G21G25G14G11
  22283411.766   117100309.114       -1225.380          39.000  
  22250034.945   116924721.396       -1225.658          31.000  
  22226005.300   116798445.753       -1225.561          30.000  
  22283434.503   117100290.606       -1225.320          42.000  
  22283444.286   117100295.270       -1225.371          43.000  
  22283430.787   117100303.348       -1225.374          44.000  
  22186444.235   116590560.451       -1225.910          29.000  
  22265866.125   117007931.837       -1225.540          27.000  
  22292233.854   117146508.901       -1225.273          30.000  
  22267033.012   117014085.352       -1225.536          29.000  
  22283437.926   117100263.169       -1225.630          36.000  
  22283437.768   117100288.470       -1225.382          39.000  
  22384086.459   117629164.222       -1225.123          28.000  
  22146882.026   116382728.845       -1225.463          30.000  
  22241246.221   116878631.847       -1225.608          29.000  
  22283423.956   117100304.973       -1225.306          41.000  
  22260584.807   116980198.389       -1226.396          28.000  
  22326231.494   117325159.378       -1225.647          30.000  
  22297509.013   117174220.106       -1225.259          28.000  
  22434952.344   117896465.859       -1224.886          31.000  
  22283429.480   117100268.330       -1225.486          43.000  
  22249157.777   116920129.758       -1225.268          28.000  
  22322713.733   117306674.316       -1225.353          32.000  
  22394509.517   117683944.021       -1225.314          29.000  
  22162997.569   116467370.356       -1225.039          31.000  
  22131349.365   116301043.163       -1225.836          30.000  
  22289598.510   117132635.707       -1224.975          29.000  
  22137501.865   116333398.896       -1225.828          31.000  
  22450777.141   117979635.196       -1224.933          29.000  
 25  8 13  8 48 27.2020000  0 29G 1G31G27G 8G 6G 2G24G17G19G29G 5G 4
                                G10G16G15G 7G13G20G23G 9G 3G26G22G18
                                G12G21G25G14G11
  22283458.452   117100554.193       -1225.331          40.000  
  22250081.645   116924966.467       -1225.362          31.000  
  22226051.889   116798690.824       -1225.414          30.000  
  22283481.373   117100535.694       -1225.536          42.000  
  22283490.875   117100540.344       -1225.264          42.000  
  22283477.678   117100548.430       -1225.456          43.000  
  22186490.959   116590805.553       -1225.660          29.000  
  22265912.790   117008176.899       -1225.238          28.000  
  22292280.566   117146754.000       -1225.878          30.000  
  22267079.706   117014330.409       -1224.958          29.000  
  22283484.579   117100508.234       -1225.315          36.000  
  22283484.403   117100533.542       -1225.458          40.000  
  22384133.041   117629409.333       -1225.665          29.000  
  22146928.723   116382973.933       -1225.450          31.000  
  22241292.885   116878876.919       -1225.431          29.000  
  22283470.751   117100550.062       -1225.381          41.000  
  22260631.421   116980443.444       -1225.914          28.000  
  22326278.245   117325404.423       -1225.422          30.000  
  22297555.683   117174465.188       -1225.302          28.000  
  22434998.982   117896710.909       -1224.639          30.000  
  22283476.239   117100513.404       -1225.336          43.000  
  22249204.527   116920374.849       -1225.815          29.000  
  22322760.324   117306919.407       -1225.365          32.000  
  22394556.201   117684189.101       -1225.147          29.000  
  22163044.337   116467615.466       -1225.583          31.000  
  22131396.192   116301288.181       -1224.781          30.000  
  22289645.231   117132880.865       -1226.366          29.000  
  22137548.450   116333643.974       -1225.526          31.000  
  22450823.791   117979880.303       -1225.800          29.000  
 25  8 13  8 48 27.4020000  0 29G 1G31G27G 8G 6G 2G24G17G19G29G 5G 4
                                G10G16G15G 7G13G20G23G 9G 3G26G22G18
                                G12G21G25G14G11
  22283505.104   117100799.274       -1225.710          40.000  
  22250128.265   116925211.559       -1225.974          32.000  
  22226098.546   116798935.884       -1225.338          31.000  
  22283528.195   117100780.768       -1225.654          42.000  
  22283537.541   117100785.422       -1225.568          43.000  
  22283524.512   117100793.502       -1225.491          44.000  
  22186537.630   116591050.608       -1225.982          29.000  
  22265959.491   117008421.972       -1224.806          28.000  
  22292327.326   117146999.045       -1225.396          30.000  
  22267126.435   117014575.514       -1226.254          29.000  
  22283531.221   117100753.304       -1225.405          36.000  
  22283531.007   117100778.619       -1225.556          40.000  
  22384179.784   117629654.416       -1226.076          29.000  
  22146975.389   116383218.997       -1225.533          31.000  
  22241339.592   116879121.979       -1225.549          29.000  
  22283517.435   117100795.143       -1225.770          41.000  
  22260678.035   116980688.492       -1225.163          29.000  
  22326324.946   117325649.504       -1225.150          30.000  
  22297602.436   117174710.281       -1225.843          28.000  
  22435045.589   117896956.025       -1225.479          31.000  
  22283523.040   117100758.486       -1225.713          43.000  
  22249251.232   116920619.907       -1225.507          30.000  
  22322806.925   117307164.474       -1225.497          32.000  
  22394602.798   117684434.183       -1225.314          30.000  
  22163091.055   116467860.518       -1225.306          31.000  
  22131442.821   116301533.289       -1225.649          30.000  
  22289691.957   117133125.870       -1225.272          30.000  
  22137595.081   116333889.041       -1225.599          32.000  
  22450870.428   117980125.282       -1223.770          29.000  
 25  8 13  8 48 27.6020000  0 29G 1G31G27G 8G 6G 2G24G17G19G29G 5G 4
                                G10G16G15G 7G13G20G23G 9G 3G26G22G18
                                G12G21G25G14G11
  22283551.768   117101044.332       -1225.239          41.000  
  22250174.948   116925456.613       -1225.572          32.000  
  22226145.270   116799180.963       -1224.966          31.000  
  22283574.946   117101025.821       -1225.280          43.000  
  22283584.115   117101030.485       -1225.271          43.000  
  22283571.367   117101038.568       -1225.313          44.000  
  22186584.272   116591295.636       -1225.086          29.000  
  22266006.240   117008667.082       -1225.747          28.000  
  22292373.998   117147244.109       -1225.183          30.000  
  22267173.087   117014820.542       -1225.063          29.000  
  22283577.857   117100998.378       -1225.492          36.000  
  22283577.658   117101023.686       -1225.368          40.000  
  22384226.372   117629899.448       -1224.896          29.000  
  22147022.015   116383464.078       -1225.604          32.000  
  22241386.239   116879367.053       -1225.167          30.000  
  22283564.164   117101040.188       -1225.172          42.000  
  22260724.637   116980933.581       -1225.835          29.000  
  22326371.623   117325894.581       -1225.108          31.000  
  22297649.134   117174955.336       -1225.255          29.000  
  22435092.196   117897201.126       -1226.060          31.000  
  22283569.813   117101003.543       -1225.259          44.000  
  22249297.987   116920864.987       -1225.232          30.000  
  22322853.547   117307409.539       -1224.986          32.000  
  22394649.485   117684679.249       -1225.215          30.000  
  22163137.773   116468105.578       -1224.933          32.000  
  22131489.528   116301778.362       -1225.522          30.000  
  22289738.715   117133370.980       -1225.696          30.000  
  22137641.735   116334134.105       -1225.085          32.000  
  22450917.145   117980370.409       -1225.078          30.000  
 25  8 13  8 48 27.8020000  0 29G 1G31G27G 8G 6G 2G24G17G19G29G 5G 4
                                G10G16G15G 7G13G20G23G 9G 3G26G22G18
                                G12G21G25G14G11
  22283598.472   117101289.402       -1225.494          41.000  
  22250221.675   116925701.665       -1225.267          32.000  
  22226191.988   116799426.033       -1225.218          31.000  
  22283621.751   117101270.896       -1225.546          43.000  
  22283630.743   117101275.550       -1225.422          44.000  
  22283618.245   117101283.636       -1225.502          45.000  
  22186630.804   116591540.716       -1225.742          30.000  
  22266052.791   117008912.133       -1225.555          28.000  
  22292420.721   117147489.184       -1225.990          30.000  
  22267219.775   117015065.576       -1225.024          30.000  
  22283624.462   117101243.434       -1225.435          36.000  
  22283624.291   117101268.751       -1225.394          41.000  
  22384272.968   117630144.538       -1225.649          30.000  
  22147068.669   116383709.139       -1225.729          32.000  
  22241432.913   116879612.102       -1225.216          30.000  
  22283610.891   117101285.261       -1225.362          42.000  
  22260771.329   116981178.638       -1225.815          30.000  
  22326418.333   117326139.664       -1225.938          31.000  
  22297695.687   117175200.414       -1225.738          29.000  
  22435138.803   117897446.139       -1225.126          31.000  
  22283616.601   117101248.615       -1225.487          44.000  
  22249344.781   116921110.045       -1225.421          31.000  
  22322900.288   117307654.608       -1225.596          32.000  
  22394696.159   117684924.293       -1225.100          30.000  
  22163184.481   116468350.662       -1225.486          32.000  
  22131536.183   116302023.419       -1225.435          30.000  
  22289785.406   117133616.022       -1225.260          30.000  
  22137688.401   116334379.154       -1225.272          32.000  
  22450963.796   117980615.497       -1225.483          30.000  
 25  8 13  8 48 28.0020000  0 28G 1G31G27G 8G 6G 2G24G19G29G 5G 4G10
                                G16G15G 7G13G20G23G 9G 3G26G22G18G12
                                G21G25G14G11
  22283645.120   117101534.459       -1225.306          41.000  
  22250268.293   116925946.761       -1225.612          32.000  
  22226238.657   116799671.101       -1225.196          31.000  
  22283668.534   117101515.968       -1225.489          42.000  
  22283677.374   117101520.618       -1225.325          43.000  
  22283665.042   117101528.703       -1225.360          44.000  
  22186677.522   116591785.825       -1226.317          29.000  
  22292467.510   117147734.240       -1225.295          30.000  
  22267266.547   117015310.694       -1225.587          30.000  
  22283671.139   117101488.504       -1225.417          36.000  
  22283670.980   117101513.821       -1225.391          40.000  
  22384319.627   117630389.597       -1225.490          29.000  
  22147115.363   116383954.225       -1225.872          32.000  
  22241479.494   116879857.216       -1225.842          30.000  
  22283657.594   117101530.343       -1225.551          41.000  
  22260817.998   116981423.715       -1225.125          29.000  
  22326465.086   117326384.722       -1225.146          31.000  
  22297742.220   117175445.466       -1225.019          29.000  
  22435185.523   117897691.228       -1225.506          30.000  
  22283663.380   117101493.681       -1225.439          43.000  
  22249391.362   116921355.116       -1225.417          30.000  
  22322946.990   117307899.677       -1225.467          32.000  
  22394742.868   117685169.370       -1225.603          30.000  
  22163231.200   116468595.739       -1225.536          32.000  
  22131582.791   116302268.452       -1224.880          30.000  
  22289832.084   117133861.066       -1225.104          30.000  
  22137735.072   116334624.265       -1225.522          32.000  
  22451010.496   117980860.580       -1225.550          30.000  
 25  8 13  8 48 28.2020000  0 28G 1G31G27G 8G 6G 2G24G19G29G 5G 4G10
                                G16G15G 7G13G20G23G 9G 3G26G22G18G12
                                G21G25G14G11
  22283691.767   117101779.519       -1225.157          41.000  
  22250314.970   116926191.799       -1225.200          32.000  
  22226285.366   116799916.166       -1225.446          31.000  
  22283715.283   117101761.032       -1225.511          43.000  
  22283723.986   117101765.686       -1225.435          43.000  
  22283711.912   117101773.759       -1225.330          45.000  
  22186724.087   116592030.862       -1225.947          30.000  
  22292514.238   117147979.298       -1225.042          30.000  
  22267313.319   117015555.755       -1225.328          30.000  
  22283717.811   117101733.568       -1225.341          36.000  
  22283717.590   117101758.892       -1225.492          40.000  
  22384366.229   117630634.662       -1225.241          30.000  
  22147161.974   116384199.284       -1226.011          32.000  
  22241526.098   116880102.235       -1225.233          30.000  
  22283704.373   117101775.399       -1225.372          42.000  
  22260864.583   116981668.782       -1225.850          29.000  
  22326511.756   117326629.814       -1225.327          31.000  
  22297788.963   117175690.543       -1225.237          30.000  
  22435232.223   117897936.291       -1225.289          31.000  
  22283710.133   117101738.737       -1225.249          44.000  
  22249437.904   116921600.162       -1225.016          31.000  
  22322993.652   117308144.726       -1224.939          32.000  
  22394789.497   117685414.423       -1225.386          30.000  
  22163277.894   116468840.791       -1225.310          32.000  
  22131629.515   116302513.534       -1225.199          30.000  
  22289878.702   117134106.143       -1225.312          31.000  
  22137781.675   116334869.294       -1224.991          32.000  
  22451057.160   117981105.651       -1225.352          31.000  
 25  8 13  8 48 28.4020000  0 28G 1G31G27G 8G 6G 2G24G19G29G 5G 4G10
                                G16G15G 7G13G20G23G 9G 3G26G22G18G12
                                G21G25G14G11
  22283738.440   117102024.577       -1225.207          42.000  
  22250361.587   116926436.866       -1225.416          33.000  
  22226331.966   116800161.200       -1225.120          32.000  
  22283762.067   117102006.075       -1225.208          43.000  
  22283770.603   117102010.728       -1225.142          44.000  
  22283758.737   117102018.810       -1225.141          46.000  
  22186770.749   116592275.909       -1225.495          31.000  
  22292561.006   117148224.356       -1225.252          31.000  
  22267359.987   117015800.791       -1225.104          30.000  
  22283764.443   117101978.628       -1225.370          37.000  
  22283764.205   117102003.929       -1225.129          41.000  
  22384412.847   117630879.705       -1225.164          31.000  
  22147208.617   116384444.301       -1224.678          32.000  
  22241572.694   116880347.281       -1224.714          30.000  
  22283751.094   117102020.439       -1225.119          42.000  
  22260911.246   116981913.815       -1224.800          30.000  
  22326558.457   117326874.815       -1225.017          32.000  
  22297835.697   117175935.601       -1225.106          30.000  
  22435278.875   117898181.337       -1225.199          31.000  
  22283756.883   117101983.789       -1225.136          45.000  
  22249484.593   116921845.239       -1225.670          31.000  
  22323040.281   117308389.779       -1225.269          32.000  
  22394836.047   117685659.488       -1225.520          30.000  
  22163324.666   116469085.836       -1224.969          33.000  
  22131676.077   116302758.562       -1224.708          31.000  
  22289925.383   117134351.204       -1225.151          31.000  
  22137828.311   116335114.342       -1224.669          32.000  
  22451103.785   117981350.686       -1225.098          31.000  
 25  8 13  8 48 28.6020000  0 28G 1G31G27G 8G 6G 2G24G19G29G 5G 4G10
                                G16G15G 7G13G20G23G 9G 3G26G22G18G12
                                G21G25G14G11
  22283785.106   117102269.621       -1225.147          42.000  
  22250408.239   116926681.905       -1225.483          33.000  
  22226378.616   116800406.254       -1224.985          32.000  
  22283808.818   117102251.123       -1225.181          44.000  
  22283817.151   117102255.779       -1225.157          44.000  
  22283805.570   117102263.859       -1225.173          46.000  
  22186817.422   116592520.935       -1225.288          31.000  
  22292607.698   117148469.405       -1225.132          31.000  
  22267406.716   117016045.875       -1225.550          30.000  
  22283811.105   117102223.665       -1225.329          37.000  
  22283810.783   117102248.973       -1224.968          41.000  
  22384459.476   117631124.738       -1224.737          31.000  
  22147255.307   116384689.359       -1225.264          32.000  
  22241619.344   116880592.323       -1224.541          30.000  
  22283797.845   117102265.491       -1225.115          42.000  
  22260957.972   116982158.849       -1224.870          30.000  
  22326605.182   117327119.875       -1224.951          32.000  
  22297882.373   117176180.632       -1225.078          31.000  
  22435325.567   117898426.384       -1224.726          31.000  
  22283803.642   117102228.841       -1225.169          45.000  
  22249531.257   116922090.268       -1225.246          31.000  
  22323086.944   117308634.827       -1225.068          32.000  
  22394882.747   117685904.477       -1224.550          30.000  
  22163371.499   116469330.906       -1225.499          33.000  
  22131722.845   116303003.622       -1225.031          31.000  
  22289972.002   117134596.246       -1225.222          31.000  
  22137874.910   116335359.415       -1225.247          32.000  
  22451150.488   117981595.727       -1225.242          31.000  
 25  8 13  8 48 28.8020000  0 27G 1G31G27G 8G 6G 2G24G19G29G 5G 4G10
                                G16G15G 7G20G23G 9G 3G26G22G18G12G21
                                G25G14G11
  22283831.761   117102514.662       -1225.393          42.000  
  22250454.870   116926926.935       -1225.280          33.000  
  22226425.266   116800651.281       -1225.223          32.000  
  22283855.620   117102496.152       -1225.321          44.000  
  22283863.761   117102500.817       -1225.437          45.000  
  22283852.417   117102508.894       -1225.325          46.000  
  22186864.043   116592765.974       -1225.442          31.000  
  22292654.389   117148714.440       -1224.909          31.000  
  22267453.359   117016290.876       -1225.225          31.000  
  22283857.724   117102468.689       -1225.249          37.000  
  22283857.436   117102494.016       -1225.265          42.000  
  22384506.142   117631369.817       -1225.754          31.000  
  22147301.995   116384934.366       -1224.563          33.000  
  22241666.024   116880837.369       -1225.155          30.000  
  22283844.599   117102510.530       -1225.365          43.000  
  22326651.872   117327364.911       -1225.187          32.000  
  22297929.108   117176425.664       -1225.125          31.000  
  22435372.170   117898671.407       -1225.138          31.000  
  22283850.417   117102473.875       -1225.352          45.000  
  22249577.894   116922335.291       -1224.969          32.000  
  22323133.624   117308879.865       -1225.168          33.000  
  22394929.345   117686149.580       -1225.826          31.000  
  22163418.268   116469575.944       -1225.848          33.000  
  22131769.461   116303248.647       -1224.989          31.000  
  22290018.663   117134841.274       -1225.153          31.000  
  22137921.540   116335604.451       -1225.469          33.000  
  22451197.094   117981840.751       -1224.674          31.000  
 25  8 13  8 48 29.0020000  0 27G 1G31G27G 8G 6G 2G24G19G29G 5G 4G10
                                G16G15G 7G20G23G 9G 3G26G22G18G12G21
                                G25G14G11
  22283878.391   117102759.708       -1225.350          42.000  
  22250501.573   116927171.986       -1225.312          33.000  
  22226471.802   116800896.348       -1225.167          32.000  
  22283902.358   117102741.206       -1225.317          44.000  
  22283910.348   117102745.865       -1225.431          45.000  
  22283899.243   117102753.942       -1225.389          46.000  
  22186910.672   116593011.012       -1225.067          31.000  
  22292701.079   117148959.511       -1225.791          31.000  
  22267500.160   117016535.906       -1224.748          31.000  
  22283904.340   117102713.742       -1225.261          37.000  
  22283904.094   117102739.073       -1225.494          42.000  
  22384552.810   117631614.852       -1225.386          31.000  
  22147348.608   116385179.443       -1225.541          33.000  
  22241712.599   116881082.430       -1225.458          30.000  
  22283891.312   117102755.579       -1225.435          43.000  
  22326698.520   117327609.963       -1225.089          32.000  
  22297975.802   117176670.750       -1225.738          32.000  
  22435418.787   117898916.442       -1225.348          31.000  
  22283897.240   117102718.930       -1225.428          45.000  
  22249624.496   116922580.363       -1225.276          32.000  
  22323180.307   117309124.915       -1225.500          33.000  
  22394975.942   117686394.620       -1225.304          31.000  
  22163464.995   116469820.990       -1225.367          33.000  
  22131816.135   116303493.710       -1225.277          31.000  
  22290065.180   117135086.299       -1224.673          31.000  
  22137968.093   116335849.477       -1225.314          33.000  
  22451243.748   117982085.815       -1225.063          31.000  
 25  8 13  8 48 29.2020000  0 27G 1G31G27G 8G 6G 2G24G19G29G 5G 4G10
                                G16G15G 7G20G23G 9G 3G26G22G18G12G21
                                G25G14G11
  22283925.084   117103004.778       -1225.233          42.000  
  22250548.255   116927417.074       -1225.899          33.000  
  22226518.456   116801141.420       -1225.149          32.000  
  22283949.109   117102986.277       -1225.284          44.000  
  22283956.985   117102990.931       -1225.315          45.000  
  22283946.056   117102999.010       -1225.279          46.000  
  22186957.355   116593256.105       -1225.532          32.000  
  22292747.765   117149204.583       -1225.851          31.000  
  22267546.728   117016781.003       -1225.685          30.000  
  22283951.005   117102958.810       -1225.271          37.000  
  22283950.695   117102984.132       -1225.297          42.000  
  22384599.469   117631859.930       -1225.515          31.000  
  22147395.269   116385424.491       -1225.150          33.000  
  22241759.227   116881327.524       -1225.582          30.000  
  22283938.064   117103000.649       -1225.355          43.000  
  22326745.308   117327855.037       -1225.068          32.000  
  22298022.390   117176915.777       -1225.129          32.000  
  22435465.402   117899161.532       -1225.808          31.000  
  22283944.014   117102963.996       -1225.361          44.000  
  22249671.203   116922825.424       -1224.546          32.000  
  22323226.938   117309369.971       -1225.722          32.000  
  22395022.615   117686639.686       -1225.757          31.000  
  22163511.693   116470066.048       -1225.444          33.000  
  22131862.848   116303738.786       -1225.133          31.000  
  22290111.908   117135331.430       -1225.599          31.000  
  22138014.738   116336094.551       -1225.164          33.000  
  22451290.394   117982330.880       -1225.229          31.000  
 25  8 13  8 48 29.4020000  0 25G 1G31G27G 8G 6G 2G24G19G 5G 4G10G16
                                G 7G20G23G 9G 3G26G22G18G12G21G25G14
                                G11
  22283971.745   117103249.863       -1225.431          42.000  
  22250594.916   116927662.145       -1225.700          33.000  
  22226565.154   116801386.479       -1225.075          33.000  
  22283995.870   117103231.359       -1225.468          45.000  
  22284003.608   117103236.012       -1225.483          45.000  
  22283992.854   117103244.089       -1225.413          46.000  
  22187004.066   116593501.173       -1225.579          32.000  
  22292794.425   117149449.627       -1225.289          31.000  
  22283997.641   117103203.897       -1225.260          37.000  
  22283997.318   117103229.200       -1225.171          42.000  
  22384646.068   117632105.023       -1226.318          31.000  
  22147441.983   116385669.563       -1224.808          33.000  
  22283984.794   117103245.723       -1225.437          43.000  
  22326791.992   117328100.125       -1225.702          33.000  
  22298069.039   117177160.877       -1225.674          32.000  
  22435512.074   117899406.601       -1225.423          31.000  
  22283990.738   117103209.074       -1225.464          45.000  
  22249717.876   116923070.530       -1225.799          32.000  
  22323273.586   117309615.040       -1225.027          33.000  
  22395069.263   117686884.778       -1225.925          31.000  
  22163558.438   116470311.124       -1225.238          33.000  
  22131909.466   116303983.849       -1225.212          32.000  
  22290158.512   117135576.509       -1225.917          31.000  
  22138061.382   116336339.598       -1224.751          33.000  
  22451337.065   117982575.969       -1225.215          31.000  
 25  8 13  8 48 29.6020000  0 22G 1G31G27G 8G 6G 2G24G 5G 4G16G 7G20
                                G23G 3G26G22G18G12G21G25G14G11
  22284018.396   117103494.933       -1225.469          43.000  
  22250641.528   116927907.189       -1225.012          33.000  
  22226611.722   116801631.546       -1224.919          33.000  
  22284042.618   117103476.425       -1225.417          45.000  
  22284050.209   117103481.086       -1225.548          45.000  
  22284039.662   117103489.160       -1225.349          47.000  
  22187050.753   116593746.239       -1225.049          32.000  
  22284044.229   117103448.976       -1225.633          38.000  
  22284043.926   117103474.286       -1225.416          43.000  
  22147488.646   116385914.677       -1225.786          34.000  
  22284031.494   117103490.795       -1225.484          43.000  
  22326838.669   117328345.190       -1225.546          33.000  
  22298115.687   117177405.956       -1225.853          33.000  
  22284037.454   117103454.139       -1225.328          46.000  
  22249764.542   116923315.597       -1225.542          32.000  
  22323320.238   117309860.113       -1225.866          33.000  
  22395115.903   117687129.848       -1225.912          32.000  
  22163605.116   116470556.187       -1225.046          34.000  
  22131956.080   116304228.960       -1225.933          32.000  
  22290205.218   117135821.569       -1225.760          32.000  
  22138108.079   116336584.698       -1225.084          34.000  
  22451383.698   117982821.037       -1225.782          32.000  
 25  8 13  8 48 29.8020000  0 22G 1G31G27G 8G 6G 2G24G 5G 4G16G 7G20
                                G23G 3G26G22G18G12G21G25G14G11
  22284065.059   117103740.032       -1225.387          43.000  
  22250688.115   116928152.269       -1224.747          33.000  
  22226658.430   116801876.649       -1224.817          33.000  
  22284089.365   117103721.526       -1225.402          45.000  
  22284096.876   117103726.178       -1225.345          45.000  
  22284086.469   117103734.267       -1225.458          47.000  
  22187097.386   116593991.360       -1225.592          32.000  
  22284090.843   117103694.087       -1225.573          38.000  
  22284090.574   117103719.392       -1225.635          43.000  
  22147535.414   116386159.769       -1225.780          34.000  
  22284078.243   117103735.901       -1225.611          43.000  
  22326885.394   117328590.261       -1225.308          33.000  
  22298162.303   117177651.033       -1225.378          33.000  
  22284084.248   117103699.231       -1225.286          46.000  
  22249811.246   116923560.662       -1225.215          33.000  
  22323366.901   117310105.217       -1225.415          33.000  
  22395162.568   117687374.956       -1225.867          32.000  
  22163651.829   116470801.299       -1225.566          33.000  
  22132002.748   116304474.031       -1225.208          32.000  
  22290251.926   117136066.679       -1225.513          32.000  
  22138154.711   116336829.782       -1225.376          33.000  
  22451430.400   117983066.165       -1225.563          32.000  
 25  8 13  8 48 30.0020000  0 22G 1G31G27G 8G 6G 2G24G 5G 4G16G 7G20
                                G23G 3G26G22G18G12G21G25G14G11
  22284111.715   117103985.130       -1225.599          43.000  
  22250734.724   116928397.395       -1225.632          33.000  
  22226705.069   116802121.749       -1225.731          33.000  
  22284136.152   117103966.626       -1225.652          45.000  
  22284143.513   117103971.272       -1225.469          45.000  
  22284133.344   117103979.357       -1225.499          47.000  
  22187144.068   116594236.437       -1225.541          32.000  
  22284137.480   117103939.180       -1225.597          38.000  
  22284137.190   117103964.471       -1225.362          42.000  
  22147582.131   116386404.851       -1225.430          33.000  
  22284124.992   117103980.991       -1225.615          43.000  
  22326932.023   117328835.348       -1225.226          33.000  
  22298208.930   117177896.125       -1225.793          32.000  
  22284131.007   117103944.333       -1225.533          46.000  
  22249857.922   116923805.752       -1225.581          32.000  
  22323413.504   117310350.306       -1225.216          33.000  
  22395209.258   117687620.033       -1225.552          31.000  
  22163698.504   116471046.402       -1225.575          33.000  
  22132049.402   116304719.145       -1225.520          32.000  
  22290298.599   117136311.745       -1225.278          32.000  
  22138201.402   116337074.891       -1225.342          33.000  
  22451477.036   117983311.238       -1225.374          32.000  
 25  8 13  8 48 30.2020000  0 21G 1G31G27G 8G 6G 2G24G 5G 4G16G 7G20
                                G23G 3G26G22G12G21G25G14G11
  22284158.377   117104230.196       -1225.341          43.000  
  22250781.370   116928642.454       -1225.187          34.000  
  22226751.714   116802366.812       -1225.196          33.000  
  22284182.899   117104211.695       -1225.497          45.000  
  22284190.188   117104216.338       -1225.269          46.000  
  22284180.128   117104224.424       -1225.325          47.000  
  22187190.698   116594481.496       -1225.096          32.000  
  22284184.132   117104184.234       -1225.381          38.000  
  22284183.844   117104209.551       -1225.445          42.000  
  22147628.854   116386649.936       -1225.647          33.000  
  22284171.719   117104226.053       -1225.423          43.000  
  22326978.744   117329080.417       -1225.224          33.000  
  22298255.623   117178141.197       -1225.741          32.000  
  22284177.767   117104189.398       -1225.358          46.000  
  22249904.523   116924050.848       -1225.734          32.000  
  22323460.155   117310595.381       -1225.185          33.000  
  22163745.154   116471291.442       -1225.062          33.000  
  22132096.197   116304964.227       -1225.477          32.000  
  22290345.250   117136556.814       -1224.715          32.000  
  22138248.062   116337319.959       -1225.435          33.000  
  22451523.708   117983556.348       -1225.988          32.000  
 25  8 13  8 48 30.4020000  0 22G 1G31G27G 8G 6G 2G24G 5G 4G10G16G 7
                                G20G23G 3G26G22G12G21G25G14G11
  22284205.051   117104475.246       -1225.293          43.000  
  22250827.978   116928887.547       -1226.194          33.000  
  22226798.339   116802611.862       -1225.107          33.000  
  22284229.589   117104456.748       -1225.427          45.000  
  22284236.843   117104461.403       -1225.389          46.000  
  22284226.987   117104469.473       -1225.250          47.000  
  22187237.418   116594726.550       -1224.777          32.000  
  22284230.788   117104429.284       -1225.169          38.000  
  22284230.506   117104454.601       -1225.382          42.000  
  22384879.309   117633334.4051      -1225.677          32.000  
  22147675.538   116386894.956       -1225.054          33.000  
  22284218.496   117104471.099       -1225.141          44.000  
  22327025.409   117329325.480       -1225.227          34.000  
  22298302.327   117178386.217       -1224.943          31.000  
  22284224.509   117104434.452       -1225.336          46.000  
  22249951.194   116924295.861       -1225.152          32.000  
  22323506.858   117310840.434       -1225.546          33.000  
  22163791.860   116471536.514       -1225.205          33.000  
  22132142.801   116305209.253       -1225.447          32.000  
  22290391.963   117136801.894       -1225.445          32.000  
  22138294.704   116337565.018       -1225.114          32.000  
  22451570.361   117983801.372       -1225.281          32.000  
 25  8 13  8 48 30.6020000  0 21G 1G31G27G 8G 6G 2G19G 5G 4G10G16G 7
                                G20G 3G26G22G12G21G25G14G11
  22284251.730   117104720.318       -1225.449          43.000  
  22250874.654   116929132.565       -1225.082          33.000  
  22226845.010   116802856.913       -1225.211          33.000  
  22284276.352   117104701.804       -1225.291          45.000  
  22284283.464   117104706.458       -1225.303          46.000  
  22284273.793   117104714.540       -1225.282          47.000  
  22293074.737   117150897.1101      -1226.146          32.000  
  22284277.487   117104674.356       -1225.345          38.000  
  22284277.109   117104699.660       -1225.216          42.000  
  22384925.905   117633579.451       -1224.951          32.000  
  22147722.187   116387140.042       -1225.328          33.000  
  22284265.255   117104716.170       -1225.270          44.000  
  22327072.045   117329570.549       -1225.064          34.000  
  22284271.300   117104679.514       -1225.388          46.000  
  22249997.832   116924540.916       -1224.365          32.000  
  22323553.499   117311085.493       -1225.196          33.000  
  22163838.695   116471781.570       -1225.183          33.000  
  22132189.442   116305454.318       -1224.930          32.000  
  22290438.603   117137046.951       -1225.439          32.000  
  22138341.346   116337810.085       -1225.446          32.000  
  22451617.081   117984046.434       -1224.923          32.000  
 25  8 13  8 48 30.8020000  0 21G 1G31G27G 8G 6G 2G19G 5G 4G10G16G 7
                                G20G 3G26G22G12G21G25G14G11
  22284298.423   117104965.378       -1225.422          43.000  
  22250921.366   116929377.656       -1225.462          34.000  
  22226891.699   116803101.977       -1225.106          34.000  
  22284323.153   117104946.867       -1225.315          46.000  
  22284330.085   117104951.533       -1225.282          46.000  
  22284320.650   117104959.613       -1225.309          48.000  
  22293121.339   117151142.156       -1225.864          32.000  
  22284324.091   117104919.422       -1225.591          38.000  
  22284323.758   117104944.724       -1225.302          43.000  
  22384972.615   117633824.510       -1225.705          33.000  
  22147768.793   116387385.132       -1225.830          34.000  
  22284311.991   117104961.245       -1225.388          44.000  
  22327118.678   117329815.632       -1225.543          34.000  
  22284318.045   117104924.583       -1225.186          46.000  
  22250044.571   116924786.039       -1225.572          33.000  
  22323600.180   117311330.606       -1225.859          33.000  
  22163885.376   116472026.648       -1225.516          33.000  
  22132236.055   116305699.381       -1225.035          32.000  
  22290485.326   117137292.007       -1225.562          32.000  
  22138387.979   116338055.129       -1224.779          33.000  
  22451663.686   117984291.485       -1225.680          33.000  
 25  8 13  8 48 31.0020000  0 21G 1G31G27G 8G 6G 2G19G 5G 4G10G16G 7
                                G20G 3G26G22G12G21G25G14G11
  22284345.101   117105210.426       -1225.348          43.000  
  22250968.049   116929622.703       -1225.703          34.000  
  22226938.425   116803347.059       -1225.750          34.000  
  22284369.862   117105191.913       -1225.275          46.000  
  22284376.666   117105196.575       -1225.298          46.000  
  22284367.433   117105204.659       -1225.490          48.000  
  22293168.071   117151387.214       -1225.604          32.000  
  22284370.703   117105164.454       -1225.534          38.000  
  22284370.416   117105189.770       -1225.283          43.000  
  22385019.163   117634069.550       -1225.270          33.000  
  22147815.450   116387630.156       -1225.392          34.000  
  22284358.682   117105206.286       -1225.440          44.000  
  22327165.364   117330060.629       -1224.569          34.000  
  22284364.886   117105169.633       -1225.378          47.000  
  22250091.222   116925031.045       -1225.109          33.000  
  22323646.833   117311575.632       -1225.879          33.000  
  22163932.061   116472271.675       -1225.067          33.000  
  22132282.704   116305944.459       -1225.145          32.000  
  22290531.921   117137537.023       -1225.016          32.000  
  22138434.545   116338300.183       -1225.320          33.000  
  22451710.346   117984536.503       -1225.408          33.000  
 25  8 13  8 48 31.2020000  0 29G 1G31G27G 8G 6G 2G24G17G19G29G 5G 4
                                G10G16G15G 7G13G20G23G 9G 3G26G22G18
                                G12G21G25G14G11
  22284391.825   117105455.470       -1225.438          43.000  
  22251014.679   116929867.728       -1225.585          34.000  
  22226984.968   116803592.067       -1224.990          34.000  
  22284416.606   117105436.949       -1225.185          46.000  
  22284423.290   117105441.613       -1225.212          46.000  
  22284414.226   117105449.691       -1225.140          47.000  
  22187424.053   116595699.7781      -1224.977          32.000  
  22266845.846   117013064.1871      -1224.881          30.000  
  22293214.742   117151632.234       -1225.236          32.000  
  22268013.469   117019199.6731      -1225.192          31.000  
  22284417.346   117105409.507       -1225.588          38.000  
  22284417.053   117105434.805       -1225.132          43.000  
  22385065.690   117634314.578       -1225.040          32.000  
  22147862.088   116387875.180       -1225.175          34.000  
  22242225.646   116883684.1721      -1225.171          32.000  
  22284405.428   117105451.314       -1225.004          44.000  
  22261564.411   116985309.7151      -1225.424          31.000  
  22327212.050   117330305.708       -1225.181          34.000  
  22298489.000   117179349.4691      -1225.495          31.000  
  22435932.151   117901618.1951      -1224.393          32.000  
  22284411.647   117105414.668       -1225.193          47.000  
  22250137.917   116925276.092       -1224.971          33.000  
  22323693.462   117311820.666       -1225.271          33.000  
  22395488.875   117689087.3661      -1225.040          31.000  
  22163978.806   116472516.697       -1224.758          33.000  
  22132329.363   116306189.488       -1225.029          32.000  
  22290578.654   117137782.099       -1225.180          32.000  
  22138481.193   116338545.234       -1225.052          33.000  
  22451756.973   117984781.570       -1225.021          33.000  
 25  8 13  8 48 31.4020000  0 29G 1G31G27G 8G 6G 2G24G17G19G29G 5G 4
                                G10G16G15G 7G13G20G23G 9G 3G26G22G18
                                G12G21G25G14G11
  22284438.449   117105700.509       -1225.402          43.000  
  22251061.253   116930112.763       -1225.196          34.000  
  22227031.662   116803837.143       -1225.503          34.000  
  22284463.334   117105681.997       -1225.278          46.000  
  22284469.843   117105686.669       -1225.448          46.000  
  22284461.062   117105694.748       -1225.406          48.000  
  22187470.736   116595944.835       -1225.580          32.000  
  22266892.565   117013309.252       -1225.698          30.000  
  22293261.403   117151877.270       -1225.009          33.000  
  22268060.080   117019444.707       -1224.817          31.000  
  22284463.981   117105654.542       -1225.475          38.000  
  22284463.791   117105679.866       -1225.393          43.000  
  22385112.380   117634559.645       -1225.482          32.000  
  22147908.837   116388120.226       -1224.891          34.000  
  22242272.365   116883929.226       -1225.240          32.000  
  22284452.199   117105696.373       -1225.362          44.000  
  22261611.034   116985554.752       -1225.617          31.000  
  22327258.731   117330550.759       -1225.599          34.000  
  22298535.671   117179594.518       -1225.216          31.000  
  22435978.778   117901863.271       -1225.580          32.000  
  22284458.386   117105659.720       -1225.303          47.000  
  22250184.614   116925521.130       -1224.868          33.000  
  22323740.057   117312065.696       -1225.264          33.000  
  22395535.610   117689332.439       -1225.541          31.000  
  22164025.613   116472761.792       -1225.427          33.000  
  22132376.051   116306434.544       -1224.994          31.000  
  22290625.369   117138027.166       -1225.873          32.000  
  22138527.804   116338790.302       -1225.662          34.000  
  22451803.696   117985026.604       -1225.440          33.000  
 25  8 13  8 48 31.6020000  0 29G 1G31G27G 8G 6G 2G24G17G19G29G 5G 4
                                G10G16G15G 7G13G20G23G 9G 3G26G22G18
                                G12G21G25G14G11
  22284485.117   117105945.545       -1224.928          43.000  
  22251107.899   116930357.804       -1225.265          34.000  
  22227078.383   116804082.176       -1225.341          34.000  
  22284510.067   117105927.043       -1225.081          46.000  
  22284516.450   117105931.699       -1225.049          46.000  
  22284507.862   117105939.779       -1225.020          48.000  
  22187517.481   116596189.868       -1225.284          32.000  
  22266939.317   117013554.309       -1225.263          30.000  
  22293308.121   117152122.334       -1225.195          33.000  
  22268106.826   117019689.770       -1224.843          31.000  
  22284510.628   117105899.583       -1225.029          38.000  
  22284510.397   117105924.901       -1225.190          43.000  
  22385159.016   117634804.701       -1225.243          32.000  
  22147955.505   116388365.268       -1224.729          34.000  
  22242319.031   116884174.296       -1225.250          32.000  
  22284498.883   117105941.405       -1224.884          44.000  
  22261657.721   116985799.781       -1224.849          31.000  
  22327305.451   117330795.788       -1224.818          34.000  
  22298582.303   117179839.560       -1225.374          31.000  
  22436025.380   117902108.288       -1224.708          32.000  
  22284505.107   117105904.762       -1225.022          47.000  
  22250231.262   116925766.227       -1225.885          33.000  
  22323786.719   117312310.760       -1225.136          33.000  
  22395582.210   117689577.477       -1225.226          31.000  
  22164072.369   116473006.823       -1224.917          33.000  
  22132422.680   116306679.582       -1225.131          32.000  
  22290671.897   117138272.147       -1224.920          32.000  
  22138574.455   116339035.308       -1224.908          34.000  
  22451850.370   117985271.660       -1225.285          33.000  
 25  8 13  8 48 31.8020000  0 29G 1G31G27G 8G 6G 2G24G17G19G29G 5G 4
                                G10G16G15G 7G13G20G23G 9G 3G26G22G18
                                G12G21G25G14G11
  22284531.783   117106190.588       -1225.225          43.000  
  22251154.498   116930602.846       -1224.863          34.000  
  22227125.046   116804327.214       -1224.748          34.000  
  22284556.780   117106172.081       -1225.163          46.000  
  22284563.015   117106176.748       -1225.338          46.000  
  22284554.689   117106184.816       -1225.139          48.000  
  22187564.162   116596434.888       -1225.094          32.000  
  22266985.953   117013799.335       -1224.882          31.000  
  22293354.755   117152367.361       -1225.473          33.000  
  22268153.464   117019934.828       -1224.995          31.000  
  22284557.299   117106144.631       -1225.252          38.000  
  22284556.968   117106169.945       -1225.333          43.000  
  22385205.625   117635049.739       -1225.193          32.000  
  22148002.143   116388610.333       -1225.090          34.000  
  22242365.699   116884419.314       -1225.612          32.000  
  22284545.645   117106186.455       -1225.334          44.000  
  22261704.377   116986044.821       -1224.953          31.000  
  22327352.222   117331040.842       -1225.044          34.000  
  22298628.896   117180084.590       -1225.398          31.000  
  22436072.003   117902353.343       -1225.250          31.000  
  22284551.857   117106149.796       -1225.139          47.000  
  22250278.001   116926011.251       -1225.427          33.000  
  22323833.309   117312555.805       -1225.472          34.000  
  22395628.977   117689822.512       -1225.445          31.000  
  22164119.020   116473251.879       -1225.159          33.000  
  22132469.349   116306924.632       -1225.247          32.000  
  22290718.631   117138517.207       -1224.958          32.000  
  22138621.079   116339280.354       -1225.383          34.000  
  22451896.917   117985516.711       -1225.015          33.000  
 25  8 13  8 48 32.0020000  0 29G 1G31G27G 8G 6G 2G24G17G19G29G 5G 4
                                G10G16G15G 7G13G20G23G 9G 3G26G22G18
                                G12G21G25G14G11
  22284578.464   117106435.623       -1225.211          43.000  
  22251201.166   116930847.901       -1224.982          34.000  
  22227171.642   116804572.280       -1225.508          34.000  
  22284603.542   117106417.124       -1225.267          46.000  
  22284609.623   117106421.773       -1225.118          46.000  
  22284601.511   117106429.858       -1225.149          48.000  
  22187610.782   116596679.960       -1225.357          32.000  
  22267032.575   117014044.398       -1226.088          31.000  
  22293401.408   117152612.391       -1225.000          33.000  
  22268200.025   117020179.889       -1225.954          30.000  
  22284603.923   117106389.673       -1225.417          39.000  
  22284603.579   117106414.974       -1225.172          43.000  
  22385252.205   117635294.785       -1225.312          32.000  
  22148048.822   116388855.362       -1225.034          34.000  
  22242412.326   116884664.319       -1224.243          32.000  
  22284592.349   117106431.483       -1225.048          45.000  
  22261750.971   116986289.875       -1225.074          31.000  
  22327398.857   117331285.885       -1225.334          34.000  
  22298675.602   117180329.617       -1224.855          31.000  
  22436118.562   117902598.392       -1225.182          31.000  
  22284598.611   117106394.834       -1225.094          47.000  
  22250324.681   116926256.283       -1225.309          33.000  
  22323879.933   117312800.792       -1224.586          34.000  
  22395675.710   117690067.520       -1225.207          31.000  
  22164165.733   116473496.913       -1224.839          33.000  
  22132515.908   116307169.688       -1225.889          32.000  
  22290765.342   117138762.258       -1225.176          32.000  
  22138667.768   116339525.379       -1225.244          34.000  
  22451943.566   117985761.760       -1225.660          33.000  
 25  8 13  8 48 32.2020000  0 29G 1G31G27G 8G 6G 2G24G17G19G29G 5G 4
                                G10G16G15G 7G13G20G23G 9G 3G26G22G18
                                G12G21G25G14G11
  22284625.194   117106680.688       -1225.376          43.000  
  22251247.864   116931092.959       -1225.349          34.000  
  22227218.268   116804817.299       -1225.236          34.000  
  22284650.255   117106662.185       -1225.372          46.000  
  22284656.266   117106666.836       -1225.259          46.000  
  22284648.308   117106674.919       -1225.258          48.000  
  22187657.429   116596925.019       -1225.493          32.000  
  22267079.165   117014289.431       -1225.143          31.000  
  22293448.086   117152857.457       -1225.354          33.000  
  22268246.558   117020424.929       -1225.847          30.000  
  22284650.528   117106634.727       -1225.407          39.000  
  22284650.172   117106660.042       -1225.334          43.000  
  22385298.862   117635539.840       -1225.326          33.000  
  22148095.478   116389100.432       -1225.530          34.000  
  22242458.982   116884909.401       -1224.892          32.000  
  22284639.048   117106676.549       -1225.300          45.000  
  22261797.572   116986534.934       -1225.061          31.000  
  22327445.571   117331530.959       -1225.909          34.000  
  22298722.325   117180574.694       -1225.750          31.000  
  22436165.164   117902843.447       -1225.077          31.000  
  22284645.407   117106639.900       -1225.259          47.000  
  22250371.364   116926501.336       -1225.123          33.000  
  22323926.599   117313045.894       -1225.151          34.000  
  22395722.388   117690312.605       -1225.437          31.000  
  22164212.400   116473741.974       -1225.170          33.000  
  22132562.591   116307414.708       -1225.034          33.000  
  22290811.897   117139007.323       -1225.759          32.000  
  22138714.403   116339770.441       -1225.240          34.000  
  22451990.215   117986006.792       -1225.266          33.000  
 25  8 13  8 48 32.4020000  0 29G 1G31G27G 8G 6G 2G24G17G19G29G 5G 4
                                G10G16G15G 7G13G20G23G 9G 3G26G22G18
                                G12G21G25G14G11
  22284671.887   117106925.726       -1225.356          43.000  
  22251294.514   116931338.020       -1225.757          33.000  
  22227264.837   116805062.359       -1225.308          34.000  
  22284696.996   117106907.219       -1225.246          46.000  
  22284702.877   117106911.883       -1225.442          46.000  
  22284695.120   117106919.962       -1225.329          48.000  
  22187704.077   116597170.028       -1225.079          32.000  
  22267125.888   117014534.495       -1225.062          31.000  
  22293494.801   117153102.507       -1225.176          33.000  
  22268293.305   117020669.978       -1226.268          30.000  
  22284697.140   117106879.761       -1225.210          38.000  
  22284696.852   117106905.087       -1225.401          43.000  
  22385345.395   117635784.892       -1225.575          33.000  
  22148142.097   116389345.448       -1224.990          34.000  
  22242505.668   116885154.444       -1224.524          32.000  
  22284685.804   117106921.595       -1225.310          45.000  
  22261844.311   116986780.011       -1225.888          31.000  
  22327492.257   117331775.997       -1225.544          34.000  
  22298768.977   117180819.753       -1225.743          31.000  
  22436211.801   117903088.487       -1224.976          31.000  
  22284692.119   117106884.944       -1225.335          47.000  
  22250418.037   116926746.384       -1225.361          33.000  
  22323973.251   117313290.942       -1225.389          34.000  
  22395769.081   117690557.662       -1225.411          32.000  
  22164259.088   116473987.033       -1225.780          33.000  
  22132609.263   116307659.756       -1225.355          33.000  
  22290858.537   117139252.358       -1225.531          32.000  
  22138761.064   116340015.494       -1225.485          34.000  
  22452036.789   117986251.829       -1225.075          33.000  
 25  8 13  8 48 32.6020000  0 29G 1G31G27G 8G 6G 2G24G17G19G29G 5G 4
                                G10G16G15G 7G13G20G23G 9G 3G26G22G18
                                G12G21G25G14G11
  22284718.557   117107170.779       -1225.366          43.000  
  22251341.198   116931583.053       -1225.483          33.000  
  22227311.543   116805307.406       -1225.057          34.000  
  22284743.750   117107152.280       -1225.273          46.000  
  22284749.450   117107156.929       -1225.181          46.000  
  22284741.942   117107165.016       -1225.367          48.000  
  22187750.676   116597415.080       -1224.843          32.000  
  22267172.460   117014779.500       -1226.253          31.000  
  22293541.450   117153347.590       -1225.431          32.000  
  22268339.955   117020915.016       -1225.353          30.000  
  22284743.739   117107124.806       -1225.568          38.000  
  22284743.512   117107150.136       -1225.195          43.000  
  22385392.059   117636029.943       -1225.908          32.000  
  22148188.720   116389590.512       -1225.702          34.000  
  22242552.237   116885399.506       -1226.112          32.000  
  22284732.509   117107166.641       -1225.322          45.000  
  22261890.936   116987024.994       -1225.809          31.000  
  22327538.985   117332021.030       -1225.551          33.000  
  22298815.566   117181064.757       -1224.670          31.000  
  22436258.408   117903333.531       -1225.630          31.000  
  22284738.856   117107129.991       -1225.304          47.000  
  22250464.636   116926991.406       -1225.254          33.000  
  22324019.916   117313535.989       -1225.353          34.000  
  22395815.767   117690802.705       -1225.962          32.000  
  22164305.745   116474232.051       -1225.750          33.000  
  22132655.942   116307904.794       -1225.096          33.000  
  22290905.199   117139497.398       -1225.308          32.000  
  22138807.643   116340260.539       -1224.961          34.000  
  22452083.418   117986496.889       -1225.213          33.000  
 25  8 13  8 48 32.8020000  0 29G 1G31G27G 8G 6G 2G24G17G19G29G 5G 4
                                G10G16G15G 7G13G20G23G 9G 3G26G22G18
                                G12G21G25G14G11
  22284765.259   117107415.845       -1225.197          43.000  
  22251387.881   116931828.150       -1225.436          34.000  
  22227358.207   116805552.463       -1224.919          34.000  
  22284790.485   117107397.349       -1225.293          46.000  
  22284796.087   117107402.003       -1225.188          46.000  
  22284788.782   117107410.081       -1225.219          48.000  
  22187797.336   116597660.144       -1224.750          32.000  
  22267219.113   117015024.544       -1225.392          32.000  
  22293588.134   117153592.633       -1225.403          32.000  
  22268386.680   117021160.092       -1225.238          30.000  
  22284790.378   117107369.857       -1224.943          38.000  
  22284790.099   117107395.207       -1225.153          43.000  
  22385438.715   117636274.971       -1224.997          32.000  
  22148235.371   116389835.561       -1225.222          34.000  
  22242598.909   116885644.547       -1225.236          32.000  
  22284779.270   117107411.709       -1225.286          45.000  
  22261937.605   116987270.075       -1225.674          30.000  
  22327585.600   117332266.096       -1225.230          33.000  
  22298862.334   117181309.878       -1225.232          31.000  
  22436305.028   117903578.593       -1225.242          32.000  
  22284785.633   117107375.055       -1225.100          47.000  
  22250511.332   116927236.481       -1224.948          33.000  
  22324066.637   117313781.045       -1224.979          34.000  
  22395862.501   117691047.733       -1225.001          32.000  
  22164352.388   116474477.107       -1225.127          33.000  
  22132702.626   116308149.860       -1225.106          33.000  
  22290951.824   117139742.475       -1225.064          32.000  
  22138854.249   116340505.627       -1225.673          34.000  
  22452130.041   117986741.975       -1225.343          32.000  
 25  8 13  8 48 33.0020000  0 29G 1G31G27G 8G 6G 2G24G17G19G29G 5G 4
                                G10G16G15G 7G13G20G23G 9G 3G26G22G18
                                G12G21G25G14G11
  22284811.952   117107660.917       -1225.598          43.000  
  22251434.518   116932073.248       -1226.245          34.000  
  22227404.908   116805797.549       -1225.354          34.000  
  22284837.235   117107642.426       -1225.650          46.000  
  22284842.715   117107647.079       -1225.708          46.000  
  22284835.593   117107655.157       -1225.615          48.000  
  22187843.987   116597905.229       -1225.771          32.000  
  22267265.826   117015269.631       -1225.747          32.000  
  22293634.865   117153837.709       -1225.095          32.000  
  22268433.268   117021405.131       -1225.407          30.000  
  22284837.087   117107614.957       -1225.885          38.000  
  22284836.722   117107640.281       -1225.546          43.000  
  22385485.398   117636520.079       -1225.897          32.000  
  22148282.060   116390080.630       -1225.011          34.000  
  22242645.520   116885889.618       -1226.169          32.000  
  22284826.013   117107656.785       -1225.537          45.000  
  22261984.213   116987515.144       -1225.552          30.000  
  22327632.291   117332511.165       -1225.256          33.000  
  22298908.979   117181554.958       -1226.168          32.000  
  22436351.633   117903823.667       -1225.409          32.000  
  22284832.352   117107620.141       -1225.605          47.000  
  22250557.950   116927481.573       -1225.668          33.000  
  22324113.376   117314026.151       -1226.245          34.000  
  22395909.180   117691292.821       -1225.468          32.000  
  22164399.055   116474722.165       -1225.089          34.000  
  22132749.293   116308394.940       -1225.436          33.000  
  22290998.467   117139987.553       -1225.928          32.000  
  22138900.861   116340750.661       -1225.271          34.000  
  22452176.605   117986987.043       -1225.979          32.000  
 25  8 13  8 48 33.2020000  0 29G 1G31G27G 8G 6G 2G24G17G19G29G 5G 4
                                G10G16G15G 7G13G20G23G 9G 3G26G22G18
                                G12G21G25G14G11
  22284858.610   117107905.996       -1225.280          43.000  
  22251481.156   116932318.312       -1225.901          34.000  
  22227451.566   116806042.651       -1225.183          34.000  
  22284883.950   117107887.514       -1225.512          46.000  
  22284889.340   117107892.164       -1225.361          46.000  
  22284882.400   117107900.242       -1225.366          48.000  
  22187890.625   116598150.337       -1225.537          32.000  
  22267312.478   117015514.723       -1225.339          32.000  
  22293681.622   117154082.809       -1225.759          32.000  
  22268479.890   117021650.212       -1225.169          30.000  
  22284883.724   117107860.018       -1224.979          38.000  
  22284883.362   117107885.367       -1225.356          43.000  
  22385532.057   117636765.192       -1226.253          32.000  
  22148328.691   116390325.738       -1225.532          34.000  
  22242692.221   116886134.724       -1225.630          32.000  
  22284872.763   117107901.877       -1225.510          45.000  
  22262030.899   116987760.212       -1224.979          30.000  
  22327678.841   117332756.241       -1225.208          33.000  
  22298955.700   117181799.998       -1224.996          32.000  
  22436398.206   117904068.740       -1225.047          32.000  
  22284879.073   117107865.227       -1225.486          47.000  
  22250604.652   116927726.674       -1225.885          33.000  
  22324159.995   117314271.239       -1225.819          34.000  
  22395955.823   117691537.912       -1224.899          33.000  
  22164445.707   116474967.294       -1225.693          34.000  
  22132795.934   116308640.028       -1225.657          33.000  
  22291045.120   117140232.648       -1225.614          32.000  
  22138947.518   116340995.777       -1225.116          34.000  
  22452223.109   117987232.076       -1224.606          32.000  
 25  8 13  8 48 33.4020000  0 29G 1G31G27G 8G 6G 2G24G17G19G29G 5G 4
                                G10G16G15G 7G13G20G23G 9G 3G26G22G18
                                G12G21G25G14G11
  22284905.270   117108151.066       -1225.000          43.000  
  22251527.858   116932563.359       -1225.125          34.000  
  22227498.148   116806287.707       -1224.943          34.000  
  22284930.695   117108132.565       -1225.021          46.000  
  22284935.977   117108137.222       -1225.041          46.000  
  22284929.220   117108145.297       -1224.993          48.000  
  22187937.303   116598395.373       -1224.943          32.000  
  22267359.190   117015759.847       -1226.203          32.000  
  22293728.377   117154327.869       -1225.125          32.000  
  22268526.531   117021895.306       -1225.041          30.000  
  22284930.379   117108105.102       -1225.093          38.000  
  22284929.997   117108130.423       -1225.006          43.000  
  22385578.712   117637010.208       -1225.084          32.000  
  22148375.280   116390570.793       -1224.857          34.000  
  22242738.835   116886379.829       -1226.022          32.000  
  22284919.459   117108146.943       -1225.216          45.000  
  22262077.522   116988005.313       -1225.099          30.000  
  22327725.536   117333001.338       -1225.204          33.000  
  22299002.448   117182045.058       -1224.346          32.000  
  22436444.920   117904313.865       -1225.616          32.000  
  22284925.812   117108110.292       -1225.185          47.000  
  22250651.322   116927971.720       -1225.215          33.000  
  22324206.597   117314516.286       -1225.078          34.000  
  22396002.457   117691782.978       -1225.386          33.000  
  22164492.423   116475212.345       -1225.419          34.000  
  22132842.459   116308885.070       -1225.015          33.000  
  22291091.785   117140477.643       -1224.083          32.000  
  22138994.126   116341240.831       -1224.966          34.000  
  22452269.750   117987477.175       -1225.025          32.000  
 25  8 13  8 48 33.6020000  0 29G 1G31G27G 8G 6G 2G24G17G19G29G 5G 4
                                G10G16G15G 7G13G20G23G 9G 3G26G22G18
                                G12G21G25G14G11
  22284951.957   117108396.131       -1225.559          43.000  
  22251574.522   116932808.394       -1225.176          34.000  
  22227544.789   116806532.784       -1225.825          34.000  
  22284977.433   117108377.631       -1225.483          46.000  
  22284982.586   117108382.287       -1225.458          46.000  
  22284975.993   117108390.364       -1225.409          48.000  
  22187983.900   116598640.456       -1225.896          32.000  
  22267405.869   117016004.842       -1225.263          32.000  
  22293775.062   117154572.943       -1225.799          32.000  
  22268573.205   117022140.389       -1226.255          30.000  
  22284976.988   117108350.168       -1225.428          38.000  
  22284976.616   117108375.486       -1225.444          43.000  
  22385625.298   117637255.270       -1225.261          32.000  
  22148421.895   116390815.849       -1224.988          34.000  
  22242785.459   116886624.846       -1225.028          32.000  
  22284966.168   117108392.000       -1225.466          45.000  
  22262124.228   116988250.390       -1225.771          30.000  
  22327772.200   117333246.389       -1225.537          33.000  
  22299049.142   117182290.147       -1225.746          32.000  
  22436491.632   117904558.892       -1225.279          32.000  
  22284972.581   117108355.344       -1225.359          47.000  
  22250697.982   116928216.771       -1225.469          33.000  
  22324253.269   117314761.373       -1225.711          34.000  
  22396049.102   117692028.033       -1225.455          33.000  
  22164539.166   116475457.399       -1225.754          34.000  
  22132889.108   116309130.117       -1224.823          33.000  
  22291138.548   117140722.779       -1225.914          32.000  
  22139040.830   116341485.891       -1225.250          34.000  
  22452316.394   117987722.261       -1225.759          32.000  
 25  8 13  8 48 33.8020000  0 29G 1G31G27G 8G 6G 2G24G17G19G29G 5G 4
                                G10G16G15G 7G13G20G23G 9G 3G26G22G18
                                G12G21G25G14G11
  22284998.631   117108641.195       -1225.507          43.000  
  22251621.155   116933053.485       -1225.721          34.000  
  22227591.498   116806777.841       -1225.567          34.000  
  22285024.174   117108622.698       -1225.520          46.000  
  22285029.199   117108627.352       -1225.492          46.000  
  22285022.788   117108635.435       -1225.563          48.000  
  22188030.615   116598885.494       -1225.358          32.000  
  22267452.527   117016249.918       -1224.976          32.000  
  22293821.787   117154817.990       -1225.422          32.000  
  22268619.871   117022385.453       -1225.985          31.000  
  22285023.641   117108595.221       -1225.125          38.000  
  22285023.250   117108620.553       -1225.530          43.000  
  22385671.930   117637500.339       -1225.558          33.000  
  22148468.547   116391060.946       -1225.420          34.000  
  22242832.113   116886869.913       -1225.503          32.000  
  22285012.844   117108637.069       -1225.527          45.000  
  22262170.920   116988495.420       -1225.714          30.000  
  22327818.885   117333491.464       -1225.183          33.000  
  22299095.733   117182535.232       -1225.949          32.000  
  22436538.261   117904803.953       -1225.024          32.000  
  22285019.293   117108600.418       -1225.439          47.000  
  22250744.712   116928461.825       -1224.872          33.000  
  22324299.843   117315006.434       -1225.879          35.000  
  22396095.713   117692273.079       -1225.108          33.000  
  22164585.853   116475702.475       -1225.715          34.000  
  22132935.849   116309375.222       -1225.586          33.000  
  22291185.108   117140967.859       -1226.743          32.000  
  22139087.557   116341730.970       -1225.626          34.000  
  22452363.006   117987967.303       -1225.391          32.000  
 25  8 13  8 48 34.0020000  0 29G 1G31G27G 8G 6G 2G24G17G19G29G 5G 4
                                G10G16G15G 7G13G20G23G 9G 3G26G22G18
                                G12G21G25G14G11
  22285045.325   117108886.245       -1225.321          44.000  
  22251667.865   116933298.512       -1225.016          34.000  
  22227638.120   116807022.881       -1225.271          34.000  
  22285070.878   117108867.747       -1225.370          46.000  
  22285075.799   117108872.401       -1225.329          46.000  
  22285069.541   117108880.484       -1225.434          48.000  
  22188077.288   116599130.542       -1225.002          32.000  
  22267499.207   117016494.988       -1225.459          32.000  
  22293868.440   117155063.044       -1225.490          33.000  
  22268666.452   117022630.494       -1225.805          31.000  
  22285070.264   117108840.278       -1225.256          38.000  
  22285069.877   117108865.602       -1225.394          43.000  
  22385718.523   117637745.387       -1225.346          33.000  
  22148515.224   116391305.991       -1225.625          34.000  
  22242878.636   116887114.951       -1224.597          31.000  
  22285059.548   117108882.110       -1225.211          45.000  
  22262217.531   116988740.483       -1225.054          31.000  
  22327865.519   117333736.539       -1226.054          33.000  
  22299142.424   117182780.274       -1225.468          32.000  
  22436584.828   117905048.999       -1225.051          32.000  
  22285066.017   117108845.468       -1225.395          47.000  
  22250791.336   116928706.880       -1225.223          33.000  
  22324346.473   117315251.461       -1225.260          34.000  
  22396142.360   117692518.141       -1225.162          33.000  
  22164632.534   116475947.518       -1225.459          34.000  
  22132982.536   116309620.264       -1225.625          33.000  
  22291231.834   117141212.898       -1225.458          32.000  
  22139134.232   116341976.009       -1225.107          34.000  
  22452409.642   117988212.333       -1224.935          32.000  
 25  8 13  8 48 34.2020000  0 29G 1G31G27G 8G 6G 2G24G17G19G29G 5G 4
                                G10G16G15G 7G13G20G23G 9G 3G26G22G18
                                G12G21G25G14G11
  22285091.977   117109131.308       -1225.211          44.000  
  22251714.529   116933543.608       -1225.585          34.000  
  22227684.796   116807267.928       -1224.813          34.000  
  22285117.588   117109112.811       -1225.302          46.000  
  22285122.388   117109117.462       -1225.204          46.000  
  22285116.312   117109125.544       -1225.302          48.000  
  22188123.940   116599375.605       -1224.831          32.000  
  22267545.787   117016740.066       -1225.675          32.000  
  22293915.045   117155308.089       -1225.170          33.000  
  22268713.115   117022875.535       -1224.767          31.000  
  22285116.882   117109085.334       -1224.917          38.000  
  22285116.530   117109110.661       -1225.177          43.000  
  22385765.183   117637990.472       -1225.384          33.000  
  22148561.816   116391551.007       -1224.747          34.000  
  22242925.317   116887360.068       -1225.800          31.000  
  22285106.272   117109127.180       -1225.247          45.000  
  22262264.256   116988985.532       -1224.917          31.000  
  22327912.272   117333981.559       -1224.856          33.000  
  22299189.062   117183025.340       -1225.723          32.000  
  22436631.541   117905294.115       -1225.939          32.000  
  22285112.757   117109090.530       -1225.298          47.000  
  22250838.009   116928951.948       -1225.388          33.000  
  22324393.141   117315496.548       -1225.446          34.000  
  22396189.000   117692763.208       -1225.498          33.000  
  22164679.231   116476192.600       -1225.845          34.000  
  22133029.265   116309865.319       -1225.161          34.000  
  22291278.500   117141457.897       -1224.743          32.000  
  22139180.916   116342221.069       -1225.186          34.000  
  22452456.245   117988457.420       -1225.120          32.000  
 25  8 13  8 48 34.4020000  0 29G 1G31G27G 8G 6G 2G24G17G19G29G 5G 4
                                G10G16G15G 7G13G20G23G 9G 3G26G22G18
                                G12G21G25G14G11
  22285138.672   117109376.356       -1225.208          44.000  
  22251761.080   116933788.638       -1225.214          34.000  
  22227731.322   116807512.972       -1224.820          34.000  
  22285164.338   117109357.849       -1225.357          46.000  
  22285168.990   117109362.501       -1225.234          46.000  
  22285163.128   117109370.587       -1225.350          48.000  
  22188170.463   116599620.656       -1225.376          32.000  
  22267592.473   117016985.062       -1225.329          32.000  
  22293961.795   117155553.150       -1225.417          33.000  
  22268759.712   117023120.585       -1225.230          31.000  
  22285163.473   117109330.388       -1225.589          38.000  
  22285163.124   117109355.705       -1225.170          43.000  
  22385811.906   117638235.499       -1225.421          33.000  
  22148608.474   116391796.084       -1225.209          34.000  
  22242972.001   116887605.077       -1225.427          32.000  
  22285153.030   117109372.217       -1225.282          45.000  
  22262310.903   116989230.573       -1225.355          31.000  
  22327958.940   117334226.620       -1225.298          33.000  
  22299235.766   117183270.380       -1225.687          32.000  
  22436678.139   117905539.102       -1225.570          32.000  
  22285159.507   117109335.562       -1225.291          47.000  
  22250884.622   116929196.979       -1224.760          33.000  
  22324439.774   117315741.549       -1225.605          34.000  
  22396235.718   117693008.249       -1224.812          32.000  
  22164725.861   116476437.594       -1224.904          34.000  
  22133075.857   116310110.347       -1225.043          33.000  
  22291325.116   117141702.963       -1225.188          32.000  
  22139227.589   116342466.107       -1224.941          34.000  
  22452502.862   117988702.443       -1225.289          32.000  
 25  8 13  8 48 34.6020000  0 29G 1G31G27G 8G 6G 2G24G17G19G29G 5G 4
                                G10G16G15G 7G13G20G23G 9G 3G26G22G18
                                G12G21G25G14G11
  22285185.333   117109621.404       -1225.297          44.000  
  22251807.728   116934033.657       -1224.812          34.000  
  22227778.043   116807758.040       -1225.504          34.000  
  22285211.050   117109602.886       -1225.135          46.000  
  22285215.616   117109607.545       -1225.231          46.000  
  22285209.926   117109615.631       -1225.232          48.000  
  22188217.113   116599865.750       -1226.135          32.000  
  22267639.148   117017230.115       -1225.350          32.000  
  22294008.470   117155798.156       -1224.934          33.000  
  22268806.362   117023365.634       -1225.025          31.000  
  22285210.099   117109575.440       -1225.498          38.000  
  22285209.733   117109600.758       -1225.322          43.000  
  22385858.655   117638480.527       -1225.283          33.000  
  22148655.067   116392041.132       -1225.365          34.000  
  22243018.602   116887850.110       -1225.294          32.000  
  22285199.729   117109617.267       -1225.381          45.000  
  22262357.650   116989475.633       -1224.853          31.000  
  22328005.567   117334471.652       -1225.731          33.000  
  22299282.488   117183515.405       -1224.925          33.000  
  22436724.809   117905784.169       -1225.429          32.000  
  22285206.245   117109580.607       -1225.234          47.000  
  22250931.214   116929442.046       -1225.206          33.000  
  22324486.374   117315986.586       -1224.783          34.000  
  22396282.324   117693253.294       -1224.977          32.000  
  22164772.576   116476682.648       -1224.883          34.000  
  22133122.502   116310355.374       -1224.739          33.000  
  22291371.763   117141948.006       -1224.991          32.000  
  22139274.280   116342711.175       -1225.421          34.000  
  22452549.422   117988947.507       -1225.278          32.000  
 25  8 13  8 48 34.8020000  0 29G 1G31G27G 8G 6G 2G24G17G19G29G 5G 4
                                G10G16G15G 7G13G20G23G 9G 3G26G22G18
                                G12G21G25G14G11
  22285232.001   117109866.440       -1225.225          44.000  
  22251854.391   116934278.724       -1225.234          34.000  
  22227824.672   116808003.074       -1225.237          34.000  
  22285257.764   117109847.937       -1225.260          46.000  
  22285262.209   117109852.586       -1225.157          47.000  
  22285256.672   117109860.671       -1225.189          48.000  
  22188263.826   116600110.731       -1224.682          32.000  
  22267685.813   117017475.132       -1224.402          32.000  
  22294055.228   117156043.261       -1225.594          33.000  
  22268853.035   117023610.716       -1226.036          31.000  
  22285256.682   117109820.478       -1225.585          38.000  
  22285256.388   117109845.796       -1225.268          43.000  
  22385905.282   117638725.589       -1225.641          33.000  
  22148701.692   116392286.152       -1224.800          34.000  
  22243065.282   116888095.151       -1225.116          32.000  
  22285246.479   117109862.304       -1225.264          45.000  
  22262404.261   116989720.700       -1225.863          31.000  
  22328052.209   117334716.686       -1225.422          33.000  
  22299329.240   117183760.483       -1225.468          33.000  
  22436771.424   117906029.164       -1224.791          32.000  
  22285252.993   117109825.654       -1225.221          47.000  
  22250978.046   116929687.083       -1225.243          33.000  
  22324533.029   117316231.612       -1225.109          34.000  
  22396329.032   117693498.357       -1225.326          32.000  
  22164819.271   116476927.709       -1225.508          34.000  
  22133169.190   116310600.454       -1225.493          33.000  
  22291418.344   117142193.048       -1225.036          33.000  
  22139320.898   116342956.210       -1225.199          34.000  
  22452596.077   117989192.549       -1225.273          32.000  
 25  8 13  8 48 35.0020000  0 29G 1G31G27G 8G 6G 2G24G17G19G29G 5G 4
                                G10G16G15G 7G13G20G23G 9G 3G26G22G18
                                G12G21G25G14G11
  22285278.701   117110111.503       -1225.323          44.000  
  22251901.177   116934523.775       -1225.278          34.000  
  22227871.298   116808248.136       -1225.584          34.000  
  22285304.471   117110092.999       -1225.436          46.000  
  22285308.829   117110097.652       -1225.396          47.000  
  22285303.424   117110105.731       -1225.311          48.000  
  22188310.372   116600355.821       -1225.452          32.000  
  22267732.375   117017720.243       -1225.547          31.000  
  22294101.874   117156288.298       -1225.950          33.000  
  22268899.758   117023855.698       -1224.751          31.000  
  22285303.381   117110065.534       -1225.375          38.000  
  22285303.012   117110090.860       -1225.403          43.000  
  22385951.915   117638970.638       -1225.387          33.000  
  22148748.300   116392531.227       -1225.015          34.000  
  22243111.824   116888340.222       -1225.343          32.000  
  22285293.204   117110107.368       -1225.436          45.000  
  22262450.954   116989965.731       -1225.107          31.000  
  22328098.889   117334961.752       -1225.584          33.000  
  22299375.876   117184005.549       -1225.892          33.000  
  22436818.144   117906274.254       -1225.198          32.000  
  22285299.768   117110070.709       -1225.381          47.000  
  22251024.780   116929932.145       -1225.268          33.000  
  22324579.643   117316476.707       -1225.608          33.000  
  22396375.667   117693743.406       -1225.385          32.000  
  22164865.900   116477172.759       -1225.385          34.000  
  22133215.886   116310845.500       -1225.010          33.000  
  22291465.010   117142438.149       -1225.634          33.000  
  22139367.529   116343201.262       -1225.135          34.000  
  22452642.681   117989437.598       -1225.044          32.000  
 25  8 13  8 48 35.2020000  0 29G 1G31G27G 8G 6G 2G24G17G19G29G 5G 4
                                G10G16G15G 7G13G20G23G 9G 3G26G22G18
                                G12G21G25G14G11
  22285325.384   117110356.557       -1225.376          43.000  
  22251947.776   116934768.813       -1225.067          34.000  
  22227918.059   116808493.152       -1224.551          34.000  
  22285351.209   117110338.052       -1225.361          46.000  
  22285355.430   117110342.709       -1225.378          47.000  
  22285350.184   117110350.790       -1225.340          48.000  
  22188357.012   116600600.887       -1225.680          32.000  
  22267779.184   117017965.262       -1225.223          31.000  
  22294148.643   117156533.342       -1225.139          33.000  
  22268946.367   117024100.745       -1224.253          31.000  
  22285350.034   117110310.583       -1225.201          38.000  
  22285349.630   117110335.899       -1225.173          44.000  
  22385998.543   117639215.669       -1225.271          33.000  
  22148794.901   116392776.258       -1224.628          34.000  
  22243158.500   116888585.241       -1224.871          32.000  
  22285339.928   117110352.420       -1225.277          45.000  
  22262497.645   116990210.819       -1225.380          32.000  
  22328145.650   117335206.795       -1225.201          33.000  
  22299422.583   117184250.556       -1225.258          33.000  
  22436864.894   117906519.305       -1225.156          32.000  
  22285346.487   117110315.759       -1225.154          47.000  
  22251071.392   116930177.193       -1225.096          33.000  
  22324626.304   117316721.757       -1225.737          33.000  
  22396422.284   117693988.432       -1224.845          32.000  
  22164912.630   116477417.801       -1225.127          34.000  
  22133262.568   116311090.561       -1225.471          33.000  
  22291511.638   117142683.178       -1225.515          33.000  
  22139414.207   116343446.336       -1225.231          34.000  
  22452689.321   117989682.643       -1225.007          32.000  
 25  8 13  8 48 35.4020000  0 29G 1G31G27G 8G 6G 2G24G17G19G29G 5G 4
                                G10G16G15G 7G13G20G23G 9G 3G26G22G18
                                G12G21G25G14G11
  22285372.082   117110601.590       -1225.114          43.000  
  22251994.453   116935013.865       -1225.421          34.000  
  22227964.816   116808738.228       -1225.409          34.000  
  22285397.920   117110583.093       -1225.294          46.000  
  22285402.076   117110587.744       -1225.195          47.000  
  22285396.949   117110595.830       -1225.212          48.000  
  22188403.604   116600845.896       -1224.667          32.000  
  22267825.806   117018210.326       -1225.434          31.000  
  22294195.348   117156778.398       -1225.795          33.000  
  22268993.084   117024345.820       -1224.791          31.000  
  22285396.661   117110555.619       -1225.219          38.000  
  22285396.291   117110580.945       -1225.268          44.000  
  22386045.117   117639460.729       -1225.196          32.000  
  22148841.534   116393021.310       -1224.902          34.000  
  22243205.183   116888830.298       -1225.366          32.000  
  22285386.686   117110597.455       -1225.187          45.000  
  22262544.277   116990455.835       -1224.705          31.000  
  22328192.376   117335451.822       -1224.971          34.000  
  22299469.351   117184495.629       -1225.420          32.000  
  22436911.560   117906764.359       -1225.850          32.000  
  22285393.244   117110560.807       -1225.187          47.000  
  22251118.051   116930422.244       -1225.391          33.000  
  22324672.935   117316966.800       -1225.379          33.000  
  22396468.855   117694233.484       -1225.236          32.000  
  22164959.327   116477662.833       -1225.004          34.000  
  22133309.197   116311335.586       -1224.923          33.000  
  22291558.320   117142928.229       -1225.310          33.000  
  22139460.802   116343691.353       -1224.712          34.000  
  22452735.956   117989927.701       -1225.310          32.000  
 25  8 13  8 48 35.6020000  0 29G 1G31G27G 8G 6G 2G24G17G19G29G 5G 4
                                G10G16G15G 7G13G20G23G 9G 3G26G22G18
                                G12G21G25G14G11
  22285418.747   117110846.654       -1225.501          44.000  
  22252041.098   116935258.889       -1224.738          34.000  
  22228011.502   116808983.264       -1225.458          34.000  
  22285444.660   117110828.145       -1225.533          46.000  
  22285448.695   117110832.798       -1225.370          47.000  
  22285443.733   117110840.880       -1225.423          48.000  
  22188450.242   116601090.955       -1225.077          32.000  
  22267872.497   117018455.332       -1224.955          31.000  
  22294242.068   117157023.409       -1225.092          33.000  
  22269039.778   117024590.871       -1225.768          31.000  
  22285443.304   117110800.681       -1225.439          38.000  
  22285442.932   117110825.999       -1225.323          44.000  
  22386091.738   117639705.780       -1225.416          32.000  
  22148888.242   116393266.386       -1225.696          34.000  
  22243251.876   116889075.323       -1224.897          31.000  
  22285433.371   117110842.513       -1225.483          45.000  
  22262590.929   116990700.928       -1226.348          31.000  
  22328239.004   117335696.883       -1225.177          34.000  
  22299516.031   117184740.682       -1225.465          32.000  
  22436958.247   117907009.376       -1225.171          32.000  
  22285440.010   117110805.862       -1225.429          47.000  
  22251164.635   116930667.312       -1225.829          33.000  
  22324719.577   117317211.835       -1225.405          33.000  
  22396515.501   117694478.521       -1224.893          32.000  
  22165005.990   116477907.911       -1225.375          34.000  
  22133355.856   116311580.650       -1225.441          33.000  
  22291604.958   117143173.308       -1225.828          33.000  
  22139507.429   116343936.426       -1225.659          34.000  
  22452782.560   117990172.735       -1225.259          32.000  
 25  8 13  8 48 35.8020000  0 29G 1G31G27G 8G 6G 2G24G17G19G29G 5G 4
                                G10G16G15G 7G13G20G23G 9G 3G26G22G18
                                G12G21G25G14G11
  22285465.461   117111091.725       -1225.313          44.000  
  22252087.769   116935503.998       -1225.377          34.000  
  22228058.126   116809228.324       -1225.187          34.000  
  22285491.336   117111073.215       -1225.242          46.000  
  22285495.337   117111077.870       -1225.254          47.000  
  22285490.538   117111085.953       -1225.254          48.000  
  22188496.900   116601336.037       -1225.350          32.000  
  22267919.117   117018700.416       -1224.763          31.000  
  22294288.782   117157268.513       -1225.329          33.000  
  22269086.365   117024835.931       -1225.639          31.000  
  22285489.961   117111045.745       -1225.183          38.000  
  22285489.539   117111071.077       -1225.385          44.000  
  22386138.427   117639950.848       -1225.319          32.000  
  22148934.909   116393511.442       -1225.569          34.000  
  22243298.540   116889320.416       -1225.196          32.000  
  22285480.104   117111087.581       -1225.378          45.000  
  22262637.570   116990945.940       -1225.059          31.000  
  22328285.667   117335941.972       -1225.396          34.000  
  22299562.771   117184985.751       -1225.694          31.000  
  22437004.913   117907254.453       -1225.150          32.000  
  22285486.766   117111050.932       -1225.308          47.000  
  22251211.340   116930912.377       -1225.502          33.000  
  22324766.205   117317456.915       -1224.928          33.000  
  22396562.144   117694723.631       -1225.730          32.000  
  22165052.805   116478152.968       -1225.153          34.000  
  22133402.508   116311825.690       -1224.454          32.000  
  22291651.577   117143418.358       -1225.913          33.000  
  22139554.052   116344181.468       -1224.990          34.000  
  22452829.270   117990417.828       -1225.042          32.000  
 25  8 13  8 48 36.0020000  0 29G 1G31G27G 8G 6G 2G24G17G19G29G 5G 4
                                G10G16G15G 7G13G20G23G 9G 3G26G22G18
                                G12G21G25G14G11
  22285512.165   117111336.802       -1225.672          44.000  
  22252134.388   116935749.070       -1225.683          34.000  
  22228104.767   116809473.424       -1225.790          34.000  
  22285538.046   117111318.302       -1225.846          46.000  
  22285541.991   117111322.953       -1225.619          47.000  
  22285537.326   117111331.039       -1225.721          48.000  
  22188543.527   116601581.144       -1226.042          32.000  
  22267965.776   117018945.546       -1226.264          31.000  
  22294335.439   117157513.589       -1226.184          33.000  
  22269133.074   117025081.009       -1226.013          31.000  
  22285536.597   117111290.837       -1225.812          38.000  
  22285536.182   117111316.159       -1225.803          44.000  
  22386185.119   117640195.923       -1225.464          32.000  
  22148981.571   116393756.516       -1225.305          35.000  
  22243345.178   116889565.495       -1225.624          31.000  
  22285526.833   117111332.652       -1225.346          45.000  
  22262684.120   116991191.037       -1225.396          31.000  
  22328332.307   117336187.056       -1225.947          34.000  
  22299609.537   117185230.841       -1226.236          31.000  
  22437051.594   117907499.536       -1225.357          32.000  
  22285533.549   117111296.008       -1225.578          47.000  
  22251258.048   116931157.435       -1225.514          33.000  
  22324812.880   117317702.021       -1225.886          33.000  
  22396608.828   117694968.684       -1225.417          32.000  
  22165099.543   116478398.058       -1225.522          34.000  
  22133449.165   116312070.835       -1225.828          32.000  
  22291698.264   117143663.433       -1225.606          33.000  
  22139600.737   116344426.560       -1225.242          34.000  
  22452876.057   117990662.916       -1225.779          32.000  
 25  8 13  8 48 36.2020000  0 29G 1G31G27G 8G 6G 2G24G17G19G29G 5G 4
                                G10G16G15G 7G13G20G23G 9G 3G26G22G18
                                G12G21G25G14G11
  22285558.834   117111581.866       -1225.326          43.000  
  22252180.944   116935994.132       -1225.417          34.000  
  22228151.422   116809718.496       -1225.167          34.000  
  22285584.759   117111563.360       -1225.293          46.000  
  22285588.627   117111568.013       -1225.376          47.000  
  22285584.111   117111576.094       -1225.307          48.000  
  22188590.254   116601826.190       -1226.003          32.000  
  22268012.350   117019190.560       -1225.339          31.000  
  22294382.188   117157758.647       -1225.202          32.000  
  22269179.738   117025326.078       -1225.746          31.000  
  22285583.220   117111535.881       -1225.263          38.000  
  22285582.817   117111561.216       -1225.306          44.000  
  22386231.751   117640440.978       -1224.773          32.000  
  22149028.255   116394001.583       -1225.035          35.000  
  22243391.717   116889810.511       -1224.513          32.000  
  22285573.572   117111577.731       -1225.397          45.000  
  22262730.698   116991436.093       -1225.198          31.000  
  22328378.964   117336432.117       -1225.519          33.000  
  22299656.120   117185475.904       -1226.044          31.000  
  22437098.113   117907744.621       -1225.916          32.000  
  22285580.275   117111541.070       -1225.312          47.000  
  22251304.736   116931402.495       -1225.049          33.000  
  22324859.492   117317947.084       -1225.637          33.000  
  22396655.541   117695213.748       -1224.833          33.000  
  22165146.282   116478643.121       -1225.491          34.000  
  22133495.711   116312315.879       -1225.402          32.000  
  22291745.004   117143908.497       -1225.016          32.000  
  22139647.425   116344671.656       -1225.693          34.000  
  22452922.734   117990907.953       -1225.022          32.000  
 25  8 13  8 48 36.4020000  0 29G 1G31G27G 8G 6G 2G24G17G19G29G 5G 4
                                G10G16G15G 7G13G20G23G 9G 3G26G22G18
                                G12G21G25G14G11
  22285605.476   117111826.905       -1225.224          43.000  
  22252227.482   116936239.162       -1225.100          34.000  
  22228198.102   116809963.537       -1225.773          35.000  
  22285631.418   117111808.399       -1225.200          46.000  
  22285635.233   117111813.048       -1225.102          47.000  
  22285630.892   117111821.131       -1225.180          48.000  
  22188636.834   116602071.184       -1225.338          32.000  
  22268058.909   117019435.600       -1224.956          31.000  
  22294428.940   117158003.668       -1224.857          32.000  
  22269226.437   117025571.090       -1224.330          31.000  
  22285629.836   117111780.927       -1225.030          39.000  
  22285629.434   117111806.255       -1225.079          43.000  
  22386278.356   117640686.036       -1225.165          32.000  
  22149074.867   116394246.613       -1224.563          35.000  
  22243438.341   116890055.624       -1225.583          32.000  
  22285620.294   117111822.759       -1225.228          45.000  
  22262777.512   116991681.136       -1225.096          31.000  
  22328425.633   117336677.110       -1224.889          33.000  
  22299702.725   117185720.910       -1224.730          31.000  
  22437144.778   117907989.622       -1224.968          32.000  
  22285626.985   117111786.112       -1225.207          47.000  
  22251351.358   116931647.531       -1224.702          33.000  
  22324906.105   117318192.081       -1224.473          34.000  
  22396702.221   117695458.811       -1225.297          33.000  
  22165192.969   116478888.169       -1225.737          34.000  
  22133542.311   116312560.908       -1225.017          32.000  
  22291791.636   117144153.553       -1225.584          32.000  
  22139694.036   116344916.690       -1225.594          34.000  
  22452969.368   117991153.027       -1225.259          32.000  
 25  8 13  8 48 36.6020000  0 29G 1G31G27G 8G 6G 2G24G17G19G29G 5G 4
                                G10G16G15G 7G13G20G23G 9G 3G26G22G18
                                G12G21G25G14G11
  22285652.159   117112071.952       -1225.219          43.000  
  22252274.119   116936484.238       -1225.050          34.000  
  22228244.751   116810208.590       -1225.465          34.000  
  22285678.124   117112053.456       -1225.257          46.000  
  22285681.863   117112058.120       -1225.416          47.000  
  22285677.652   117112066.194       -1225.431          48.000  
  22188683.535   116602316.278       -1225.714          32.000  
  22268105.482   117019680.650       -1225.002          32.000  
  22294475.579   117158248.783       -1225.838          33.000  
  22269273.002   117025816.190       -1225.290          30.000  
  22285676.485   117112025.991       -1225.386          39.000  
  22285676.042   117112051.313       -1225.311          43.000  
  22386325.026   117640931.115       -1225.721          32.000  
  22149121.523   116394491.697       -1225.591          35.000  
  22243485.036   116890300.650       -1225.365          32.000  
  22285666.975   117112067.820       -1225.267          45.000  
  22262824.183   116991926.164       -1224.760          30.000  
  22328472.322   117336922.202       -1225.278          33.000  
  22299749.279   117185965.948       -1224.583          31.000  
  22437191.342   117908234.716       -1225.435          32.000  
  22285673.730   117112031.169       -1225.329          47.000  
  22251397.996   116931892.603       -1224.786          33.000  
  22324952.754   117318437.187       -1225.566          34.000  
  22396748.894   117695703.845       -1224.728          33.000  
  22165239.633   116479133.224       -1225.712          34.000  
  22133588.925   116312805.959       -1225.231          32.000  
  22291838.253   117144398.572       -1225.180          32.000  
  22139740.703   116345161.759       -1226.060          34.000  
  22453016.113   117991398.073       -1225.381          32.000  
 25  8 13  8 48 36.8020000  0 29G 1G31G27G 8G 6G 2G24G17G19G29G 5G 4
                                G10G16G15G 7G13G20G23G 9G 3G26G22G18
                                G12G21G25G14G11
  22285698.809   117112316.996       -1225.026          43.000  
  22252320.757   116936729.279       -1225.177          34.000  
  22228291.381   116810453.630       -1225.310          34.000  
  22285724.796   117112298.500       -1225.201          46.000  
  22285728.474   117112303.161       -1225.231          47.000  
  22285724.421   117112311.240       -1225.231          48.000  
  22188730.120   116602561.296       -1225.256          31.000  
  22268152.176   117019925.709       -1225.118          32.000  
  22294522.259   117158493.795       -1225.228          32.000  
  22269319.645   117026061.253       -1225.766          30.000  
  22285723.107   117112271.026       -1224.960          39.000  
  22285722.721   117112296.355       -1225.109          43.000  
  22386371.645   117641176.149       -1224.918          32.000  
  22149168.217   116394736.740       -1225.264          34.000  
  22243531.704   116890545.699       -1225.161          32.000  
  22285713.712   117112312.867       -1225.187          45.000  
  22262870.822   116992171.253       -1225.413          30.000  
  22328518.971   117337167.256       -1225.187          33.000  
  22299795.971   117186211.003       -1225.000          31.000  
  22437238.034   117908479.790       -1226.347          32.000  
  22285720.489   117112276.217       -1225.234          47.000  
  22251444.590   116932137.676       -1225.644          33.000  
  22324999.436   117318682.235       -1225.887          34.000  
  22396795.525   117695948.896       -1224.801          33.000  
  22165286.378   116479378.249       -1224.938          33.000  
  22133635.587   116313050.996       -1224.259          32.000  
  22291884.908   117144643.651       -1225.246          32.000  
  22139787.332   116345406.765       -1225.381          34.000  
  22453062.679   117991643.084       -1224.919          32.000  
 25  8 13  8 48 37.0020000  0 29G 1G31G27G 8G 6G 2G24G17G19G29G 5G 4
                                G10G16G15G 7G13G20G23G 9G 3G26G22G18
                                G12G21G25G14G11
  22285745.523   117112562.038       -1225.257          43.000  
  22252367.373   116936974.315       -1225.153          34.000  
  22228338.042   116810698.660       -1224.848          34.000  
  22285771.478   117112543.535       -1225.095          46.000  
  22285775.105   117112548.195       -1225.175          47.000  
  22285771.174   117112556.264       -1225.057          48.000  
  22188776.755   116602806.357       -1225.222          32.000  
  22268198.873   117020170.788       -1225.676          32.000  
  22294568.914   117158738.831       -1225.128          32.000  
  22269366.302   117026306.284       -1225.802          30.000  
  22285769.783   117112516.062       -1225.002          39.000  
  22285769.328   117112541.398       -1225.170          43.000  
  22386418.192   117641421.170       -1225.075          32.000  
  22149214.905   116394981.763       -1225.059          34.000  
  22243578.446   116890790.770       -1225.596          32.000  
  22285760.437   117112557.908       -1225.275          45.000  
  22262917.354   116992416.285       -1225.546          30.000  
  22328565.707   117337412.311       -1225.715          33.000  
  22299842.658   117186456.048       -1224.890          31.000  
  22437284.701   117908724.802       -1225.365          32.000  
  22285767.234   117112521.254       -1225.216          47.000  
  22251491.269   116932382.693       -1225.142          33.000  
  22325046.092   117318927.255       -1225.322          34.000  
  22396842.068   117696193.927       -1224.990          33.000  
  22165333.057   116479623.295       -1224.835          33.000  
  22133682.167   116313296.021       -1224.716          32.000  
  22291931.472   117144888.674       -1225.471          32.000  
  22139833.911   116345651.822       -1225.306          33.000  
  22453109.317   117991888.146       -1224.695          32.000  
 25  8 13  8 48 37.2020000  0 29G 1G31G27G 8G 6G 2G24G17G19G29G 5G 4
                                G10G16G15G 7G13G20G23G 9G 3G26G22G18
                                G12G21G25G14G11
  22285792.220   117112807.064       -1225.289          43.000  
  22252414.006   116937219.354       -1225.666          34.000  
  22228384.650   116810943.672       -1225.032          34.000  
  22285818.204   117112788.577       -1225.431          46.000  
  22285821.680   117112793.233       -1225.325          47.000  
  22285817.963   117112801.306       -1225.372          48.000  
  22188823.379   116603051.418       -1225.421          32.000  
  22268245.458   117020415.781       -1224.775          32.000  
  22294615.628   117158983.858       -1225.260          32.000  
  22269412.968   117026551.305       -1225.146          30.000  
  22285816.422   117112761.107       -1225.354          39.000  
  22285816.003   117112786.434       -1225.462          43.000  
  22386464.775   117641666.212       -1225.434          33.000  
  22149261.509   116395226.813       -1225.795          34.000  
  22243625.127   116891035.826       -1226.043          32.000  
  22285807.185   117112802.942       -1225.298          45.000  
  22262963.910   116992661.323       -1225.944          30.000  
  22328612.291   117337657.347       -1225.465          33.000  
  22299889.326   117186701.106       -1226.049          31.000  
  22437331.334   117908969.836       -1224.707          31.000  
  22285813.927   117112766.290       -1225.421          47.000  
  22251537.986   116932627.720       -1225.249          33.000  
  22325092.767   117319172.293       -1225.498          34.000  
  22396888.635   117696438.971       -1225.247          33.000  
  22165379.645   116479868.348       -1225.482          33.000  
  22133728.811   116313541.113       -1226.063          32.000  
  22291978.059   117145133.712       -1225.768          32.000  
  22139880.514   116345896.862       -1225.599          33.000  
  22453155.985   117992133.205       -1225.598          32.000  
 25  8 13  8 48 37.4020000  0 29G 1G31G27G 8G 6G 2G24G17G19G29G 5G 4
                                G10G16G15G 7G13G20G23G 9G 3G26G22G18
                                G12G21G25G14G11
  22285838.913   117113052.102       -1224.938          43.000  
  22252460.610   116937464.399       -1225.368          34.000  
  22228431.256   116811188.746       -1225.209          34.000  
  22285864.927   117113033.613       -1225.089          46.000  
  22285868.319   117113038.269       -1225.052          46.000  
  22285864.744   117113046.349       -1225.155          48.000  
  22188869.975   116603296.436       -1225.647          32.000  
  22268292.100   117020660.836       -1225.096          31.000  
  22294662.292   117159228.903       -1224.744          32.000  
  22269459.584   117026796.352       -1225.103          31.000  
  22285863.055   117113006.150       -1225.231          39.000  
  22285862.628   117113031.472       -1225.048          43.000  
  22386511.424   117641911.238       -1224.942          33.000  
  22149308.217   116395471.848       -1225.468          34.000  
  22243671.659   116891280.814       -1224.529          32.000  
  22285853.902   117113047.981       -1225.206          45.000  
  22263010.488   116992906.373       -1225.619          30.000  
  22328658.943   117337902.356       -1225.384          33.000  
  22299935.917   117186946.082       -1224.356          31.000  
  22437377.975   117909214.893       -1225.277          31.000  
  22285860.660   117113011.334       -1225.229          47.000  
  22251584.679   116932872.762       -1225.105          33.000  
  22325139.367   117319417.322       -1225.134          34.000  
  22396935.218   117696684.016       -1225.104          33.000  
  22165426.252   116480113.384       -1225.155          33.000  
  22133775.470   116313786.089       -1224.751          33.000  
  22292024.652   117145378.739       -1225.167          32.000  
  22139927.142   116346141.889       -1224.949          33.000  
  22453202.614   117992378.208       -1224.735          32.000  
 25  8 13  8 48 37.6020000  0 29G 1G31G27G 8G 6G 2G24G17G19G29G 5G 4
                                G10G16G15G 7G13G20G23G 9G 3G26G22G18
                                G12G21G25G14G11
  22285885.663   117113297.172       -1225.506          43.000  
  22252507.343   116937709.443       -1225.280          34.000  
  22228477.928   116811433.779       -1225.160          34.000  
  22285911.605   117113278.662       -1225.156          46.000  
  22285914.884   117113283.322       -1225.247          46.000  
  22285911.511   117113291.397       -1225.342          48.000  
  22188916.585   116603541.496       -1225.503          32.000  
  22268338.804   117020905.889       -1225.250          31.000  
  22294708.956   117159473.961       -1225.200          33.000  
  22269506.259   117027041.395       -1225.620          31.000  
  22285909.709   117113251.200       -1225.447          39.000  
  22285909.277   117113276.523       -1225.248          43.000  
  22386558.097   117642156.286       -1224.927          33.000  
  22149354.846   116395716.888       -1224.833          34.000  
  22243718.283   116891525.890       -1225.276          32.000  
  22285900.620   117113293.033       -1225.262          45.000  
  22263057.038   116993151.386       -1225.122          30.000  
  22328705.627   117338147.398       -1224.504          33.000  
  22299982.591   117187191.180       -1224.983          31.000  
  22437424.630   117909459.934       -1225.250          31.000  
  22285907.418   117113256.380       -1225.262          47.000  
  22251631.338   116933117.808       -1225.401          32.000  
  22325186.026   117319662.400       -1225.899          34.000  
  22396981.967   117696929.062       -1225.272          32.000  
  22165472.858   116480358.438       -1225.404          33.000  
  22133822.139   116314031.170       -1225.096          33.000  
  22292071.194   117145623.793       -1225.412          32.000  
  22139973.781   116346386.949       -1225.319          33.000  
  22453249.296   117992623.264       -1224.986          32.000  
 25  8 13  8 48 37.8020000  0 29G 1G31G27G 8G 6G 2G24G17G19G29G 5G 4
                                G10G16G15G 7G13G20G23G 9G 3G26G22G18
                                G12G21G25G14G11
  22285932.361   117113542.218       -1225.358          43.000  
  22252554.117   116937954.512       -1225.557          34.000  
  22228524.579   116811678.868       -1225.790          34.000  
  22285958.309   117113523.723       -1225.349          46.000  
  22285961.509   117113528.382       -1225.264          46.000  
  22285958.257   117113536.451       -1225.277          48.000  
  22188963.175   116603786.567       -1225.993          32.000  
  22268385.484   117021150.946       -1225.857          31.000  
  22294755.597   117159718.999       -1224.630          33.000  
  22269552.926   117027286.430       -1224.660          31.000  
  22285956.372   117113496.261       -1225.301          39.000  
  22285955.901   117113521.583       -1225.315          43.000  
  22386604.699   117642401.347       -1225.231          33.000  
  22149401.490   116395961.955       -1225.432          34.000  
  22243764.907   116891770.945       -1225.215          32.000  
  22285947.356   117113538.094       -1225.300          45.000  
  22263103.674   116993396.456       -1225.347          30.000  
  22328752.269   117338392.455       -1224.633          33.000  
  22300029.298   117187436.219       -1224.816          32.000  
  22437471.263   117909704.988       -1225.505          31.000  
  22285954.120   117113501.440       -1225.301          47.000  
  22251677.979   116933362.877       -1225.267          32.000  
  22325232.636   117319907.427       -1225.121          34.000  
  22397028.595   117697174.132       -1225.623          32.000  
  22165519.620   116480603.462       -1224.720          33.000  
  22133868.821   116314276.220       -1225.270          33.000  
  22292117.873   117145868.835       -1224.643          32.000  
  22140020.429   116346632.003       -1225.544          33.000  
  22453295.896   117992868.316       -1224.901          32.000  
 25  8 13  8 48 38.0020000  0 29G 1G31G27G 8G 6G 2G24G17G19G29G 5G 4
                                G10G16G15G 7G13G20G23G 9G 3G26G22G18
                                G12G21G25G14G11
  22285979.054   117113787.278       -1225.304          43.000  
  22252600.793   116938199.559       -1225.261          34.000  
  22228571.175   116811923.910       -1225.334          34.000  
  22286004.986   117113768.785       -1225.331          46.000  
  22286008.109   117113773.439       -1225.370          46.000  
  22286005.050   117113781.516       -1225.365          48.000  
  22189009.856   116604031.589       -1225.132          32.000  
  22268432.065   117021395.985       -1225.278          31.000  
  22294802.249   117159964.062       -1224.914          33.000  
  22269599.730   117027531.501       -1224.957          31.000  
  22286002.985   117113741.314       -1225.426          39.000  
  22286002.526   117113766.643       -1225.325          43.000  
  22386651.349   117642646.400       -1224.763          33.000  
  22149448.104   116396207.017       -1225.610          34.000  
  22243811.534   116892015.996       -1225.221          32.000  
  22285994.114   117113783.152       -1225.225          45.000  
  22263150.341   116993641.550       -1225.184          30.000  
  22328798.863   117338637.546       -1225.272          33.000  
  22300076.009   117187681.302       -1225.106          31.000  
  22437517.912   117909950.065       -1225.337          31.000  
  22286000.803   117113746.506       -1225.360          47.000  
  22251724.583   116933607.938       -1225.445          32.000  
  22325279.260   117320152.480       -1225.068          34.000  
  22397075.229   117697419.184       -1225.450          32.000  
  22165566.255   116480848.551       -1224.999          33.000  
  22133915.491   116314521.274       -1225.089          33.000  
  22292164.558   117146113.927       -1225.483          32.000  
  22140067.118   116346877.082       -1225.432          33.000  
  22453342.549   117993113.396       -1225.116          32.000  
 25  8 13  8 48 38.2020000  0 29G 1G31G27G 8G 6G 2G24G17G19G29G 5G 4
                                G10G16G15G 7G13G20G23G 9G 3G26G22G18
                                G12G21G25G14G11
  22286025.745   117114032.326       -1225.179          43.000  
  22252647.508   116938444.601       -1225.169          34.000  
  22228617.791   116812168.946       -1225.248          34.000  
  22286051.682   117114013.832       -1225.224          46.000  
  22286054.747   117114018.487       -1225.221          46.000  
  22286051.803   117114026.567       -1225.290          48.000  
  22189056.445   116604276.654       -1224.967          32.000  
  22268478.730   117021641.083       -1225.546          31.000  
  22294848.861   117160209.095       -1224.864          33.000  
  22269646.409   117027776.566       -1225.200          31.000  
  22286049.655   117113986.356       -1224.934          39.000  
  22286049.120   117114011.681       -1225.099          43.000  
  22386697.983   117642891.482       -1225.514          33.000  
  22149494.724   116396452.045       -1224.819          34.000  
  22243858.167   116892261.068       -1225.480          31.000  
  22286040.882   117114028.205       -1225.364          45.000  
  22263196.914   116993886.595       -1225.806          30.000  
  22328845.572   117338882.599       -1225.463          33.000  
  22300122.570   117187926.350       -1225.403          31.000  
  22437564.577   117910195.111       -1225.479          31.000  
  22286047.528   117113991.548       -1225.241          47.000  
  22251771.211   116933852.978       -1225.049          32.000  
  22325325.864   117320397.527       -1224.980          34.000  
  22397121.769   117697664.183       -1224.316          32.000  
  22165612.830   116481093.613       -1225.042          33.000  
  22133962.037   116314766.293       -1224.580          33.000  
  22292211.164   117146358.957       -1225.156          32.000  
  22140113.779   116347122.128       -1225.535          33.000  
  22453389.206   117993358.430       -1224.836          33.000  
