     3.02           OBSERVATION DATA    G: GPS              RINEX VERSION / TYPE
RTKCONV 2.4.3                           20200430 005816 UTC PGM / RUN BY / DATE 
log: D:\FastData\IF_Test\0429-C7สตั้\2020-04-29-zhanghan-u  COMMENT             
format: u-blox                                              COMMENT             
                                                            MARKER NAME         
                                                            MARKER NUMBER       
                                                            MARKER TYPE         
                                                            OBSERVER / AGENCY   
                                                            REC # / TYPE / VERS 
                                                            ANT # / TYPE        
        0.0000        0.0000        0.0000                  APPROX POSITION XYZ 
        0.0000        0.0000        0.0000                  ANTENNA: DELTA H/E/N
G    4 C1C L1C D1C S1C                                      SYS / # / OBS TYPES 
  2019     6    16     0    40   43.0000000     GPS         TIME OF FIRST OBS   
  2019     6    16     0    47    8.0000000     GPS         TIME OF LAST OBS    
G                                                           SYS / PHASE SHIFT   
  0                                                         GLONASS SLOT / FRQ #
 C1C    0.000 C1P    0.000 C2C    0.000 C2P    0.000        GLONASS COD/PHS/BIS 
                                                            END OF HEADER       
> 2019  6 16  0 40 43.0000000  0  8                     
G 1  21467950.564   112814731.804        -481.549          37.000  
G 2  21467949.973   112814731.033        -481.406          45.000  
G 4  21467952.885   112814786.458        -481.519          46.000  
G 3  21467951.144   112814777.209        -481.346          46.000  
G 5  21467723.390   112813544.067        -481.510          44.000  
G 6  21467738.216   112813622.745        -481.257          38.000  
G30  21472349.459                        -479.004          30.000  
G10  21522458.637   113101232.512        -481.489          30.000  
> 2019  6 16  0 40 44.0000000  0  8                     
G 1  21468042.158   112815213.188        -481.296          38.000  
G 2  21468041.585   112815212.442        -481.235          45.000  
G 4  21468044.571   112815267.861        -481.340          47.000  
G 3  21468042.764   112815258.613        -481.268          46.000  
G 5  21467815.044   112814025.472        -481.346          44.000  
G 6  21467829.862   112814104.157        -481.133          38.000  
G30  21472441.596                        -477.930          31.000  
G10  21522550.277   113101713.908        -481.157          30.000  
> 2019  6 16  0 40 45.0000000  0  8                     
G 1  21468133.820   112815694.616        -481.484          38.000  
G 2  21468133.345   112815693.871        -481.365          45.000  
G 4  21468136.367   112815749.291        -481.531          47.000  
G 3  21468134.400   112815740.038        -481.527          45.000  
G 5  21467906.674   112814506.900        -481.534          44.000  
G 6  21467921.521   112814585.580        -481.400          38.000  
G30  21472533.114                        -483.936          31.000  
G10  21522641.943   113102195.354        -481.483          31.000  
> 2019  6 16  0 40 46.0000000  0  8                     
G 1  21468225.591   112816176.123        -481.735          38.000  
G 2  21468225.364   112816175.383        -481.504          45.000  
G 4  21468228.375   112816230.795        -481.631          46.000  
G 3  21468226.116   112816221.538        -481.508          46.000  
G 5  21467998.435   112814988.406        -481.818          44.000  
G 6  21468013.334   112815067.085        -481.550          37.000  
G30  21472624.631                        -483.740          31.000  
G10  21522733.653   113102676.845        -481.650          31.000  
> 2019  6 16  0 40 47.0000000  0  8                     
G 1  21468317.499   112816657.561        -481.583          38.000  
G 2  21468317.153   112816656.804        -481.422          45.000  
G 4  21468319.926   112816712.199        -481.373          46.000  
G 3  21468317.953   112816702.952        -481.321          46.000  
G 5  21468090.180   112815469.836        -481.785          44.000  
G 6  21468104.787   112815548.500        -481.216          38.000  
G30  21472716.451                        -482.178          31.000  
G10  21522825.267   113103158.264        -481.804          31.000  
> 2019  6 16  0 40 48.0000000  0  8                     
G 1  21468409.384   112817138.983        -481.536          39.000  
G 2  21468408.874   112817138.239        -481.256          44.000  
G 4  21468411.634   112817193.661        -481.656          47.000  
G 3  21468409.724   112817184.422        -481.525          46.000  
G 5  21468181.921   112815951.265        -481.326          44.000  
G 6  21468196.584   112816029.957        -481.583          38.000  
G30  21472808.558   112840370.2652       -481.685          31.000  
G10  21522916.948   113103639.703        -481.636          30.000  
> 2019  6 16  0 40 49.0000000  0  8                     
G 1  21468501.316   112817620.556        -481.708          38.000  
G 2  21468500.607   112817619.810        -481.802          45.000  
G 4  21468503.134   112817675.209        -481.733          47.000  
G 3  21468501.364   112817665.954        -481.539          46.000  
G 5  21468273.712   112816432.820        -481.979          44.000  
G 6  21468288.206   112816511.493        -481.340          38.000  
G30  21472900.327   112840851.8342       -481.890          31.000  
G10  21523008.599   113104121.275        -482.078          30.000  
> 2019  6 16  0 40 50.0000000  0  8                     
G 1  21468593.034   112818102.129        -481.627          38.000  
G 2  21468592.343   112818101.382        -481.733          45.000  
G 4  21468594.889   112818156.803        -481.539          47.000  
G 3  21468592.976   112818147.557        -481.853          46.000  
G 5  21468365.587   112816914.405        -481.592          44.000  
G 6  21468380.115   112816993.084        -481.729          37.000  
G30  21472992.683   112841337.4533       -482.271          30.000  
G10  21523100.390   113104602.873        -481.689          31.000  
> 2019  6 16  0 40 51.0000000  0  8                     
G 1  21468684.663   112818583.651        -481.433          38.000  
G 2  21468684.051   112818582.926        -481.559          45.000  
G 4  21468686.668   112818638.331        -481.554          47.000  
G 3  21468684.626   112818629.087        -481.686          46.000  
G 5  21468457.256   112817395.952        -481.686          44.000  
G 6  21468472.083   112817474.625        -481.420          37.000  
G30  21473084.067   112841818.9952       -482.222          31.000  
G10  21523192.056   113105084.407        -481.786          31.000  
> 2019  6 16  0 40 52.0000000  0  8                     
G 1  21468776.354   112819065.201        -481.648          39.000  
G 2  21468775.865   112819064.471        -481.741          45.000  
G 4  21468778.449   112819119.879        -481.730          46.000  
G 3  21468776.200   112819110.628        -481.865          46.000  
G 5  21468548.909   112817877.487        -481.702          44.000  
G 6  21468563.901   112817956.187        -481.504          37.000  
G30  21473175.989   112842300.5713       -483.185          31.000  
G10  21523283.807   113105565.953        -481.727          31.000  
> 2019  6 16  0 40 53.0000000  0  8                     
G 1  21468868.140   112819546.760        -481.457          38.000  
G 2  21468867.519   112819546.020        -481.498          45.000  
G 4  21468870.321   112819601.445        -481.608          46.000  
G 3  21468867.892   112819592.194        -481.797          46.000  
G 5  21468640.683   112818359.045        -481.505          44.000  
G 6  21468655.732   112818437.730        -481.698          37.000  
G30  21473267.942   112842784.0783       -482.019          30.000  
G10  21523375.557   113106047.490        -480.796          31.000  
> 2019  6 16  0 40 54.0000000  0  8                     
G 1  21468959.970   112820028.310        -481.378          38.000  
G 2  21468959.376   112820027.577        -481.648          45.000  
G 4  21468962.112   112820082.995        -481.730          46.000  
G 3  21468959.628   112820073.742        -481.801          46.000  
G 5  21468732.413   112818840.591        -481.655          44.000  
G 6  21468747.582   112818919.287        -481.765          36.000  
G30  21473357.677   112843255.6493       -482.493          30.000  
G10  21523467.481   113106529.076        -481.879          31.000  
> 2019  6 16  0 40 55.0000000  0  8                     
G 1  21469051.883   112820509.785        -481.270          38.000  
G 2  21469051.051   112820509.047        -481.238          45.000  
G 4  21469053.829   112820564.466        -481.444          46.000  
G 3  21469051.372   112820555.226        -481.716          45.000  
G 5  21468824.050   112819322.080        -481.544          44.000  
G 6  21468839.436   112819400.776        -481.443          36.000  
G30  21473450.094   112843737.043        -480.630          30.000  
G10  21523559.124   113107010.523        -481.365          31.000  
> 2019  6 16  0 40 56.0000000  0  8                     
G 1  21469143.629   112820991.135        -481.378          38.000  
G 2  21469142.861   112820990.396        -481.360          45.000  
G 4  21469145.496   112821045.815        -481.466          46.000  
G 3  21469143.008   112821036.569        -481.532          46.000  
G 5  21468915.715   112819803.427        -481.393          44.000  
G 6  21468931.173   112819882.120        -481.541          37.000  
G30  21473542.264   112844225.4453       -481.438          31.000  
G10  21523650.873   113107491.871        -481.302          32.000  
> 2019  6 16  0 40 57.0000000  0  8                     
G 1  21469235.422   112821472.393        -480.886          38.000  
G 2  21469234.444   112821471.665        -481.184          45.000  
G 4  21469237.099   112821527.072        -481.165          46.000  
G 3  21469234.667   112821517.821        -481.271          46.000  
G 5  21469007.392   112820284.689        -481.145          44.000  
G 6  21469022.837   112820363.377        -481.094          37.000  
G30  21473633.989   112844706.6872       -481.140          31.000  
G10  21523742.520   113107973.142        -480.979          32.000  
> 2019  6 16  0 40 58.0000000  0  8                     
G 1  21469327.044   112821953.690        -481.061          38.000  
G 2  21469326.077   112821952.956        -481.349          45.000  
G 4  21469328.904   112822008.362        -481.312          46.000  
G 3  21469326.329   112821999.111        -481.273          46.000  
G 5  21469099.025   112820765.972        -481.189          44.000  
G 6  21469114.547   112820844.664        -481.503          37.000  
G30  21473726.302   112845193.0093       -482.228          31.000  
G10  21523834.335   113108454.432        -481.372          31.000  
> 2019  6 16  0 40 59.0000000  0  8                     
G 1  21469418.614   112822434.852        -480.975          38.000  
G 2  21469417.848   112822434.118        -481.182          45.000  
G 4  21469420.660   112822489.527        -481.232          46.000  
G 3  21469417.998   112822480.280        -481.237          46.000  
G 5  21469190.663   112821247.139        -481.204          44.000  
G 6  21469206.152   112821325.825        -481.267          37.000  
G30  21473818.294   112845676.1853       -481.388          31.000  
G10  21523926.031   113108935.590        -481.157          31.000  
> 2019  6 16  0 41  0.0000000  0  8                     
G 1  21469510.230   112822915.964        -480.865          39.000  
G 2  21469509.512   112822915.240        -481.078          45.000  
G 4  21469512.230   112822970.644        -481.049          46.000  
G 3  21469509.581   112822961.401        -481.134          46.000  
G 5  21469282.252   112821728.263        -481.056          44.000  
G 6  21469297.749   112821806.943        -481.166          37.000  
G30  21473910.235   112846157.3262       -481.556          31.000  
G10  21524017.755   113109416.694        -480.475          31.000  
> 2019  6 16  0 41  1.0000000  0  8                     
G 1  21469601.852   112823397.137        -481.178          38.000  
G 2  21469601.222   112823396.393        -481.254          45.000  
G 4  21469603.646   112823451.793        -481.084          46.000  
G 3  21469601.257   112823442.550        -481.149          45.000  
G 5  21469373.886   112822209.413        -481.166          44.000  
G 6  21469389.424   112822288.102        -481.346          37.000  
G30  21474000.622   112846634.4013       -481.465          30.000  
G10  21524109.401   113109897.867        -481.058          31.000  
> 2019  6 16  0 41  2.0000000  0  8                     
G 1  21469693.551   112823878.304        -481.396          38.000  
G 2  21469692.827   112823877.591        -481.514          45.000  
G 4  21469695.319   112823932.994        -481.339          46.000  
G 3  21469692.977   112823923.745        -481.425          46.000  
G 5  21469465.511   112822690.607        -481.481          44.000  
G 6  21469481.154   112822769.299        -481.621          36.000  
G30  21474091.214   112847110.6382       -481.377          30.000  
G10  21524201.064   113110379.015        -481.051          31.000  
> 2019  6 16  0 41  3.0000000  0  8                     
G 1  21469785.217   112824359.529        -481.240          39.000  
G 2  21469784.605   112824358.800        -481.285          45.000  
G 4  21469787.080   112824414.217        -481.344          46.000  
G 3  21469784.649   112824404.966        -481.399          45.000  
G 5  21469557.085   112823171.829        -481.326          44.000  
G 6  21469572.887   112823250.520        -481.735          36.000  
G30  21474184.070                        -480.566          30.000  
G10  21524292.725   113110860.237        -480.929          31.000  
> 2019  6 16  0 41  4.0000000  0  8                     
G 1  21469876.984   112824840.833        -481.346          39.000  
G 2  21469876.198   112824840.087        -481.202          45.000  
G 4  21469878.646   112824895.505        -481.223          46.000  
G 3  21469876.306   112824886.261        -481.272          45.000  
G 5  21469648.717   112823653.128        -481.267          44.000  
G 6  21469664.562   112823731.804        -481.457          37.000  
G30  21474276.285   112848082.6223       -481.123          30.000  
G10  21524384.435   113111341.522        -480.398          30.000  
> 2019  6 16  0 41  5.0000000  0  8                     
G 1  21469968.629   112825322.003        -480.640          39.000  
G 2  21469967.905   112825321.296        -480.991          45.000  
G 4  21469970.328   112825376.700        -480.919          46.000  
G 3  21469967.884   112825367.450        -480.980          46.000  
G 5  21469740.290   112824134.319        -480.934          44.000  
G 6  21469756.262   112824212.999        -481.108          37.000  
G30  21474366.516   112848556.8253       -481.260          30.000  
G10  21524476.036   113111822.696        -480.143          31.000  
> 2019  6 16  0 41  6.0000000  0  8                     
G 1  21470060.136   112825803.081        -480.818          39.000  
G 2  21470059.552   112825802.368        -481.151          45.000  
G 4  21470061.889   112825857.776        -481.093          46.000  
G 3  21470059.430   112825848.536        -481.263          46.000  
G 5  21469831.885   112824615.398        -481.160          44.000  
G 6  21469847.961   112824694.090        -481.433          37.000  
G30  21474458.778   112849041.9202       -481.044          31.000  
G10  21524567.627   113112303.821        -480.747          31.000  
> 2019  6 16  0 41  7.0000000  0  8                     
G 1  21470151.724   112826284.192        -481.031          39.000  
G 2  21470151.142   112826283.462        -480.978          45.000  
G 4  21470153.615   112826338.875        -480.944          45.000  
G 3  21470151.136   112826329.627        -481.001          46.000  
G 5  21469923.541   112825096.493        -480.963          44.000  
G 6  21469939.668   112825175.196        -481.382          37.000  
G30  21474550.997   112849522.5151       -480.778          31.000  
G10  21524659.326   113112784.903        -480.113          31.000  
> 2019  6 16  0 41  8.0000000  0  8                     
G 1  21470243.449   112826765.336        -481.110          39.000  
G 2  21470242.973   112826764.603        -481.008          45.000  
G 4  21470245.337   112826820.016        -481.063          46.000  
G 3  21470242.791   112826810.772        -481.132          46.000  
G 5  21470015.169   112825577.637        -481.115          44.000  
G 6  21470031.372   112825656.333        -481.342          37.000  
G30  21474641.906   112850004.1373       -481.245          31.000  
G10  21524751.104   113113266.037        -480.636          30.000  
> 2019  6 16  0 41  9.0000000  0  8                     
G 1  21470335.122   112827246.512        -481.191          39.000  
G 2  21470334.689   112827245.788        -481.099          45.000  
G 4  21470337.126   112827301.202        -481.077          45.000  
G 3  21470334.461   112827291.949        -481.211          46.000  
G 5  21470106.824   112826058.818        -481.199          44.000  
G 6  21470123.025   112826137.511        -481.361          37.000  
G30  21474733.679   112850485.3542       -481.212          32.000  
G10  21524842.787   113113747.206        -480.551          31.000  
> 2019  6 16  0 41 10.0000000  0  8                     
G 1  21470426.840   112827727.806        -481.562          39.000  
G 2  21470426.345   112827727.072        -481.385          45.000  
G 4  21470428.823   112827782.482        -481.405          46.000  
G 3  21470426.155   112827773.233        -481.422          46.000  
G 5  21470198.503   112826540.096        -481.432          44.000  
G 6  21470214.770   112826618.777        -481.464          37.000  
G30  21474825.174   112850966.6112       -481.407          31.000  
G10  21524934.453   113114228.479        -480.995          31.000  
> 2019  6 16  0 41 11.0000000  0  8                     
G 1  21470518.568   112828209.110        -481.233          39.000  
G 2  21470518.018   112828208.392        -481.285          45.000  
G 4  21470520.518   112828263.800        -481.252          45.000  
G 3  21470517.828   112828254.554        -481.301          45.000  
G 5  21470290.088   112827021.421        -481.285          44.000  
G 6  21470306.553   112827100.100        -481.089          36.000  
G30  21474917.653   112851453.0303       -482.909          30.000  
G10  21525026.146   113114709.805        -480.455          31.000  
> 2019  6 16  0 41 12.0000000  0  8                     
G 1  21470610.285   112828690.327        -481.261          39.000  
G 2  21470609.612   112828689.593        -481.100          45.000  
G 4  21470612.048   112828745.012        -481.293          46.000  
G 3  21470609.497   112828735.762        -481.278          46.000  
G 5  21470381.737   112827502.623        -481.282          44.000  
G 6  21470398.364   112827581.294        -480.911          36.000  
G30  21475010.165   112851939.1512       -481.216          31.000  
G10  21525117.836   113115190.994        -480.607          31.000  
> 2019  6 16  0 41 13.0000000  0  8                     
G 1  21470701.975   112829171.450        -481.278          39.000  
G 2  21470701.238   112829170.715        -481.193          45.000  
G 4  21470703.822   112829226.131        -481.276          46.000  
G 3  21470701.162   112829216.880        -481.265          45.000  
G 5  21470473.292   112827983.738        -481.196          44.000  
G 6  21470490.131   112828062.423        -481.096          37.000  
G30  21475101.064   112852417.2862       -481.898          30.000  
G10  21525209.506   113115672.130        -480.826          31.000  
> 2019  6 16  0 41 14.0000000  0  8                     
G 1  21470793.803   112829652.653        -481.504          39.000  
G 2  21470792.863   112829651.906        -481.345          45.000  
G 4  21470795.422   112829707.324        -481.433          46.000  
G 3  21470792.852   112829698.071        -481.355          45.000  
G 5  21470564.969   112828464.927        -481.287          44.000  
G 6  21470581.892   112828543.599        -481.083          37.000  
G30  21475192.376   112852898.4372       -481.073          30.000  
G10  21525301.290   113116153.330        -480.889          31.000  
> 2019  6 16  0 41 15.0000000  0  8                     
G 1  21470885.377   112830133.855        -481.464          39.000  
G 2  21470884.527   112830133.111        -481.285          44.000  
G 4  21470887.170   112830188.536        -481.479          46.000  
G 3  21470884.492   112830179.277        -481.283          45.000  
G 5  21470656.673   112828946.138        -481.359          44.000  
G 6  21470673.540   112829024.808        -481.009          37.000  
G30  21475284.351   112853379.6902       -481.552          31.000  
G10  21525393.132   113116634.545        -481.339          31.000  
> 2019  6 16  0 41 16.0000000  0  8                     
G 1  21470977.006   112830615.050        -481.305          38.000  
G 2  21470976.221   112830614.305        -481.069          45.000  
G 4  21470978.949   112830669.719        -481.116          46.000  
G 3  21470976.210   112830660.463        -481.067          46.000  
G 5  21470748.350   112829427.330        -481.183          44.000  
G 6  21470765.207   112829506.006        -480.891          37.000  
G30  21475376.514   112853864.8493       -480.624          31.000  
G10  21525484.772   113117115.768        -481.926          32.000  
> 2019  6 16  0 41 17.0000000  0  8                     
G 1  21471068.748   112831096.033        -481.146          38.000  
G 2  21471067.954   112831095.278        -480.898          45.000  
G 4  21471070.577   112831150.691        -480.940          46.000  
G 3  21471067.846   112831141.438        -480.874          46.000  
G 5  21470839.985   112829908.306        -480.968          44.000  
G 6  21470856.765   112829986.974        -480.702          37.000  
G30  21475467.917   112854344.8363       -480.979          31.000  
G10  21525576.458   113117596.763        -481.932          31.000  
> 2019  6 16  0 41 18.0000000  0  8                     
G 1  21471160.340   112831576.923        -481.157          38.000  
G 2  21471159.608   112831576.179        -481.045          45.000  
G 4  21471162.021   112831631.585        -480.967          46.000  
G 3  21471159.411   112831622.333        -480.885          46.000  
G 5  21470931.584   112830389.196        -480.930          44.000  
G 6  21470948.326   112830467.885        -480.757          37.000  
G30  21475558.883   112854825.7272       -480.927          31.000  
G10  21525667.986   113118077.650        -481.847          31.000  
> 2019  6 16  0 41 19.0000000  0  8                     
G 1  21471251.996   112832057.872        -481.168          38.000  
G 2  21471251.231   112832057.124        -480.831          45.000  
G 4  21471253.408   112832112.531        -480.847          46.000  
G 3  21471251.034   112832103.274        -480.679          46.000  
G 5  21471023.144   112830870.142        -480.681          44.000  
G 6  21471039.898   112830948.814        -480.676          37.000  
G30  21475650.466   112855306.1551       -480.762          31.000  
G10  21525759.537   113118558.615        -481.613          31.000  
> 2019  6 16  0 41 20.0000000  0  8                     
G 1  21471343.497   112832538.730        -481.521          38.000  
G 2  21471342.787   112832537.946        -480.944          45.000  
G 4  21471345.060   112832593.366        -480.930          46.000  
G 3  21471342.607   112832584.114        -480.784          46.000  
G 5  21471114.707   112831350.973        -480.862          44.000  
G 6  21471131.451   112831429.644        -480.709          37.000  
G30  21475741.887   112855784.4663       -480.328          31.000  
G10  21525851.107   113119039.426        -481.279          31.000  
> 2019  6 16  0 41 21.0000000  0  8                     
G 1  21471435.025   112833019.652        -481.277          38.000  
G 2  21471434.281   112833018.875        -480.912          45.000  
G 4  21471436.496   112833074.290        -480.857          46.000  
G 3  21471434.126   112833065.040        -480.851          46.000  
G 5  21471206.426   112831831.901        -480.835          44.000  
G 6  21471222.869   112831910.585        -480.648          38.000  
G30  21475833.506   112856265.3892       -480.117          32.000  
G10  21525942.755   113119520.368        -481.997          31.000  
> 2019  6 16  0 41 22.0000000  0  8                     
G 1  21471526.585   112833500.657        -481.453          38.000  
G 2  21471525.877   112833499.896        -481.410          45.000  
G 4  21471528.155   112833555.310        -481.313          46.000  
G 3  21471525.743   112833546.063        -481.201          46.000  
G 5  21471298.115   112832312.918        -481.338          44.000  
G 6  21471314.307   112832391.604        -481.279          38.000  
G30  21475925.018   112856747.4103       -480.906          31.000  
G10  21526034.502   113120001.396        -482.206          31.000  
> 2019  6 16  0 41 23.0000000  0  8                     
G 1  21471618.161   112833981.788        -481.332          38.000  
G 2  21471617.466   112833981.018        -481.154          45.000  
G 4  21471619.777   112834036.439        -481.100          46.000  
G 3  21471617.447   112834027.188        -481.084          45.000  
G 5  21471389.742   112832794.048        -481.094          44.000  
G 6  21471405.831   112832872.737        -481.108          37.000  
G30  21476016.700   112857228.5703       -480.416          31.000  
G10  21526126.275   113120482.543        -482.174          31.000  
> 2019  6 16  0 41 24.0000000  0  8                     
G 1  21471709.871   112834462.805        -481.293          38.000  
G 2  21471709.038   112834462.025        -481.082          45.000  
G 4  21471711.447   112834517.443        -480.981          46.000  
G 3  21471709.122   112834508.191        -480.874          46.000  
G 5  21471481.433   112833275.052        -480.966          44.000  
G 6  21471497.377   112833353.741        -481.012          38.000  
G30  21476108.327   112857709.5632       -480.673          31.000  
G10  21526217.909   113120963.540        -482.048          31.000  
> 2019  6 16  0 41 25.0000000  0  8                     
G 1  21471801.631   112834943.802        -480.938          38.000  
G 2  21471800.652   112834943.042        -481.212          45.000  
G 4  21471803.056   112834998.460        -481.133          46.000  
G 3  21471800.752   112834989.210        -481.155          46.000  
G 5  21471573.172   112833756.069        -481.135          44.000  
G 6  21471588.909   112833834.766        -481.144          38.000  
G30  21476199.997   112858190.1311       -481.920          31.000  
G10  21526309.535   113121444.559        -482.114          31.000  
> 2019  6 16  0 41 26.0000000  0  8                     
G 1  21471893.460   112835424.981        -481.290          38.000  
G 2  21471892.339   112835424.199        -481.216          45.000  
G 4  21471894.638   112835479.623        -481.123          46.000  
G 3  21471892.325   112835470.378        -481.089          46.000  
G 5  21471664.855   112834237.230        -481.079          44.000  
G 6  21471680.463   112834315.936        -481.464          38.000  
G30  21476291.676   112858671.289        -481.964          32.000  
G10  21526401.132   113121925.675        -481.788          30.000  
> 2019  6 16  0 41 27.0000000  0  8                     
G 1  21471985.173   112835906.134        -481.177          38.000  
G 2  21471983.785   112835905.354        -481.179          45.000  
G 4  21471986.315   112835960.777        -481.093          46.000  
G 3  21471983.999   112835951.536        -481.140          45.000  
G 5  21471756.574   112834718.383        -481.111          44.000  
G 6  21471772.018   112834797.082        -481.436          38.000  
G30  21476383.415                        -479.590          31.000  
G10  21526492.741   113122406.830        -481.265          31.000  
> 2019  6 16  0 41 28.0000000  0  8                     
G 1  21472076.689   112836387.253        -480.977          38.000  
G 2  21472075.406   112836386.490        -481.189          45.000  
G 4  21472078.008   112836441.912        -481.034          45.000  
G 3  21472075.610   112836432.665        -481.134          46.000  
G 5  21471848.304   112835199.515        -481.061          44.000  
G 6  21471863.611   112835278.214        -481.366          37.000  
G30  21476475.500                        -479.297          31.000  
G10  21526584.476   113122888.001        -482.418          31.000  
> 2019  6 16  0 41 29.0000000  0  8                     
G 1  21472168.194   112836868.460        -481.414          38.000  
G 2  21472167.068   112836867.677        -481.345          45.000  
G 4  21472169.673   112836923.101        -481.244          45.000  
G 3  21472167.247   112836913.858        -481.290          45.000  
G 5  21471939.983   112835680.707        -481.278          44.000  
G 6  21471955.263   112835759.411        -481.645          37.000  
G30  21476566.963   112860120.3163       -482.793          31.000  
G10  21526676.155   113123369.200        -482.467          31.000  
> 2019  6 16  0 41 30.0000000  0  8                     
G 1  21472259.795   112837349.627        -481.202          38.000  
G 2  21472258.630   112837348.838        -481.075          45.000  
G 4  21472261.362   112837404.265        -481.105          45.000  
G 3  21472258.935   112837395.023        -481.169          46.000  
G 5  21472031.609   112836161.871        -481.068          44.000  
G 6  21472046.926   112836240.577        -481.440          37.000  
G30  21476658.486   112860601.4332       -481.614          31.000  
G10  21526767.839   113123850.351        -481.975          31.000  
> 2019  6 16  0 41 31.0000000  0  8                     
G 1  21472351.524   112837830.685        -481.071          37.000  
G 2  21472350.285   112837829.919        -481.038          44.000  
G 4  21472353.132   112837885.338        -480.953          45.000  
G 3  21472350.653   112837876.106        -481.215          45.000  
G 5  21472123.286   112836642.946        -481.052          44.000  
G 6  21472138.569   112836721.644        -481.335          37.000  
G30  21476750.153   112861082.0461       -481.765          31.000  
G10  21526859.590   113124331.420        -481.230          31.000  
> 2019  6 16  0 41 32.0000000  0  8                     
G 1  21472443.132   112838311.732        -480.959          37.000  
G 2  21472442.013   112838310.966        -480.974          44.000  
G 4  21472444.757   112838366.388        -480.957          45.000  
G 3  21472442.456   112838357.146        -481.050          46.000  
G 5  21472214.910   112837123.999        -481.014          44.000  
G 6  21472230.174   112837202.682        -481.035          37.000  
G30  21476841.600   112861563.003        -480.984          31.000  
G10  21526951.227   113124812.466        -481.423          31.000  
> 2019  6 16  0 41 33.0000000  0  8                     
G 1  21472534.636   112838792.818        -481.115          37.000  
G 2  21472533.651   112838792.056        -481.205          44.000  
G 4  21472536.474   112838847.485        -481.289          45.000  
G 3  21472534.151   112838838.239        -481.332          46.000  
G 5  21472306.547   112837605.089        -481.306          44.000  
G 6  21472321.823   112837683.776        -481.290          38.000  
G30  21476933.128                        -480.666          31.000  
G10  21527042.943   113125293.560        -481.418          31.000  
> 2019  6 16  0 41 34.0000000  0  8                     
G 1  21472626.263   112839273.990        -480.983          38.000  
G 2  21472625.219   112839273.235        -481.283          44.000  
G 4  21472627.865   112839328.655        -481.246          46.000  
G 3  21472625.749   112839319.407        -481.277          46.000  
G 5  21472398.179   112838086.260        -481.182          44.000  
G 6  21472413.457   112838164.949        -481.084          38.000  
G30  21477024.438   112862524.8523       -482.485          30.000  
G10  21527134.407   113125774.705        -480.718          31.000  
> 2019  6 16  0 41 35.0000000  0  8                     
G 1  21472717.929   112839755.178        -481.234          38.000  
G 2  21472716.869   112839754.431        -481.316          45.000  
G 4  21472719.459   112839809.849        -481.295          45.000  
G 3  21472717.367   112839800.603        -481.249          45.000  
G 5  21472489.818   112838567.449        -481.263          44.000  
G 6  21472505.019   112838646.130        -481.151          37.000  
G30  21477117.333                        -481.152          30.000  
G10  21527225.922   113126255.930        -481.468          31.000  
> 2019  6 16  0 41 36.0000000  0  8                     
G 1  21472809.493   112840236.422        -481.223          38.000  
G 2  21472808.578   112840235.703        -481.334          45.000  
G 4  21472811.212   112840291.111        -481.354          46.000  
G 3  21472808.968   112840281.857        -481.301          45.000  
G 5  21472581.425   112839048.720        -481.390          44.000  
G 6  21472596.789   112839127.389        -481.340          37.000  
G30  21477208.757   112863493.2523       -481.455          29.000  
G10  21527317.542   113126737.189        -481.799          31.000  
> 2019  6 16  0 41 37.0000000  0  8                     
G 1  21472900.893   112840717.670        -481.343          38.000  
G 2  21472900.437   112840716.948        -481.283          45.000  
G 4  21472902.995   112840772.354        -481.290          45.000  
G 3  21472900.606   112840763.104        -481.173          45.000  
G 5  21472673.167   112839529.975        -481.409          44.000  
G 6  21472688.518   112839608.656        -481.351          37.000  
G30  21477301.082   112863974.0671       -481.653          30.000  
G10  21527409.286   113127218.438        -481.495          31.000  
> 2019  6 16  0 41 38.0000000  0  8                     
G 1  21472992.504   112841198.936        -481.212          38.000  
G 2  21472992.240   112841198.191        -481.213          45.000  
G 4  21472994.592   112841253.605        -481.312          46.000  
G 3  21472992.336   112841244.364        -481.271          45.000  
G 5  21472764.863   112840011.212        -481.254          44.000  
G 6  21472780.163   112840089.894        -481.355          37.000  
G30  21477394.157   112864455.323        -483.138          30.000  
G10  21527500.939   113127699.713        -481.951          31.000  
> 2019  6 16  0 41 39.0000000  0  8                     
G 1  21473084.326   112841680.140        -481.267          38.000  
G 2  21473083.958   112841679.400        -481.349          45.000  
G 4  21473086.224   112841734.808        -481.370          46.000  
G 3  21473084.058   112841725.572        -481.427          45.000  
G 5  21472856.569   112840492.428        -481.422          44.000  
G 6  21472871.808   112840571.115        -481.527          37.000  
G30  21477484.547   112864936.527        -482.061          31.000  
G10  21527592.567   113128180.913        -481.875          31.000  
> 2019  6 16  0 41 40.0000000  0  8                     
G 1  21473176.103   112842161.441        -481.383          38.000  
G 2  21473175.469   112842160.695        -481.360          45.000  
G 4  21473177.793   112842216.099        -481.302          45.000  
G 3  21473175.814   112842206.859        -481.324          45.000  
G 5  21472948.277   112840973.725        -481.449          44.000  
G 6  21472963.490   112841052.394        -481.323          36.000  
G30  21477574.294                        -476.889          29.000  
G10  21527684.247   113128662.205        -481.725          30.000  
> 2019  6 16  0 41 41.0000000  0  8                     
G 1  21473267.822   112842642.719        -481.328          39.000  
G 2  21473267.168   112842641.979        -481.388          45.000  
G 4  21473269.462   112842697.383        -481.367          46.000  
G 3  21473267.512   112842688.136        -481.362          46.000  
G 5  21473040.062   112841455.003        -481.389          44.000  
G 6  21473055.165   112841533.674        -481.401          37.000  
G30  21477667.396   112865903.0413       -480.814          30.000  
G10  21527775.821   113129143.464        -481.650          30.000  
> 2019  6 16  0 41 42.0000000  0  8                     
G 1  21473359.458   112843124.019        -481.415          38.000  
G 2  21473358.856   112843123.271        -481.433          44.000  
G 4  21473361.024   112843178.677        -481.450          46.000  
G 3  21473359.151   112843169.433        -481.416          46.000  
G 5  21473131.772   112841936.300        -481.508          44.000  
G 6  21473146.864   112842014.969        -481.416          37.000  
G30  21477758.512   112866384.3472       -481.468          30.000  
G10  21527867.414   113129624.737        -481.222          31.000  
> 2019  6 16  0 41 43.0000000  0  8                     
G 1  21473451.274   112843605.332        -481.090          38.000  
G 2  21473450.417   112843604.587        -481.259          45.000  
G 4  21473452.593   112843659.995        -481.359          46.000  
G 3  21473450.838   112843650.750        -481.324          45.000  
G 5  21473223.434   112842417.615        -481.315          44.000  
G 6  21473238.560   112842496.293        -481.127          37.000  
G30  21477850.232   112866864.6303       -480.834          30.000  
G10  21527958.968   113130106.060        -481.031          31.000  
> 2019  6 16  0 41 44.0000000  0  8                     
G 1  21473542.786   112844086.657        -481.171          38.000  
G 2  21473542.185   112844085.925        -481.416          45.000  
G 4  21473544.347   112844141.338        -481.489          46.000  
G 3  21473542.484   112844132.096        -481.541          45.000  
G 5  21473315.227   112842898.946        -481.406          44.000  
G 6  21473330.151   112842977.632        -481.586          37.000  
G30  21477940.880   112867345.9992       -481.897          30.000  
G10  21528050.695   113130587.384        -480.829          31.000  
> 2019  6 16  0 41 45.0000000  0  8                     
G 1  21473634.481   112844568.000        -481.326          38.000  
G 2  21473633.837   112844567.257        -481.431          45.000  
G 4  21473636.174   112844622.676        -481.611          46.000  
G 3  21473634.192   112844613.424        -481.553          45.000  
G 5  21473406.949   112843380.285        -481.523          44.000  
G 6  21473421.890   112843458.982        -481.581          37.000  
G30  21478032.885   112867827.3052       -481.257          30.000  
G10  21528142.338   113131068.720        -481.138          31.000  
> 2019  6 16  0 41 46.0000000  0  8                     
G 1  21473726.204   112845049.441        -481.204          38.000  
G 2  21473725.539   112845048.710        -481.484          45.000  
G 4  21473728.097   112845104.129        -481.665          46.000  
G 3  21473725.924   112845094.876        -481.624          45.000  
G 5  21473498.688   112843861.731        -481.587          44.000  
G 6  21473513.645   112843940.433        -481.796          37.000  
G30  21478124.955   112868308.7902       -482.115          31.000  
G10  21528233.931   113131550.171        -481.143          31.000  
> 2019  6 16  0 41 47.0000000  0  8                     
G 1  21473818.110   112845530.894        -481.138          38.000  
G 2  21473817.238   112845530.172        -481.510          44.000  
G 4  21473819.819   112845585.590        -481.600          45.000  
G 3  21473817.632   112845576.340        -481.691          45.000  
G 5  21473590.407   112844343.199        -481.604          44.000  
G 6  21473605.309   112844421.878        -481.724          37.000  
G30  21478217.050   112868790.2112       -481.056          31.000  
G10  21528325.754   113132031.673        -481.576          31.000  
> 2019  6 16  0 41 48.0000000  0  8                     
G 1  21473909.886   112846012.306        -480.803          38.000  
G 2  21473909.065   112846011.597        -481.278          44.000  
G 4  21473911.579   112846067.011        -481.383          45.000  
G 3  21473909.362   112846057.767        -481.462          45.000  
G 5  21473682.126   112844824.620        -481.353          44.000  
G 6  21473696.987   112844903.294        -481.353          37.000  
G30  21478308.770                        -488.086          30.000  
G10  21528417.454   113132513.070        -481.328          30.000  
> 2019  6 16  0 41 49.0000000  0  8                     
G 1  21474001.559   112846493.739        -480.951          38.000  
G 2  21474000.691   112846493.011        -481.300          44.000  
G 4  21474003.112   112846548.435        -481.377          45.000  
G 3  21474001.025   112846539.187        -481.405          45.000  
G 5  21473773.845   112845306.044        -481.313          44.000  
G 6  21473788.683   112845384.720        -481.226          37.000  
G30  21478399.863                        -488.623          30.000  
G10  21528509.138   113132994.498        -481.095          31.000  
> 2019  6 16  0 41 50.0000000  0  8                     
G 1  21474093.168   112846975.080        -481.434          38.000  
G 2  21474092.260   112846974.342        -481.421          44.000  
G 4  21474094.801   112847029.761        -481.487          45.000  
G 3  21474092.701   112847020.519        -481.514          45.000  
G 5  21473865.566   112845787.365        -481.355          44.000  
G 6  21473880.397   112845866.050        -481.405          37.000  
G30  21478491.752                        -472.021          29.000  
G10  21528600.876   113133475.791        -480.393          31.000  
> 2019  6 16  0 41 51.0000000  0  8                     
G 1  21474184.786   112847456.395        -480.979          38.000  
G 2  21474183.853   112847455.663        -481.260          45.000  
G 4  21474186.491   112847511.068        -481.151          46.000  
G 3  21474184.357   112847501.824        -481.191          46.000  
G 5  21473957.255   112846268.681        -481.147          44.000  
G 6  21473971.999   112846347.364        -481.196          37.000  
G30  21478582.516   112870712.2173       -480.005          31.000  
G10  21528692.567   113133957.069        -479.514          31.000  
> 2019  6 16  0 41 52.0000000  0  8                     
G 1  21474276.434   112847937.774        -481.470          38.000  
G 2  21474275.712   112847937.047        -481.740          45.000  
G 4  21474278.251   112847992.444        -481.404          46.000  
G 3  21474276.126   112847983.209        -481.536          46.000  
G 5  21474048.994   112846750.068        -481.531          44.000  
G 6  21474063.626   112846828.756        -481.572          37.000  
G30  21478674.364   112871194.6092       -480.907          30.000  
G10  21528784.326   113134438.472        -480.262          31.000  
> 2019  6 16  0 41 53.0000000  0  8                     
G 1  21474368.197   112848419.111        -481.437          38.000  
G 2  21474367.398   112848418.358        -481.464          44.000  
G 4  21474369.986   112848473.769        -481.333          46.000  
G 3  21474367.834   112848464.527        -481.378          46.000  
G 5  21474140.700   112847231.383        -481.384          44.000  
G 6  21474155.337   112847310.074        -481.349          37.000  
G30  21478766.061   112871676.9173       -481.514          30.000  
G10  21528875.928   113134919.769        -479.843          31.000  
> 2019  6 16  0 41 54.0000000  0  8                     
G 1  21474459.958   112848900.439        -481.427          38.000  
G 2  21474459.183   112848899.700        -481.509          45.000  
G 4  21474461.703   112848955.110        -481.520          46.000  
G 3  21474459.559   112848945.869        -481.544          46.000  
G 5  21474232.402   112847712.719        -481.476          44.000  
G 6  21474247.011   112847791.414        -481.606          37.000  
G30  21478857.755   112872158.2762       -482.297          30.000  
G10  21528967.566   113135401.115        -480.247          31.000  
> 2019  6 16  0 41 55.0000000  0  8                     
G 1  21474551.682   112849381.877        -481.542          38.000  
G 2  21474550.895   112849381.124        -481.554          45.000  
G 4  21474553.436   112849436.536        -481.432          45.000  
G 3  21474551.278   112849427.297        -481.488          45.000  
G 5  21474324.103   112848194.153        -481.561          44.000  
G 6  21474338.663   112848272.836        -481.537          37.000  
G30  21478949.346   112872639.6513       -481.213          30.000  
G10  21529059.196   113135882.564        -481.048          31.000  
> 2019  6 16  0 41 56.0000000  0  8                     
G 1  21474643.406   112849863.312        -481.536          38.000  
G 2  21474642.523   112849862.567        -481.536          45.000  
G 4  21474645.094   112849917.979        -481.487          46.000  
G 3  21474643.075   112849908.738        -481.439          46.000  
G 5  21474415.856   112848816.0973       -481.609          44.000  
G 6  21474430.446   112848754.279        -481.400          37.000  
G30  21479041.148   112873121.1322       -480.967          30.000  
G10  21529150.902   113136364.012        -480.964          31.000  
> 2019  6 16  0 41 57.0000000  0  8                     
G 1  21474735.058   112850344.634        -481.340          38.000  
G 2  21474734.133   112850343.897        -481.476          45.000  
G 4  21474736.730   112850399.300        -481.193          46.000  
G 3  21474734.829   112850390.072        -481.339          45.000  
G 5  21474507.555   112849297.4172       -481.323          44.000  
G 6  21474522.142   112849235.602        -481.207          37.000  
G30  21479132.418                        -480.082          30.000  
G10  21529242.556   113136845.311        -480.463          31.000  
> 2019  6 16  0 41 58.0000000  0  8                     
G 1  21474826.716   112850825.953        -481.121          38.000  
G 2  21474825.648   112850825.212        -481.259          45.000  
G 4  21474828.339   112850880.604        -480.956          45.000  
G 3  21474826.449   112850871.386        -481.244          45.000  
G 5  21474599.299   112849778.7322       -481.199          44.000  
G 6  21474613.762   112849716.912        -481.129          37.000  
G30  21479224.590   112874086.7193       -480.824          29.000  
G10  21529334.227   113137326.664        -481.003          31.000  
> 2019  6 16  0 41 59.0000000  0  8                     
G 1  21474918.376   112851307.141        -481.067          38.000  
G 2  21474917.238   112851306.410        -481.282          44.000  
G 4  21474919.835   112851361.818        -481.088          45.000  
G 3  21474918.141   112851352.574        -481.228          45.000  
G 5  21474690.972   112850259.9272       -481.343          44.000  
G 6  21474705.458   112850198.122        -481.075          37.000  
G30  21479311.950   112874567.9392       -480.920          29.000  
G10  21529425.865   113137807.844        -480.741          31.000  
> 2019  6 16  0 42  0.0000000  0  8                     
G 1  21475010.001   112851788.403        -481.447          38.000  
G 2  21475008.878   112851787.659        -481.434          44.000  
G 4  21475011.443   112851843.056        -481.213          45.000  
G 3  21475009.890   112851833.836        -481.410          46.000  
G 5  21474782.587   112850741.1792       -481.426          44.000  
G 6  21474797.100   112850679.350        -481.310          37.000  
G30  21479406.779   112875044.1513       -479.805          30.000  
G10  21529517.573   113138289.131        -481.597          31.000  
> 2019  6 16  0 42  1.0000000  0  8                     
G 1  21475101.685   112852269.608        -481.112          38.000  
G 2  21475100.475   112852268.854        -481.211          44.000  
G 4  21475103.049   112852324.250        -481.094          45.000  
G 3  21475101.570   112852315.036        -481.207          46.000  
G 5  21474874.167   112851221.8751       -481.339          43.000  
G 6  21474889.035   112851303.0663       -481.151          37.000  
G30  21479499.219   112875529.3793       -480.999          30.000  
G10  21529609.247   113138770.280        -480.717          30.000  
> 2019  6 16  0 42  2.0000000  0  8                     
G 1  21475193.381   112852750.699        -480.886          38.000  
G 2  21475192.175   112852750.005        -481.224          45.000  
G 4  21475194.778   112852805.397        -480.854          46.000  
G 3  21475193.238   112852796.171        -480.967          46.000  
G 5  21474965.848   112851703.010        -481.091          44.000  
G 6  21474980.737   112851785.2152       -480.952          37.000  
G30  21479592.874   112876010.5042       -479.138          31.000  
G10  21529700.877   113139251.399        -480.079          31.000  
> 2019  6 16  0 42  3.0000000  0  8                     
G 1  21475284.913   112853231.973        -480.940          38.000  
G 2  21475284.029   112853231.256        -481.429          45.000  
G 4  21475286.462   112853286.650        -481.128          46.000  
G 3  21475284.918   112853277.427        -481.216          46.000  
G 5  21475057.505   112852184.271        -481.322          44.000  
G 6  21475072.434   112852266.4713       -481.207          37.000  
G30  21479685.668   112876509.7943       -480.572          31.000  
G10  21529792.411   113139732.668        -480.759          31.000  
> 2019  6 16  0 42  4.0000000  0  8                     
G 1  21475376.615   112853713.253        -481.226          38.000  
G 2  21475375.827   112853712.518        -481.365          45.000  
G 4  21475378.213   112853767.914        -481.130          46.000  
G 3  21475376.651   112853758.680        -481.101          45.000  
G 5  21475149.230   112852665.532        -481.294          44.000  
G 6  21475164.031   112852747.7053       -481.007          37.000  
G30  21479777.133   112876989.9933       -479.760          31.000  
G10  21529884.138   113140213.970        -481.561          31.000  
> 2019  6 16  0 42  5.0000000  0  8                     
G 1  21475468.385   112854194.466        -481.012          38.000  
G 2  21475467.303   112854193.737        -481.166          45.000  
G 4  21475469.871   112854249.142        -480.991          45.000  
G 3  21475468.261   112854239.901        -480.992          45.000  
G 5  21475240.944   112853146.760        -481.038          44.000  
G 6  21475255.644   112853229.9583       -481.025          37.000  
G30  21479867.487                        -480.845          30.000  
G10  21529975.746   113140695.199        -481.390          31.000  
> 2019  6 16  0 42  6.0000000  0  8                     
G 1  21475559.978   112854675.612        -481.361          38.000  
G 2  21475558.923   112854674.848        -481.038          45.000  
G 4  21475561.532   112854730.261        -481.082          46.000  
G 3  21475559.726   112854721.026        -481.029          46.000  
G 5  21475332.670   112853627.870        -481.147          44.000  
G 6  21475347.191   112853711.0812       -481.199          37.000  
G30  21479959.463   112877948.3512       -480.168          31.000  
G10  21530067.386   113141176.305        -481.610          31.000  
> 2019  6 16  0 42  7.0000000  0  8                     
G 1  21475651.584   112855156.713        -481.353          38.000  
G 2  21475650.566   112855155.968        -481.229          44.000  
G 4  21475653.189   112855211.375        -481.136          46.000  
G 3  21475651.400   112855202.140        -481.118          46.000  
G 5  21475424.347   112854108.983        -481.329          44.000  
G 6  21475438.686   112854191.6891       -481.022          37.000  
G30  21480051.295   112878428.9821       -480.538          31.000  
G10  21530159.157   113141657.417        -481.816          31.000  
> 2019  6 16  0 42  8.0000000  0  8                     
G 1  21475743.064   112855637.877        -481.471          38.000  
G 2  21475742.273   112855637.145        -481.396          44.000  
G 4  21475744.959   112855692.557        -481.370          46.000  
G 3  21475743.057   112855683.315        -481.345          46.000  
G 5  21475516.111   112854590.173        -481.481          43.000  
G 6  21475530.328   112854672.847        -481.171          37.000  
G30  21480143.323   112878914.7023       -481.536          31.000  
G10  21530250.933   113142138.633        -482.009          31.000  
> 2019  6 16  0 42  9.0000000  0  8                     
G 1  21475834.674   112856119.009        -481.350          38.000  
G 2  21475834.036   112856118.268        -481.162          44.000  
G 4  21475836.677   112856173.666        -481.141          46.000  
G 3  21475834.801   112856164.438        -481.046          46.000  
G 5  21475607.804   112855071.292        -481.118          43.000  
G 6  21475621.998   112855153.962        -480.974          37.000  
G30  21480235.394                        -481.217          30.000  
G10  21530342.571   113142619.698        -480.917          31.000  
> 2019  6 16  0 42 10.0000000  0  8                     
G 1  21475926.357   112856600.120        -481.450          38.000  
G 2  21475925.765   112856599.372        -481.394          45.000  
G 4  21475928.229   112856654.769        -481.343          46.000  
G 3  21475926.382   112856645.547        -481.307          46.000  
G 5  21475699.440   112855552.385        -481.417          44.000  
G 6  21475713.651   112855635.087        -481.166          37.000  
G30  21480326.994   112879879.9042       -480.926          30.000  
G10  21530434.244   113143100.849        -481.852          30.000  
> 2019  6 16  0 42 11.0000000  0  8                     
G 1  21476017.973   112857081.253        -481.224          38.000  
G 2  21476017.342   112857080.510        -481.213          45.000  
G 4  21476019.801   112857135.917        -481.248          45.000  
G 3  21476018.020   112857126.693        -481.172          46.000  
G 5  21475791.124   112856033.522        -481.228          44.000  
G 6  21475805.273   112856116.208        -481.156          37.000  
G30  21480419.078   112880361.0322       -480.542          30.000  
G10  21530525.830   113143581.979        -481.272          31.000  
> 2019  6 16  0 42 12.0000000  0  8                     
G 1  21476109.604   112857562.495        -481.543          38.000  
G 2  21476109.010   112857561.743        -481.337          45.000  
G 4  21476111.424   112857617.152        -481.301          46.000  
G 3  21476109.721   112857607.921        -481.316          46.000  
G 5  21475882.802   112856514.764        -481.304          44.000  
G 6  21475896.968   112856597.450        -481.249          37.000  
G30  21480509.963   112880842.3112       -481.227          29.000  
G10  21530617.560   113144063.229        -481.544          31.000  
> 2019  6 16  0 42 13.0000000  0  8                     
G 1  21476201.348   112858043.714        -481.412          38.000  
G 2  21476200.542   112858042.961        -481.168          45.000  
G 4  21476203.039   112858098.374        -481.158          45.000  
G 3  21476201.318   112858089.145        -481.104          46.000  
G 5  21475974.494   112856995.985        -481.128          44.000  
G 6  21475988.725   112857078.679        -481.052          37.000  
G30  21480600.979   112881323.0131       -480.971          30.000  
G10  21530709.349   113144544.443        -481.473          31.000  
> 2019  6 16  0 42 14.0000000  0  8                     
G 1  21476292.943   112858524.883        -481.562          38.000  
G 2  21476292.100   112858524.118        -481.174          45.000  
G 4  21476294.651   112858579.529        -481.219          46.000  
G 3  21476292.941   112858570.294        -481.107          46.000  
G 5  21476066.112   112857477.127        -481.091          44.000  
G 6  21476080.246   112857559.828        -481.064          38.000  
G30  21480691.960   112881797.6683       -481.454          30.000  
G10  21530800.875   113145025.601        -481.742          31.000  
> 2019  6 16  0 42 15.0000000  0  8                     
G 1  21476384.458   112859005.930        -481.610          38.000  
G 2  21476383.797   112859005.187        -481.263          44.000  
G 4  21476386.285   112859060.598        -481.326          46.000  
G 3  21476384.460   112859051.348        -481.115          46.000  
G 5  21476157.807   112857958.187        -481.272          44.000  
G 6  21476171.936   112858040.909        -481.315          37.000  
G30  21480783.168   112882278.7562       -481.654          30.000  
G10  21530892.467   113145506.666        -481.615          31.000  
> 2019  6 16  0 42 16.0000000  0  8                     
G 1  21476476.068   112859487.057        -481.191          38.000  
G 2  21476475.524   112859486.306        -480.991          44.000  
G 4  21476477.925   112859541.718        -481.271          46.000  
G 3  21476476.079   112859532.480        -481.049          46.000  
G 5  21476249.574   112858439.323        -481.306          44.000  
G 6  21476263.656   112858522.028        -481.393          37.000  
G30  21480874.628                        -477.881          30.000  
G10  21530984.128   113145987.766        -481.375          31.000  
> 2019  6 16  0 42 17.0000000  0  8                     
G 1  21476567.755   112859968.162        -481.060          38.000  
G 2  21476567.188   112859967.428        -480.795          44.000  
G 4  21476569.524   112860022.837        -480.940          45.000  
G 3  21476567.725   112860013.601        -480.782          46.000  
G 5  21476341.193   112858920.439        -480.898          44.000  
G 6  21476355.284   112859003.179        -481.296          37.000  
G30  21480966.120                        -500.391          30.000  
G10  21531075.801   113146468.885        -481.215          31.000  
> 2019  6 16  0 42 18.0000000  0  8                     
G 1  21476659.368   112860449.166        -481.161          37.000  
G 2  21476658.802   112860448.436        -481.179          44.000  
G 4  21476661.141   112860503.847        -481.254          46.000  
G 3  21476659.359   112860494.605        -481.180          46.000  
G 5  21476432.843   112859401.439        -481.196          44.000  
G 6  21476446.864   112859484.173        -481.564          37.000  
G30  21481059.778                        -480.891          28.000  
G10  21531167.357   113146949.889        -481.642          31.000  
> 2019  6 16  0 42 19.0000000  0  7                     
G 1  21476750.988   112860930.179        -481.381          38.000  
G 2  21476750.496   112860929.426        -481.162          44.000  
G 4  21476752.772   112860984.835        -481.219          46.000  
G 3  21476750.957   112860975.597        -481.080          45.000  
G 5  21476524.554   112859882.424        -481.072          44.000  
G 6  21476538.433   112859965.149        -481.307          37.000  
G10  21531258.980   113147430.896        -481.655          31.000  
> 2019  6 16  0 42 20.0000000  0  8                     
G 1  21476842.689   112861411.030        -480.846          38.000  
G 2  21476842.026   112861410.266        -480.848          45.000  
G 4  21476844.274   112861465.673        -480.793          46.000  
G 3  21476842.555   112861456.440        -480.754          46.000  
G 5  21476616.117   112860363.278        -480.809          44.000  
G 6  21476630.069   112860445.996        -480.955          38.000  
G30  21481242.346   112884690.3723       -481.967          30.000  
G10  21531350.529   113147911.739        -481.265          32.000  
> 2019  6 16  0 42 21.0000000  0  8                     
G 1  21476934.406   112861891.850        -481.104          38.000  
G 2  21476933.595   112861891.104        -481.132          45.000  
G 4  21476935.787   112861946.513        -480.828          46.000  
G 3  21476934.035   112861937.276        -480.889          46.000  
G 5  21476707.730   112860844.117        -480.847          43.000  
G 6  21476721.592   112860926.831        -481.072          38.000  
G30  21481332.410   112885163.1842       -481.019          30.000  
G10  21531442.105   113148392.590        -481.459          31.000  
> 2019  6 16  0 42 22.0000000  0  8                     
G 1  21477025.923   112862372.709        -481.052          38.000  
G 2  21477025.198   112862371.975        -481.113          45.000  
G 4  21477027.455   112862427.386        -481.025          46.000  
G 3  21477025.576   112862418.148        -481.049          46.000  
G 5  21476799.250   112861324.990        -481.108          43.000  
G 6  21476813.325   112861407.705        -481.377          37.000  
G30  21481424.295   112885644.0552       -481.262          30.000  
G10  21531533.690   113148873.485        -481.971          31.000  
> 2019  6 16  0 42 23.0000000  0  8                     
G 1  21477117.441   112862853.676        -480.962          38.000  
G 2  21477116.694   112862852.948        -481.030          45.000  
G 4  21477119.200   112862908.364        -481.110          46.000  
G 3  21477117.063   112862899.131        -481.187          46.000  
G 5  21476890.812   112861805.964        -481.044          43.000  
G 6  21476904.952   112861888.683        -481.520          37.000  
G30  21481516.206   112886129.0563       -481.937          30.000  
G10  21531625.404   113149354.463        -482.061          31.000  
> 2019  6 16  0 42 24.0000000  0  8                     
G 1  21477209.048   112863334.631        -480.731          38.000  
G 2  21477208.250   112863333.902        -480.941          45.000  
G 4  21477210.886   112863389.317        -480.991          46.000  
G 3  21477208.689   112863380.077        -481.033          46.000  
G 5  21476982.394   112862286.920        -480.901          43.000  
G 6  21476996.601   112862369.621        -481.172          38.000  
G30  21481607.849   112886610.9762       -481.689          31.000  
G10  21531716.929   113149835.388        -481.699          31.000  
> 2019  6 16  0 42 25.0000000  0  8                     
G 1  21477300.665   112863815.633        -480.903          38.000  
G 2  21477300.031   112863814.919        -481.282          45.000  
G 4  21477302.724   112863870.324        -481.290          46.000  
G 3  21477300.266   112863861.094        -481.351          47.000  
G 5  21477074.007   112862767.932        -481.261          44.000  
G 6  21477088.257   112862850.646        -481.549          38.000  
G30  21481699.127   112887091.988        -481.732          32.000  
G10  21531808.601   113150316.412        -482.036          31.000  
> 2019  6 16  0 42 26.0000000  0  8                     
G 1  21477392.330   112864296.708        -481.025          38.000  
G 2  21477391.731   112864295.965        -481.223          45.000  
G 4  21477394.298   112864351.379        -481.244          46.000  
G 3  21477391.972   112864342.144        -481.417          46.000  
G 5  21477165.584   112863248.990        -481.262          44.000  
G 6  21477179.847   112863331.701        -481.284          37.000  
G30  21481790.776   112887572.0203       -481.171          31.000  
G10  21531900.254   113150797.476        -481.752          31.000  
> 2019  6 16  0 42 27.0000000  0  8                     
G 1  21477483.809   112864777.686        -480.815          38.000  
G 2  21477483.261   112864776.959        -480.972          45.000  
G 4  21477485.992   112864832.369        -481.063          46.000  
G 3  21477483.658   112864823.129        -481.002          46.000  
G 5  21477257.203   112863729.980        -480.989          44.000  
G 6  21477271.410   112863812.676        -481.045          38.000  
G30  21481883.967   112888062.0553       -481.838          30.000  
G10  21531991.867   113151278.463        -481.471          31.000  
> 2019  6 16  0 42 28.0000000  0  8                     
G 1  21477575.261   112865258.682        -481.229          38.000  
G 2  21477574.780   112865257.946        -481.045          45.000  
G 4  21477577.380   112865313.356        -481.129          46.000  
G 3  21477575.133   112865304.114        -481.143          46.000  
G 5  21477348.780   112864210.960        -481.028          43.000  
G 6  21477363.170   112864293.673        -481.262          38.000  
G30  21481975.607   112888543.0242       -481.084          30.000  
G10  21532083.526   113151759.421        -481.140          30.000  
> 2019  6 16  0 42 29.0000000  0  8                     
G 1  21477666.754   112865739.588        -480.823          38.000  
G 2  21477666.401   112865738.853        -480.853          45.000  
G 4  21477669.086   112865794.276        -480.972          46.000  
G 3  21477666.587   112865785.031        -480.955          46.000  
G 5  21477440.357   112864691.880        -480.925          43.000  
G 6  21477454.819   112864774.588        -480.990          38.000  
G30  21482066.277   112889019.9413       -480.460          31.000  
G10  21532175.178   113152240.370        -481.161          30.000  
> 2019  6 16  0 42 30.0000000  0  8                     
G 1  21477758.264   112866220.434        -480.874          37.000  
G 2  21477757.916   112866219.693        -480.724          44.000  
G 4  21477760.868   112866275.121        -480.817          46.000  
G 3  21477758.087   112866265.876        -480.790          46.000  
G 5  21477531.917   112865172.711        -480.732          43.000  
G 6  21477546.549   112865255.407        -480.736          38.000  
G30  21482158.792   112889500.7472       -480.317          30.000  
G10  21532266.725   113152721.173        -480.363          31.000  
> 2019  6 16  0 42 31.0000000  0  8                     
G 1  21477849.915   112866701.430        -481.354          37.000  
G 2  21477849.553   112866700.673        -480.897          45.000  
G 4  21477852.488   112866756.103        -481.093          46.000  
G 3  21477849.812   112866746.861        -481.036          46.000  
G 5  21477623.548   112865653.694        -480.912          44.000  
G 6  21477638.314   112865736.401        -480.773          37.000  
G30  21482251.963   112889995.7663       -480.955          30.000  
G10  21532358.392   113153202.182        -480.781          31.000  
> 2019  6 16  0 42 32.0000000  0  8                     
G 1  21477941.497   112867182.414        -481.108          37.000  
G 2  21477941.280   112867181.659        -480.720          45.000  
G 4  21477944.086   112867237.078        -480.933          46.000  
G 3  21477941.502   112867227.840        -480.863          46.000  
G 5  21477715.201   112866134.675        -480.771          44.000  
G 6  21477729.971   112866217.382        -480.645          37.000  
G30  21482342.706   112890472.6812       -479.615          31.000  
G10  21532450.041   113153683.132        -480.306          31.000  
> 2019  6 16  0 42 33.0000000  0  8                     
G 1  21478033.137   112867663.466        -481.508          38.000  
G 2  21478032.909   112867662.683        -480.748          45.000  
G 4  21478035.815   112867718.113        -481.055          46.000  
G 3  21478033.157   112867708.868        -480.962          46.000  
G 5  21477806.844   112866615.696        -480.913          44.000  
G 6  21477821.503   112866698.386        -480.674          37.000  
G30  21482433.688   112890950.7093       -480.051          30.000  
G10  21532541.771   113154164.147        -479.957          31.000  
> 2019  6 16  0 42 34.0000000  0  8                     
G 1  21478124.809   112868144.521        -481.818          38.000  
G 2  21478124.337   112868143.762        -480.903          45.000  
G 4  21478127.218   112868199.188        -481.183          46.000  
G 3  21478124.908   112868189.940        -481.084          47.000  
G 5  21477898.510   112867096.790        -481.189          44.000  
G 6  21477913.016   112867179.476        -480.790          38.000  
G30  21482525.907   112891434.8392       -481.033          30.000  
G10  21532633.483   113154645.234        -480.548          31.000  
> 2019  6 16  0 42 35.0000000  0  8                     
G 1  21478216.422   112868625.565        -481.455          38.000  
G 2  21478216.012   112868624.822        -480.845          44.000  
G 4  21478218.829   112868680.237        -481.062          46.000  
G 3  21478216.586   112868670.993        -480.951          46.000  
G 5  21477990.110   112867577.837        -480.988          44.000  
G 6  21478004.596   112867660.550        -480.876          38.000  
G30  21482617.040   112891913.8942       -481.030          31.000  
G10  21532725.144   113155126.279        -480.458          31.000  
> 2019  6 16  0 42 36.0000000  0  8                     
G 1  21478307.972   112869106.623        -481.578          38.000  
G 2  21478307.623   112869105.854        -480.977          45.000  
G 4  21478310.628   112869161.276        -481.161          47.000  
G 3  21478308.282   112869152.022        -480.978          46.000  
G 5  21478081.802   112868058.871        -481.150          44.000  
G 6  21478096.044   112868141.562        -480.903          38.000  
G30  21482708.080   112892391.9303       -480.787          31.000  
G10  21532816.776   113155607.317        -480.691          31.000  
> 2019  6 16  0 42 37.0000000  0  8                     
G 1  21478399.725   112869587.758        -481.638          37.000  
G 2  21478399.234   112869586.980        -481.130          44.000  
G 4  21478402.200   112869642.407        -481.300          46.000  
G 3  21478399.969   112869633.157        -481.254          46.000  
G 5  21478173.517   112868540.005        -481.157          44.000  
G 6  21478187.818   112868622.701        -481.063          38.000  
G30  21482800.226   112892877.0183       -480.572          31.000  
G10  21532908.338   113156088.454        -481.056          31.000  
> 2019  6 16  0 42 38.0000000  0  8                     
G 1  21478491.535   112870068.810        -481.141          38.000  
G 2  21478490.779   112870068.045        -480.973          45.000  
G 4  21478493.951   112870123.476        -481.073          47.000  
G 3  21478491.681   112870114.220        -481.039          47.000  
G 5  21478265.194   112869021.075        -481.002          44.000  
G 6  21478279.432   112869103.752        -480.715          38.000  
G30  21482890.678   112893352.1143       -480.797          31.000  
G10  21532999.965   113156569.473        -479.651          31.000  
> 2019  6 16  0 42 39.0000000  0  8                     
G 1  21478583.272   112870549.846        -481.086          38.000  
G 2  21478582.512   112870549.098        -480.762          46.000  
G 4  21478585.608   112870604.527        -481.115          47.000  
G 3  21478583.413   112870595.270        -481.014          47.000  
G 5  21478356.842   112869502.119        -480.963          44.000  
G 6  21478370.913   112869584.803        -480.792          38.000  
G30  21482983.081   112893833.1272       -480.553          31.000  
G10  21533091.594   113157050.547        -480.289          31.000  
> 2019  6 16  0 42 40.0000000  0  8                     
G 1  21478675.015   112871030.977        -481.262          38.000  
G 2  21478674.174   112871030.194        -480.950          45.000  
G 4  21478677.288   112871085.625        -481.083          47.000  
G 3  21478675.109   112871076.370        -481.064          47.000  
G 5  21478448.476   112869983.222        -481.119          44.000  
G 6  21478462.750   112870065.904        -481.090          37.000  
G30  21483074.400   112894317.2723       -481.143          30.000  
G10  21533183.175   113157531.648        -480.443          31.000  
> 2019  6 16  0 42 41.0000000  0  8                     
G 1  21478766.838   112871512.011        -481.119          38.000  
G 2  21478765.766   112871511.248        -480.962          45.000  
G 4  21478768.969   112871566.667        -481.074          47.000  
G 3  21478766.726   112871557.420        -481.145          47.000  
G 5  21478540.088   112870464.273        -481.124          44.000  
G 6  21478554.631   112870546.964        -481.122          37.000  
G30  21483165.957   112894798.2992       -481.097          30.000  
G10  21533274.793   113158012.719        -481.027          31.000  
> 2019  6 16  0 42 42.0000000  0  8                     
G 1  21478858.563   112871993.173        -481.230          37.000  
G 2  21478857.510   112871992.400        -481.045          44.000  
G 4  21478860.452   112872047.827        -481.268          47.000  
G 3  21478858.331   112872038.580        -481.179          47.000  
G 5  21478631.708   112870945.421        -481.187          43.000  
G 6  21478646.487   112871028.115        -481.179          36.000  
G30  21483257.541   112895279.4352       -480.846          30.000  
G10  21533366.399   113158493.864        -480.889          31.000  
> 2019  6 16  0 42 43.0000000  0  8                     
G 1  21478950.098   112872474.278        -480.842          38.000  
G 2  21478949.129   112872473.540        -481.033          44.000  
G 4  21478951.937   112872528.961        -481.130          47.000  
G 3  21478949.936   112872519.717        -481.179          47.000  
G 5  21478723.349   112871426.557        -481.102          43.000  
G 6  21478738.146   112871509.271        -481.134          36.000  
G30  21483349.091   112895760.596        -481.099          30.000  
G10  21533458.029   113158975.000        -481.127          31.000  
> 2019  6 16  0 42 44.0000000  0  8                     
G 1  21479041.554   112872955.516        -481.083          37.000  
G 2  21479040.818   112872954.778        -481.298          44.000  
G 4  21479043.612   112873010.220        -481.385          47.000  
G 3  21479041.583   112873000.967        -481.527          46.000  
G 5  21478814.999   112871907.804        -481.497          43.000  
G 6  21478829.940   112871990.515        -481.530          36.000  
G30  21483440.643   112896241.7943       -480.618          30.000  
G10  21533549.607   113159456.237        -481.454          31.000  
> 2019  6 16  0 42 45.0000000  0  8                     
G 1  21479133.138   112873436.776        -481.125          37.000  
G 2  21479132.506   112873436.030        -480.966          45.000  
G 4  21479135.136   112873491.457        -481.077          48.000  
G 3  21479133.258   112873482.211        -481.118          47.000  
G 5  21478906.655   112872389.056        -481.128          43.000  
G 6  21478921.618   112872471.757        -481.009          36.000  
G30  21483533.532   112896730.0793       -480.431          30.000  
G10  21533641.284   113159937.518        -481.534          31.000  
> 2019  6 16  0 42 46.0000000  0  8                     
G 1  21479224.826   112873917.948        -480.999          37.000  
G 2  21479224.297   112873917.202        -481.283          45.000  
G 4  21479226.972   112873972.629        -481.208          48.000  
G 3  21479224.987   112873963.382        -481.265          48.000  
G 5  21478998.317   112872870.225        -481.326          43.000  
G 6  21479013.227   112872952.909        -481.062          37.000  
G30  21483623.653   112897211.2642       -481.083          31.000  
G10  21533732.850   113160418.689        -481.271          30.000  
> 2019  6 16  0 42 47.0000000  0  8                     
G 1  21479316.463   112874399.133        -480.868          37.000  
G 2  21479316.053   112874398.394        -481.240          46.000  
G 4  21479318.676   112874453.818        -481.161          48.000  
G 3  21479316.614   112874444.562        -481.117          48.000  
G 5  21479090.084   112873351.409        -481.127          44.000  
G 6  21479104.837   112873434.098        -480.847          37.000  
G30  21483716.337   112897690.4553       -481.073          31.000  
G10  21533824.475   113160899.850        -481.073          31.000  
> 2019  6 16  0 42 48.0000000  0  8                     
G 1  21479408.184   112874880.433        -481.067          37.000  
G 2  21479407.811   112874879.690        -481.531          46.000  
G 4  21479410.185   112874935.107        -481.461          48.000  
G 3  21479408.376   112874925.862        -481.489          48.000  
G 5  21479181.731   112873832.706        -481.444          44.000  
G 6  21479196.447   112873915.410        -481.495          37.000  
G30  21483808.256   112898173.7222       -481.152          32.000  
G10  21533916.092   113161381.155        -481.249          31.000  
> 2019  6 16  0 42 49.0000000  0  8                     
G 1  21479499.931   112875533.1893       -481.039          37.000  
G 2  21479499.382   112875530.9483       -481.376          45.000  
G 4  21479501.672   112875542.3743       -481.296          48.000  
G 3  21479500.128   112875534.6243       -481.365          47.000  
G 5  21479273.484   112874343.4673       -481.400          44.000  
G 6  21479288.154   112874420.1573       -481.307          37.000  
G30  21483899.691   112898654.0053       -481.399          31.000  
G10  21534007.590   113161972.9163       -481.455          32.000  
> 2019  6 16  0 42 50.0000000  0  8                     
G 1  21479591.549   112876014.4592       -481.031          37.000  
G 2  21479591.053   112876012.2222       -481.261          45.000  
G 4  21479593.471   112876024.6412       -481.228          48.000  
G 3  21479591.686   112876015.8862       -481.249          47.000  
G 5  21479365.159   112874825.7412       -481.306          44.000  
G 6  21479379.761   112874902.4332       -481.396          37.000  
G30  21483990.355   112899131.2522       -481.565          31.000  
G10  21534099.270   113162455.1922       -481.602          31.000  
> 2019  6 16  0 42 51.0000000  0  8                     
G 1  21479683.157   112876495.6192       -480.824          39.000  
G 2  21479682.697   112876493.3772       -481.090          47.000  
G 4  21479685.141   112876505.8002       -481.023          48.000  
G 3  21479683.326   112876497.0502       -481.124          48.000  
G 5  21479456.781   112875306.9002       -481.102          46.000  
G 6  21479471.437   112875383.5852       -481.178          38.000  
G30  21484082.395   112899614.3993       -480.656          31.000  
G10  21534190.888   113162936.3542       -481.145          31.000  
> 2019  6 16  0 42 52.0000000  0  8                     
G 1  21479774.863   112876976.7972       -481.099          39.000  
G 2  21479774.248   112876974.5612       -481.281          46.000  
G 4  21479776.936   112876986.9872       -481.305          47.000  
G 3  21479774.983   112876978.2362       -481.371          47.000  
G 5  21479548.418   112875788.0882       -481.343          45.000  
G 6  21479563.111   112875864.7802       -481.348          38.000  
G30  21484175.172   112900101.6042       -480.762          31.000  
G10  21534282.489   113163417.5312       -481.343          31.000  
> 2019  6 16  0 42 53.0000000  0  8                     
G 1  21479866.499   112877460.1433       -480.959          38.000  
G 2  21479865.806   112877455.9133       -481.272          46.000  
G 4  21479868.628   112877471.3383       -481.313          47.000  
G 3  21479866.748   112877461.5933       -481.329          46.000  
G 5  21479639.957   112876269.4233       -481.233          44.000  
G 6  21479654.712   112876347.1453       -481.375          37.000  
G30  21484265.179   112900574.9543       -481.428          31.000  
G10  21534374.106   113163898.8853       -481.167          30.000  
> 2019  6 16  0 42 54.0000000  0  8                     
G 1  21479958.179   112877941.3762       -481.091          38.000  
G 2  21479957.556   112877938.1322       -481.106          46.000  
G 4  21479960.307   112877952.5502       -481.151          47.000  
G 3  21479958.473   112877942.8102       -481.198          47.000  
G 5  21479731.569   112876750.6482       -481.064          44.000  
G 6  21479746.194   112876827.3672       -481.338          38.000  
G30  21484357.465   112901060.1752       -480.966          32.000  
G10  21534465.632   113164380.0902       -480.654          31.000  
> 2019  6 16  0 42 55.0000000  0  8                     
G 1  21480049.873   112878423.5723       -481.184          38.000  
G 2  21480049.196   112878420.3303       -481.238          45.000  
G 4  21480052.080   112878434.7463       -481.095          46.000  
G 3  21480050.163   112878425.0023       -481.129          46.000  
G 5  21479823.229   112877232.8463       -481.067          44.000  
G 6  21479837.756   112877308.5533       -481.089          37.000  
G30  21484450.181   112901547.3633       -480.210          31.000  
G10  21534557.421   113164862.2983       -480.535          30.000  
> 2019  6 16  0 42 56.0000000  0  8                     
G 1  21480141.548   112878904.7732       -481.003          38.000  
G 2  21480140.953   112878901.5582       -481.626          45.000  
G 4  21480143.660   112878915.9642       -481.223          47.000  
G 3  21480141.790   112878906.2152       -481.364          46.000  
G 5  21479914.902   112877714.0782       -481.302          44.000  
G 6  21479929.201   112877789.7552       -481.290          38.000  
G30  21484540.694   112902028.7012       -482.710          30.000  
G10  21534649.138   113165343.4822       -480.791          31.000  
> 2019  6 16  0 42 57.0000000  0  8                     
G 1  21480233.166   112879385.9402       -480.912          38.000  
G 2  21480232.464   112879382.7152       -481.302          45.000  
G 4  21480235.239   112879397.1292       -481.068          47.000  
G 3  21480233.237   112879387.3952       -481.106          47.000  
G 5  21480006.504   112878195.2372       -481.156          44.000  
G 6  21480020.805   112878270.9182       -481.134          37.000  
G30  21484633.371   112902509.7532       -481.383          30.000  
G10  21534740.807   113165824.6662       -480.630          31.000  
> 2019  6 16  0 42 58.0000000  0  8                     
G 1  21480324.641   112879867.0662       -481.040          38.000  
G 2  21480324.045   112879863.8642       -481.481          46.000  
G 4  21480326.983   112879878.2672       -481.135          47.000  
G 3  21480324.783   112879868.5292       -481.216          46.000  
G 5  21480098.174   112878676.3782       -481.248          44.000  
G 6  21480112.310   112878752.0652       -481.246          37.000  
G30  21484724.520   112902990.9582       -481.818          30.000  
G10  21534832.481   113166305.7852       -480.670          31.000  
> 2019  6 16  0 42 59.0000000  0  8                     
G 1  21480416.148   112880348.1102       -481.086          38.000  
G 2  21480415.646   112880344.8902       -481.329          46.000  
G 4  21480418.771   112880359.3122       -481.174          47.000  
G 3  21480416.374   112880349.5762       -481.240          46.000  
G 5  21480189.778   112879157.4162       -481.216          44.000  
G 6  21480203.878   112879233.1162       -481.387          37.000  
G30  21484818.729   112903483.9583       -481.738          30.000  
G10  21534924.132   113166786.8412       -481.115          30.000  
> 2019  6 16  0 43  0.0000000  0  8                     
G 1  21480507.772   112880829.2122       -480.732          38.000  
G 2  21480507.348   112880825.9962       -481.139          46.000  
G 4  21480510.404   112880840.4112       -480.991          47.000  
G 3  21480507.861   112880830.6842       -481.047          46.000  
G 5  21480281.363   112879638.5112       -481.066          43.000  
G 6  21480295.468   112879714.2422       -481.323          38.000  
G30  21484909.139   112903959.0992       -482.172          31.000  
G10  21535015.879   113167267.9452       -480.818          31.000  
> 2019  6 16  0 43  1.0000000  0  8                     
G 1  21480599.495   112881309.8411       -480.780          38.000  
G 2  21480599.139   112881307.108        -481.185          46.000  
G 4  21480602.183   112881321.532        -481.029          48.000  
G 3  21480599.586   112881311.2891       -481.082          47.000  
G 5  21480372.999   112880119.1181       -480.977          44.000  
G 6  21480386.938   112880194.8461       -481.183          38.000  
G30  21484999.657   112904435.1693       -481.681          31.000  
G10  21535107.486   113167748.5191       -480.450          31.000  
> 2019  6 16  0 43  2.0000000  0  8                     
G 1  21480691.438   112881790.942        -480.988          38.000  
G 2  21480690.817   112881788.189        -481.061          46.000  
G 4  21480693.919   112881802.623        -480.964          47.000  
G 3  21480691.283   112881792.382        -481.006          47.000  
G 5  21480464.586   112880600.216        -481.115          44.000  
G 6  21480478.203   112880675.948        -481.187          38.000  
G30  21485091.393   112904916.3022       -481.602          31.000  
G10  21535199.114   113168229.661        -480.836          31.000  
> 2019  6 16  0 43  3.0000000  0  8                     
G 1  21480783.296   112882272.007        -480.785          39.000  
G 2  21480782.484   112882269.276        -480.979          45.000  
G 4  21480785.498   112882283.696        -480.936          47.000  
G 3  21480782.938   112882273.449        -480.908          47.000  
G 5  21480556.191   112881081.298        -480.903          44.000  
G 6  21480569.720   112881157.020        -481.014          37.000  
G30  21485183.845   112905402.3193       -480.262          30.000  
G10  21535290.778   113168710.740        -480.717          31.000  
> 2019  6 16  0 43  4.0000000  0  8                     
G 1  21480874.972   112882753.122        -481.268          38.000  
G 2  21480874.267   112882750.379        -481.189          45.000  
G 4  21480877.145   112882764.797        -481.034          47.000  
G 3  21480874.522   112882754.554        -481.064          47.000  
G 5  21480647.825   112881562.399        -481.221          44.000  
G 6  21480661.283   112881638.114        -481.135          37.000  
G30  21485273.763   112905875.4492       -481.864          31.000  
G10  21535382.443   113169191.826        -481.270          31.000  
> 2019  6 16  0 43  5.0000000  0  8                     
G 1  21480966.518   112883234.251        -481.018          38.000  
G 2  21480965.927   112883231.509        -480.985          46.000  
G 4  21480968.861   112883245.933        -480.985          47.000  
G 3  21480966.133   112883235.688        -480.953          47.000  
G 5  21480739.438   112882047.0373       -481.118          44.000  
G 6  21480752.833   112882119.245        -481.093          37.000  
G30  21485366.135   112906356.5092       -480.501          29.000  
G10  21535474.272   113169672.940        -480.884          30.000  
> 2019  6 16  0 43  6.0000000  0  8                     
G 1  21481058.232   112883715.317        -481.158          38.000  
G 2  21481057.627   112883712.565        -481.230          45.000  
G 4  21481060.416   112883726.986        -481.106          47.000  
G 3  21481057.762   112883716.736        -480.966          47.000  
G 5  21480830.944   112882528.0922       -481.178          44.000  
G 6  21480844.443   112882600.305        -481.252          37.000  
G30  21485456.653   112906837.6412       -481.354          30.000  
G10  21535565.921   113170154.042        -481.277          31.000  
> 2019  6 16  0 43  7.0000000  0  8                     
G 1  21481150.017   112884196.554        -481.337          38.000  
G 2  21481149.126   112884193.801        -481.353          46.000  
G 4  21481152.195   112884208.222        -481.354          46.000  
G 3  21481149.478   112884197.974        -481.202          46.000  
G 5  21480922.611   112883008.8261       -481.306          44.000  
G 6  21480936.101   112883081.550        -481.259          37.000  
G30  21485548.625   112907318.869        -482.020          30.000  
G10  21535657.750   113170635.307        -481.782          31.000  
> 2019  6 16  0 43  8.0000000  0  8                     
G 1  21481241.761   112884677.743        -481.083          38.000  
G 2  21481240.831   112884675.000        -481.173          46.000  
G 4  21481243.712   112884689.407        -481.083          48.000  
G 3  21481241.148   112884679.167        -481.031          47.000  
G 5  21481014.178   112883490.019        -481.184          44.000  
G 6  21481027.773   112883562.742        -481.150          37.000  
G30  21485640.337   112907801.0593       -481.267          31.000  
G10  21535749.496   113171116.470        -481.217          31.000  
> 2019  6 16  0 43  9.0000000  0  8                     
G 1  21481333.627   112885158.844        -480.992          38.000  
G 2  21481332.412   112885156.100        -481.124          46.000  
G 4  21481335.376   112885170.518        -481.139          47.000  
G 3  21481332.806   112885160.274        -480.964          46.000  
G 5  21481105.777   112883971.122        -481.149          44.000  
G 6  21481119.311   112884043.822        -481.107          37.000  
G30  21485732.251   112908284.1532       -481.195          31.000  
G10  21535841.168   113171597.582        -481.530          31.000  
> 2019  6 16  0 43 10.0000000  0  8                     
G 1  21481425.290   112885640.025        -481.189          38.000  
G 2  21481424.109   112885637.281        -481.096          46.000  
G 4  21481427.075   112885651.706        -481.207          48.000  
G 3  21481424.458   112885641.463        -481.100          47.000  
G 5  21481197.419   112884452.321        -481.201          44.000  
G 6  21481210.939   112884525.010        -481.194          37.000  
G30  21485823.943   112908765.3342       -480.854          32.000  
G10  21535932.784   113172078.777        -481.477          31.000  
> 2019  6 16  0 43 11.0000000  0  8                     
G 1  21481516.922   112886121.252        -481.173          38.000  
G 2  21481515.795   112886118.516        -481.071          45.000  
G 4  21481518.761   112886132.942        -481.233          47.000  
G 3  21481516.015   112886122.699        -481.147          47.000  
G 5  21481289.030   112884933.550        -481.210          44.000  
G 6  21481302.641   112885006.235        -481.067          37.000  
G30  21485915.838   112909246.5872       -481.320          31.000  
G10  21536024.390   113172560.013        -481.372          31.000  
> 2019  6 16  0 43 12.0000000  0  8                     
G 1  21481608.430   112886602.567        -481.459          38.000  
G 2  21481607.446   112886599.825        -481.464          46.000  
G 4  21481610.465   112886614.242        -481.472          47.000  
G 3  21481607.726   112886604.008        -481.375          46.000  
G 5  21481380.593   112885414.850        -481.384          44.000  
G 6  21481394.495   112885487.541        -481.207          37.000  
G30  21486007.588   112909731.9083       -482.057          31.000  
G10  21536116.119   113173041.316        -481.985          31.000  
> 2019  6 16  0 43 13.0000000  0  8                     
G 1  21481700.063   112887083.892        -481.715          38.000  
G 2  21481699.076   112887081.133        -481.525          46.000  
G 4  21481702.159   112887095.545        -481.509          47.000  
G 3  21481699.337   112887085.306        -481.385          47.000  
G 5  21481472.278   112885896.166        -481.644          44.000  
G 6  21481486.213   112885968.852        -481.287          38.000  
G30  21486099.128   112910213.176        -481.321          32.000  
G10  21536207.750   113173522.626        -482.146          31.000  
> 2019  6 16  0 43 14.0000000  0  8                     
G 1  21481791.661   112887565.227        -481.484          38.000  
G 2  21481790.565   112887562.461        -481.212          45.000  
G 4  21481793.654   112887576.880        -481.294          47.000  
G 3  21481791.015   112887566.640        -481.251          47.000  
G 5  21481563.979   112886377.503        -481.295          44.000  
G 6  21481577.994   112886450.178        -481.136          38.000  
G30  21486190.728   112910694.482        -480.353          31.000  
G10  21536299.406   113174003.944        -481.163          31.000  
> 2019  6 16  0 43 15.0000000  0  8                     
G 1  21481883.315   112888046.404        -481.150          38.000  
G 2  21481882.306   112888043.654        -481.165          46.000  
G 4  21481885.076   112888058.067        -481.206          47.000  
G 3  21481882.588   112888047.827        -481.128          47.000  
G 5  21481655.633   112886858.686        -481.132          44.000  
G 6  21481669.636   112886931.364        -481.008          38.000  
G30  21486282.290   112911175.684        -480.896          32.000  
G10  21536391.170   113174485.138        -481.239          31.000  
> 2019  6 16  0 43 16.0000000  0  8                     
G 1  21481974.990   112888527.613        -481.404          38.000  
G 2  21481974.052   112888524.860        -481.370          46.000  
G 4  21481976.809   112888539.275        -481.301          47.000  
G 3  21481974.259   112888529.032        -481.260          47.000  
G 5  21481747.365   112887339.889        -481.315          44.000  
G 6  21481761.397   112887412.579        -481.063          38.000  
G30  21486373.882   112911655.9393       -482.050          32.000  
G10  21536482.744   113174966.350        -481.655          32.000  
> 2019  6 16  0 43 17.0000000  0  8                     
G 1  21482066.689   112889008.842        -481.265          38.000  
G 2  21482065.650   112889006.085        -481.083          46.000  
G 4  21482068.601   112889020.511        -481.174          47.000  
G 3  21482065.916   112889010.256        -481.031          46.000  
G 5  21481839.092   112887821.112        -481.182          44.000  
G 6  21481853.155   112887893.795        -480.991          37.000  
G30  21486465.647   112912138.1603       -481.422          31.000  
G10  21536574.406   113175447.548        -481.111          31.000  
> 2019  6 16  0 43 18.0000000  0  8                     
G 1  21482158.483   112889490.093        -481.777          38.000  
G 2  21482157.456   112889487.330        -481.323          46.000  
G 4  21482160.418   112889501.750        -481.356          48.000  
G 3  21482157.626   112889491.494        -481.294          47.000  
G 5  21481930.780   112888302.355        -481.373          44.000  
G 6  21481944.848   112888375.021        -481.019          37.000  
G30  21486557.299   112912619.3582       -481.375          31.000  
G10  21536665.955   113175928.785        -481.730          31.000  
> 2019  6 16  0 43 19.0000000  0  8                     
G 1  21482250.185   112889971.264        -481.121          38.000  
G 2  21482249.027   112889968.520        -481.102          45.000  
G 4  21482252.092   112889982.937        -481.083          47.000  
G 3  21482249.223   112889972.687        -481.069          46.000  
G 5  21482022.556   112888783.543        -481.018          44.000  
G 6  21482036.605   112888856.226        -480.975          37.000  
G30  21486648.881   112913100.527        -480.570          31.000  
G10  21536757.589   113176409.987        -480.975          31.000  
> 2019  6 16  0 43 20.0000000  0  8                     
G 1  21482341.779   112890452.429        -481.018          38.000  
G 2  21482340.679   112890449.686        -481.133          46.000  
G 4  21482343.693   112890464.103        -481.083          48.000  
G 3  21482340.718   112890453.859        -481.113          47.000  
G 5  21482114.213   112889264.705        -481.022          44.000  
G 6  21482128.385   112889337.388        -480.939          38.000  
G30  21486740.706   112913583.7703       -481.232          31.000  
G10  21536849.280   113176891.170        -481.041          31.000  
> 2019  6 16  0 43 21.0000000  0  8                     
G 1  21482433.411   112890933.587        -481.226          38.000  
G 2  21482432.338   112890930.845        -481.284          45.000  
G 4  21482435.305   112890945.266        -481.327          47.000  
G 3  21482432.305   112890935.023        -481.296          47.000  
G 5  21482205.904   112889745.873        -481.233          45.000  
G 6  21482220.092   112889818.553        -481.239          37.000  
G30  21486832.423   112914065.9403       -482.261          31.000  
G10  21536941.015   113177372.347        -481.501          31.000  
> 2019  6 16  0 43 22.0000000  0  8                     
G 1  21482525.072   112891414.902        -481.550          38.000  
G 2  21482524.041   112891412.150        -481.360          45.000  
G 4  21482526.976   112891426.572        -481.422          47.000  
G 3  21482523.975   112891416.323        -481.406          46.000  
G 5  21482297.609   112890227.173        -481.276          45.000  
G 6  21482311.856   112890299.858        -481.353          37.000  
G30  21486924.100   112914547.2272       -481.455          31.000  
G10  21537032.701   113177853.638        -481.373          31.000  
> 2019  6 16  0 43 23.0000000  0  8                     
G 1  21482616.818   112891896.274        -481.909          38.000  
G 2  21482615.726   112891893.514        -481.522          45.000  
G 4  21482618.821   112891907.929        -481.514          47.000  
G 3  21482615.746   112891897.684        -481.586          46.000  
G 5  21482389.346   112890708.533        -481.528          44.000  
G 6  21482403.552   112890781.222        -481.468          37.000  
G30  21487015.759   112915029.5313       -481.136          30.000  
G10  21537124.488   113178334.981        -481.763          31.000  
> 2019  6 16  0 43 24.0000000  0  8                     
G 1  21482708.604   112892377.695        -481.868          38.000  
G 2  21482707.540   112892374.930        -481.328          46.000  
G 4  21482710.463   112892389.339        -481.345          47.000  
G 3  21482707.449   112892379.091        -481.345          46.000  
G 5  21482481.080   112891189.943        -481.356          44.000  
G 6  21482495.310   112891262.632        -481.354          37.000  
G30  21487107.400   112915510.9832       -481.670          31.000  
G10  21537216.158   113178816.374        -481.459          31.000  
> 2019  6 16  0 43 25.0000000  0  8                     
G 1  21482800.318   112892859.118        -481.783          38.000  
G 2  21482799.312   112892856.368        -481.476          45.000  
G 4  21482802.236   112892870.785        -481.439          47.000  
G 3  21482799.169   112892860.537        -481.519          46.000  
G 5  21482572.742   112891671.389        -481.470          44.000  
G 6  21482586.968   112891744.078        -481.426          37.000  
G30  21487199.128   112915992.436        -482.013          30.000  
G10  21537307.830   113179297.842        -481.603          31.000  
> 2019  6 16  0 43 26.0000000  0  8                     
G 1  21482892.010   112893340.461        -481.635          39.000  
G 2  21482891.041   112893337.719        -481.415          45.000  
G 4  21482893.918   112893352.132        -481.388          47.000  
G 3  21482890.899   112893341.887        -481.461          46.000  
G 5  21482664.527   112892152.739        -481.483          44.000  
G 6  21482678.572   112892225.416        -481.394          37.000  
G30  21487290.693   112916473.703        -480.708          30.000  
G10  21537399.495   113179779.186        -481.589          31.000  
> 2019  6 16  0 43 27.0000000  0  8                     
G 1  21482983.753   112893821.847        -481.405          38.000  
G 2  21482982.668   112893819.097        -481.288          45.000  
G 4  21482985.655   112893833.516        -481.289          47.000  
G 3  21482982.542   112893823.263        -481.345          46.000  
G 5  21482756.249   112892634.129        -481.344          44.000  
G 6  21482770.351   112892706.801        -481.439          37.000  
G30  21487382.759   112916957.6103       -481.261          30.000  
G10  21537491.213   113180260.580        -481.382          31.000  
> 2019  6 16  0 43 28.0000000  0  8                     
G 1  21483075.408   112894303.147        -481.398          38.000  
G 2  21483074.359   112894300.388        -481.190          45.000  
G 4  21483077.192   112894314.810        -481.249          47.000  
G 3  21483074.224   112894304.556        -481.305          46.000  
G 5  21482847.809   112893115.412        -481.245          44.000  
G 6  21482862.001   112893188.109        -481.464          37.000  
G30  21487474.312   112917438.8802       -480.162          31.000  
G10  21537582.922   113180741.867        -481.195          31.000  
> 2019  6 16  0 43 29.0000000  0  8                     
G 1  21483167.154   112894784.441        -481.298          38.000  
G 2  21483166.089   112894781.664        -481.140          46.000  
G 4  21483168.905   112894796.082        -481.252          47.000  
G 3  21483166.021   112894785.836        -481.222          46.000  
G 5  21482939.484   112893596.687        -481.270          44.000  
G 6  21482953.636   112893669.375        -481.351          38.000  
G30  21487566.375   112917923.2022       -481.955          31.000  
G10  21537674.652   113181223.119        -481.017          30.000  
> 2019  6 16  0 43 30.0000000  0  8                     
G 1  21483258.818   112895265.745        -481.271          38.000  
G 2  21483257.740   112895262.991        -481.171          45.000  
G 4  21483260.646   112895277.418        -481.265          47.000  
G 3  21483257.809   112895267.165        -481.287          46.000  
G 5  21483031.148   112894078.029        -481.282          43.000  
G 6  21483045.188   112894150.727        -481.467          38.000  
G30  21487658.089   112918404.5172       -480.903          31.000  
G10  21537766.306   113181704.479        -481.302          31.000  
> 2019  6 16  0 43 31.0000000  0  8                     
G 1  21483350.751   112895747.141        -481.436          38.000  
G 2  21483349.473   112895744.376        -481.348          45.000  
G 4  21483352.403   112895758.787        -481.549          47.000  
G 3  21483349.625   112895748.549        -481.514          46.000  
G 5  21483122.792   112894559.398        -481.510          44.000  
G 6  21483136.694   112894632.104        -481.575          38.000  
G30  21487748.493   112918885.3911       -480.917          31.000  
G10  21537858.026   113182185.849        -481.827          31.000  
> 2019  6 16  0 43 32.0000000  0  8                     
G 1  21483442.512   112896228.544        -481.373          38.000  
G 2  21483440.984   112896225.773        -481.300          45.000  
G 4  21483444.141   112896240.192        -481.439          47.000  
G 3  21483441.522   112896229.947        -481.316          47.000  
G 5  21483214.558   112895040.803        -481.385          43.000  
G 6  21483228.594   112895113.502        -481.461          37.000  
G30  21487839.108   112919356.3073       -481.660          31.000  
G10  21537949.729   113182667.246        -481.404          30.000  
> 2019  6 16  0 43 33.0000000  0  8                     
G 1  21483534.215   112896709.993        -481.578          38.000  
G 2  21483532.582   112896707.219        -481.259          45.000  
G 4  21483535.676   112896721.634        -481.473          47.000  
G 3  21483533.318   112896711.405        -481.552          47.000  
G 5  21483306.335   112895522.252        -481.364          44.000  
G 6  21483320.573   112895594.960        -481.390          37.000  
G30  21487935.386   112919861.7332       -480.454          30.000  
G10  21538041.424   113183148.692        -480.964          31.000  
> 2019  6 16  0 43 34.0000000  0  8                     
G 1  21483625.760   112897191.407        -481.255          38.000  
G 2  21483624.368   112897188.637        -481.178          45.000  
G 4  21483627.244   112897203.044        -481.367          47.000  
G 3  21483625.149   112897192.823        -481.455          47.000  
G 5  21483398.025   112896003.665        -481.338          44.000  
G 6  21483412.481   112896076.354        -481.366          37.000  
G30  21488024.336   112920329.1603       -481.084          30.000  
G10  21538132.995   113183630.116        -481.082          31.000  
> 2019  6 16  0 43 35.0000000  0  8                     
G 1  21483717.378   112897672.801        -481.614          38.000  
G 2  21483716.120   112897670.015        -481.334          45.000  
G 4  21483718.848   112897684.430        -481.525          47.000  
G 3  21483716.869   112897674.207        -481.595          47.000  
G 5  21483489.735   112896485.049        -481.560          44.000  
G 6  21483504.277   112896557.735        -481.373          37.000  
G30  21488115.134   112920806.5243       -481.527          30.000  
G10  21538224.701   113184111.495        -481.492          31.000  
> 2019  6 16  0 43 36.0000000  0  8                     
G 1  21483809.028   112898154.080        -481.097          38.000  
G 2  21483807.878   112898151.338        -481.312          45.000  
G 4  21483810.461   112898165.737        -481.378          47.000  
G 3  21483808.492   112898155.506        -481.301          47.000  
G 5  21483581.305   112896966.357        -481.301          44.000  
G 6  21483595.792   112897039.061        -481.366          37.000  
G30  21488208.348   112921287.9292       -482.859          30.000  
G10  21538316.372   113184592.832        -481.654          31.000  
> 2019  6 16  0 43 37.0000000  0  8                     
G 1  21483900.481   112898658.3023       -480.815          38.000  
G 2  21483899.595   112898653.5753       -481.143          45.000  
G 4  21483902.057   112898666.9753       -481.110          47.000  
G 3  21483900.102   112898656.2493       -481.199          47.000  
G 5  21483672.959   112897463.0923       -481.133          44.000  
G 6  21483687.361   112897538.3003       -481.157          38.000  
G30  21488299.612   112921776.1343       -481.326          30.000  
G10  21538407.850   113185097.0763       -481.439          31.000  
> 2019  6 16  0 43 38.0000000  0  8                     
G 1  21483991.963   112899139.6222       -480.869          38.000  
G 2  21483991.324   112899135.9002       -481.421          45.000  
G 4  21483993.756   112899148.3042       -481.355          47.000  
G 3  21483991.815   112899138.5772       -481.442          47.000  
G 5  21483764.635   112897944.4162       -481.335          44.000  
G 6  21483778.800   112898018.6272       -481.355          38.000  
G30  21488391.765   112922260.5012       -482.664          30.000  
G10  21538499.510   113185578.3962       -481.688          31.000  
> 2019  6 16  0 43 39.0000000  0  8                     
G 1  21484083.622   112899620.8782       -480.830          38.000  
G 2  21484083.017   112899617.1492       -481.355          45.000  
G 4  21484085.506   112899629.5472       -481.222          47.000  
G 3  21484083.447   112899619.8232       -481.388          46.000  
G 5  21483856.277   112898425.6652       -481.257          44.000  
G 6  21483870.329   112898499.8832       -481.161          37.000  
G30  21488482.752   112922738.7663       -482.958          31.000  
G10  21538591.175   113186059.6542       -481.680          31.000  
> 2019  6 16  0 43 40.0000000  0  8                     
G 1  21484175.283   112900102.1082       -480.535          38.000  
G 2  21484174.690   112900098.3982       -481.246          45.000  
G 4  21484177.201   112900110.7932       -481.039          47.000  
G 3  21484175.002   112900101.0722       -481.198          46.000  
G 5  21483947.882   112898906.9072       -481.033          44.000  
G 6  21483961.986   112898981.1172       -481.157          37.000  
G30  21488574.584   112923220.9593       -481.693          31.000  
G10  21538682.838   113186540.8852       -481.062          31.000  
> 2019  6 16  0 43 41.0000000  0  8                     
G 1  21484266.801   112900583.3053       -481.061          38.000  
G 2  21484266.429   112900581.5693       -481.295          45.000  
G 4  21484268.850   112900593.9803       -481.301          46.000  
G 3  21484266.636   112900582.2563       -481.406          46.000  
G 5  21484039.497   112899389.0853       -481.248          44.000  
G 6  21484053.614   112899463.3033       -481.123          37.000  
G30  21488664.282   112923692.1673       -482.162          30.000  
G10  21538774.529   113187024.0703       -481.450          31.000  
> 2019  6 16  0 43 42.0000000  0  8                     
G 1  21484358.409   112901065.4412       -480.778          37.000  
G 2  21484357.981   112901062.7162       -481.045          46.000  
G 4  21484360.485   112901076.1272       -481.051          47.000  
G 3  21484358.230   112901064.4022       -481.147          46.000  
G 5  21484131.156   112899870.2362       -481.008          44.000  
G 6  21484145.189   112899944.4592       -481.125          37.000  
G30  21488756.212   112924175.3132       -481.705          30.000  
G10  21538866.274   113187506.2202       -481.429          31.000  
> 2019  6 16  0 43 43.0000000  0  8                     
G 1  21484449.885   112901545.6183       -481.072          38.000  
G 2  21484449.653   112901544.8773       -481.146          45.000  
G 4  21484452.193   112901558.2853       -481.060          47.000  
G 3  21484449.772   112901545.5553       -481.150          47.000  
G 5  21484222.808   112900352.3943       -481.116          44.000  
G 6  21484236.687   112900425.6143       -481.222          38.000  
G30  21488849.370   112924665.4623       -481.707          31.000  
G10  21538958.126   113187988.3543       -481.102          31.000  
> 2019  6 16  0 43 44.0000000  0  8                     
G 1  21484541.498   112902026.7592       -481.050          38.000  
G 2  21484541.294   112902026.0152       -481.233          45.000  
G 4  21484543.758   112902039.4202       -481.084          47.000  
G 3  21484541.352   112902026.6892       -481.194          47.000  
G 5  21484314.518   112900833.5272       -481.177          44.000  
G 6  21484328.331   112900906.7462       -481.248          38.000  
G30  21488940.661   112925144.5742       -481.339          31.000  
G10  21539049.848   113188469.4892       -481.029          31.000  
> 2019  6 16  0 43 45.0000000  0  8                     
G 1  21484633.291   112902507.9932       -481.346          38.000  
G 2  21484632.886   112902507.2382       -481.392          45.000  
G 4  21484635.624   112902520.6532       -481.349          46.000  
G 3  21484633.042   112902507.9172       -481.426          46.000  
G 5  21484406.178   112901314.7482       -481.298          44.000  
G 6  21484419.884   112901387.9702       -481.394          38.000  
G30  21489032.432   112925625.8192       -481.484          31.000  
G10  21539141.451   113188950.6912       -480.853          31.000  
> 2019  6 16  0 43 46.0000000  0  8                     
G 1  21484725.080   112902989.2482       -481.101          38.000  
G 2  21484724.473   112902988.5072       -481.301          44.000  
G 4  21484727.407   112903001.9192       -481.260          46.000  
G 3  21484724.767   112902989.1872       -481.305          46.000  
G 5  21484497.851   112901796.0222       -481.176          44.000  
G 6  21484511.435   112901869.2402       -481.431          37.000  
G30  21489125.084   112926114.0663       -481.246          30.000  
G10  21539233.100   113189431.9942       -481.191          31.000  
> 2019  6 16  0 43 47.0000000  0  8                     
G 1  21484816.729   112903470.4102       -481.094          38.000  
G 2  21484816.206   112903469.6732       -481.245          46.000  
G 4  21484818.969   112903483.0792       -481.177          46.000  
G 3  21484816.430   112903470.3442       -481.217          46.000  
G 5  21484589.508   112902277.1932       -481.206          44.000  
G 6  21484602.985   112902350.4122       -481.318          38.000  
G30  21489216.174   112926593.1633       -480.190          30.000  
G10  21539324.690   113189913.1402       -481.119          31.000  
> 2019  6 16  0 43 48.0000000  0  8                     
G 1  21484908.497   112903951.6712       -480.966          38.000  
G 2  21484907.881   112903950.9322       -481.069          45.000  
G 4  21484910.544   112903964.3422       -481.014          46.000  
G 3  21484908.100   112903951.6082       -481.112          45.000  
G 5  21484681.104   112902758.4442       -481.022          44.000  
G 6  21484694.605   112902831.6852       -481.549          37.000  
G30  21489307.538   112927072.4672       -480.350          30.000  
G10  21539416.373   113190394.4122       -480.959          31.000  
> 2019  6 16  0 43 49.0000000  0  8                     
G 1  21485000.109   112904433.012        -481.531          38.000  
G 2  21484999.559   112904432.266        -481.428          45.000  
G 4  21485002.147   112904445.666        -481.171          46.000  
G 3  21484999.747   112904432.4371       -481.289          46.000  
G 5  21484772.768   112903239.2821       -481.165          44.000  
G 6  21484786.200   112903312.992        -481.466          38.000  
G30  21489399.039   112927553.2871       -481.581          30.000  
G10  21539508.086   113190875.712        -480.773          31.000  
> 2019  6 16  0 43 50.0000000  0  8                     
G 1  21485091.766   112904914.156        -480.935          38.000  
G 2  21485091.288   112904913.414        -480.924          45.000  
G 4  21485093.816   112904926.818        -480.851          46.000  
G 3  21485091.436   112904913.601        -481.040          46.000  
G 5  21484864.436   112903720.422        -480.853          44.000  
G 6  21484877.787   112903794.142        -481.042          38.000  
G30  21489490.734   112928035.9213       -480.577          31.000  
G10  21539599.675   113191356.851        -480.594          31.000  
> 2019  6 16  0 43 51.0000000  0  8                     
G 1  21485183.262   112905395.248        -480.989          38.000  
G 2  21485182.874   112905394.508        -481.302          45.000  
G 4  21485185.526   112905407.911        -481.025          46.000  
G 3  21485183.147   112905394.696        -481.206          46.000  
G 5  21484956.183   112904201.516        -481.105          44.000  
G 6  21484969.386   112904275.233        -481.384          38.000  
G30  21489582.850   112928520.0192       -480.237          31.000  
G10  21539691.406   113191837.907        -480.127          31.000  
> 2019  6 16  0 43 52.0000000  0  8                     
G 1  21485274.844   112905876.293        -481.171          38.000  
G 2  21485274.432   112905875.546        -481.166          46.000  
G 4  21485277.163   112905888.951        -481.080          46.000  
G 3  21485274.771   112905875.728        -481.071          46.000  
G 5  21485047.947   112904682.558        -481.019          44.000  
G 6  21485061.099   112904756.275        -481.135          38.000  
G30  21489674.481   112929001.0652       -480.531          31.000  
G10  21539782.981   113192318.968        -479.998          30.000  
> 2019  6 16  0 43 53.0000000  0  8                     
G 1  21485366.472   112906357.371        -481.154          38.000  
G 2  21485366.058   112906356.612        -481.174          45.000  
G 4  21485368.896   112906370.032        -481.198          46.000  
G 3  21485366.397   112906356.792        -481.165          46.000  
G 5  21485139.655   112905163.636        -481.216          44.000  
G 6  21485152.806   112905237.339        -481.145          38.000  
G30  21489766.654   112929485.1373       -480.641          31.000  
G10  21539874.600   113192800.042        -480.474          30.000  
> 2019  6 16  0 43 54.0000000  0  8                     
G 1  21485458.233   112906838.482        -481.240          39.000  
G 2  21485457.755   112906837.744        -481.144          44.000  
G 4  21485460.580   112906851.141        -481.176          46.000  
G 3  21485457.983   112906837.921        -481.168          46.000  
G 5  21485231.389   112905644.757        -481.239          44.000  
G 6  21485244.610   112905718.477        -481.331          38.000  
G30  21489858.852   112929966.2792       -480.879          31.000  
G10  21539966.148   113193281.208        -481.233          30.000  
> 2019  6 16  0 43 55.0000000  0  8                     
G 1  21485550.185   112907319.708        -481.477          39.000  
G 2  21485549.408   112907318.942        -481.473          45.000  
G 4  21485552.406   112907332.353        -481.439          47.000  
G 3  21485549.631   112907319.118        -481.416          46.000  
G 5  21485323.085   112906125.950        -481.473          44.000  
G 6  21485336.242   112906203.6773       -481.520          38.000  
G30  21489949.119   112930444.4703       -481.042          31.000  
G10  21540057.779   113193762.404        -481.514          31.000  
> 2019  6 16  0 43 56.0000000  0  8                     
G 1  21485641.979   112907800.836        -481.115          39.000  
G 2  21485640.797   112907800.069        -481.039          45.000  
G 4  21485643.883   112907813.488        -481.044          46.000  
G 3  21485641.351   112907800.244        -480.957          46.000  
G 5  21485414.704   112906607.089        -481.085          44.000  
G 6  21485427.997   112906685.8123       -481.088          38.000  
G30  21490040.641   112930925.5903       -480.461          31.000  
G10  21540149.338   113194243.536        -480.861          32.000  
> 2019  6 16  0 43 57.0000000  0  8                     
G 1  21485733.720   112908282.024        -481.213          37.000  
G 2  21485732.573   112908281.281        -481.327          45.000  
G 4  21485735.584   112908294.703        -481.228          46.000  
G 3  21485733.037   112908281.457        -481.129          46.000  
G 5  21485506.343   112907088.296        -481.349          44.000  
G 6  21485519.645   112907167.0102       -481.218          38.000  
G30  21490132.786   112931406.8072       -480.652          31.000  
G10  21540240.975   113194724.728        -481.115          32.000  
> 2019  6 16  0 43 58.0000000  0  8                     
G 1  21485825.357   112908763.198        -481.395          37.000  
G 2  21485824.084   112908762.448        -481.360          45.000  
G 4  21485827.036   112908775.847        -481.224          46.000  
G 3  21485824.659   112908762.603        -481.073          46.000  
G 5  21485598.041   112907569.443        -481.035          44.000  
G 6  21485611.341   112907649.1042       -480.344          37.000  
G30  21490224.937   112931887.8752       -479.578          32.000  
G10  21540332.684   113195205.907        -481.062          32.000  
> 2019  6 16  0 43 59.0000000  0  8                     
G 1  21485916.861   112909244.249        -481.316          37.000  
G 2  21485915.656   112909243.518        -481.252          45.000  
G 4  21485918.684   112909256.921        -481.060          46.000  
G 3  21485916.327   112909243.666        -480.840          46.000  
G 5  21485689.602   112908050.519        -481.122          44.000  
G 6  21485702.981   112908131.2283       -480.819          38.000  
G30  21490315.434   112932369.0183       -480.446          31.000  
G10  21540424.349   113195687.002        -481.472          31.000  
> 2019  6 16  0 44  0.0000000  0  8                     
G 1  21486008.378   112909725.317        -481.051          38.000  
G 2  21486007.385   112909724.565        -481.132          45.000  
G 4  21486010.434   112909737.976        -481.051          46.000  
G 3  21486007.954   112909724.727        -480.846          46.000  
G 5  21485781.164   112908531.564        -481.052          44.000  
G 6  21485794.425   112908612.2722       -480.775          37.000  
G30  21490407.071   112932850.1302       -481.267          30.000  
G10  21540516.050   113196168.030        -481.078          31.000  
> 2019  6 16  0 44  1.0000000  0  8                     
G 1  21486099.987   112910206.258        -480.966          38.000  
G 2  21486099.245   112910205.529        -481.229          45.000  
G 4  21486101.968   112910218.927        -481.007          46.000  
G 3  21486099.633   112910205.673        -480.809          45.000  
G 5  21485872.770   112909012.535        -481.031          44.000  
G 6  21485886.089   112909093.230        -480.867          37.000  
G30  21490498.770   112933330.5471       -480.759          30.000  
G10  21540607.603   113196648.991        -480.938          31.000  
> 2019  6 16  0 44  2.0000000  0  8                     
G 1  21486191.672   112910687.263        -481.016          38.000  
G 2  21486190.861   112910686.525        -480.956          45.000  
G 4  21486193.635   112910699.930        -480.919          46.000  
G 3  21486191.221   112910686.681        -480.796          46.000  
G 5  21485964.417   112909493.527        -481.027          44.000  
G 6  21485977.793   112909574.219        -480.552          37.000  
G30  21490590.437   112933811.544        -481.061          31.000  
G10  21540699.178   113197129.972        -480.737          31.000  
> 2019  6 16  0 44  3.0000000  0  8                     
G 1  21486283.182   112911168.182        -480.933          38.000  
G 2  21486282.492   112911167.433        -480.803          45.000  
G 4  21486285.335   112911180.850        -480.958          46.000  
G 3  21486282.827   112911167.606        -480.861          46.000  
G 5  21486055.997   112909974.443        -480.999          44.000  
G 6  21486069.417   112910055.148        -480.714          37.000  
G30  21490681.994   112934292.493        -481.168          31.000  
G10  21540790.803   113197610.889        -480.626          31.000  
> 2019  6 16  0 44  4.0000000  0  8                     
G 1  21486374.794   112911649.131        -481.141          38.000  
G 2  21486374.218   112911648.372        -480.884          45.000  
G 4  21486376.994   112911661.794        -481.007          46.000  
G 3  21486374.489   112911648.547        -480.938          46.000  
G 5  21486147.586   112910455.383        -481.053          44.000  
G 6  21486160.983   112910536.088        -480.775          37.000  
G30  21490773.722   112934777.9283       -480.659          31.000  
G10  21540882.350   113198091.831        -480.731          31.000  
> 2019  6 16  0 44  5.0000000  0  8                     
G 1  21486466.473   112912130.176        -480.939          38.000  
G 2  21486465.734   112912129.419        -480.776          45.000  
G 4  21486468.528   112912142.848        -480.846          46.000  
G 3  21486466.109   112912129.587        -480.847          45.000  
G 5  21486239.227   112910936.433        -480.941          44.000  
G 6  21486252.643   112911017.139        -480.750          36.000  
G30  21490865.379   112935258.9642       -480.856          30.000  
G10  21540974.110   113198572.898        -480.586          31.000  
> 2019  6 16  0 44  6.0000000  0  8                     
G 1  21486557.872   112912611.169        -481.152          38.000  
G 2  21486557.338   112912610.429        -480.997          44.000  
G 4  21486560.270   112912623.864        -481.143          46.000  
G 3  21486557.803   112912610.602        -480.919          45.000  
G 5  21486330.804   112911417.462        -481.217          44.000  
G 6  21486344.282   112911498.155        -480.887          37.000  
G30  21490957.124   112935739.9932       -481.124          30.000  
G10  21541065.737   113199053.918        -481.289          31.000  
> 2019  6 16  0 44  7.0000000  0  8                     
G 1  21486649.308   112913092.122        -480.895          38.000  
G 2  21486648.870   112913091.370        -480.856          45.000  
G 4  21486651.946   112913104.806        -480.958          47.000  
G 3  21486649.443   112913091.553        -480.897          46.000  
G 5  21486422.371   112911898.413        -481.046          44.000  
G 6  21486435.848   112911979.108        -480.886          38.000  
G30  21491049.000   112936224.4203       -481.339          31.000  
G10  21541157.272   113199534.872        -481.584          31.000  
> 2019  6 16  0 44  8.0000000  0  8                     
G 1  21486740.923   112913573.141        -481.251          38.000  
G 2  21486740.398   112913572.405        -481.179          45.000  
G 4  21486743.608   112913585.829        -481.173          46.000  
G 3  21486741.145   112913572.580        -481.189          46.000  
G 5  21486513.969   112912379.431        -481.183          44.000  
G 6  21486527.650   112912460.124        -481.128          38.000  
G30  21491140.619   112936705.4573       -481.301          31.000  
G10  21541248.926   113200015.876        -481.362          31.000  
> 2019  6 16  0 44  9.0000000  0  8                     
G 1  21486832.564   112914054.137        -480.596          37.000  
G 2  21486832.065   112914053.396        -480.876          44.000  
G 4  21486835.240   112914066.820        -480.850          46.000  
G 3  21486832.829   112914053.578        -480.966          46.000  
G 5  21486605.488   112912860.428        -480.802          44.000  
G 6  21486619.232   112912941.120        -480.662          38.000  
G30  21491233.370   112937193.4272       -481.063          31.000  
G10  21541340.476   113200496.870        -480.989          31.000  
> 2019  6 16  0 44 10.0000000  0  8                     
G 1  21486924.272   112914535.151        -480.726          37.000  
G 2  21486923.653   112914534.415        -480.981          45.000  
G 4  21486926.966   112914547.840        -481.039          46.000  
G 3  21486924.529   112914534.589        -481.143          45.000  
G 5  21486697.120   112913341.442        -480.961          44.000  
G 6  21486710.911   112913422.138        -480.885          38.000  
G30  21491324.029   112937674.4722       -481.119          31.000  
G10  21541432.039   113200977.888        -480.946          31.000  
> 2019  6 16  0 44 11.0000000  0  8                     
G 1  21487015.847   112915016.098        -480.801          35.000  
G 2  21487015.228   112915015.344        -480.950          43.000  
G 4  21487018.418   112915028.776        -481.067          45.000  
G 3  21487016.185   112915015.526        -481.187          45.000  
G 5  21486788.722   112913822.374        -481.011          42.000  
G 6  21486802.566   112913903.065        -481.045          35.000  
G30  21491415.723   112938151.4223       -482.065          30.000  
G10  21541523.688   113201458.819        -480.728          31.000  
> 2019  6 16  0 44 12.0000000  0  8                     
G 1  21487107.251   112915497.056        -480.753          36.000  
G 2  21487106.825   112915496.303        -480.757          44.000  
G 4  21487109.854   112915509.733        -480.833          47.000  
G 3  21487107.787   112915496.490        -481.060          46.000  
G 5  21486880.363   112914303.341        -480.797          43.000  
G 6  21486894.214   112914384.030        -480.918          37.000  
G30  21491507.087   112938632.3672       -480.864          30.000  
G10  21541615.248   113201939.779        -480.286          31.000  
> 2019  6 16  0 44 13.0000000  0  8                     
G 1  21487198.886   112915978.086        -481.025          36.000  
G 2  21487198.532   112915977.325        -480.988          44.000  
G 4  21487201.424   112915990.749        -481.046          47.000  
G 3  21487199.314   112915977.500        -481.125          45.000  
G 5  21486972.017   112914784.354        -480.957          43.000  
G 6  21486986.020   112914865.047        -481.064          37.000  
G30  21491597.864   112939113.360        -480.757          30.000  
G10  21541706.822   113202420.782        -481.038          31.000  
> 2019  6 16  0 44 14.0000000  0  7                     
G 1  21487290.894   112916459.021        -481.034          39.000  
G 2  21487290.009   112916458.251        -481.075          46.000  
G 4  21487293.189   112916471.683        -481.239          47.000  
G 3  21487290.872   112916458.429        -481.228          47.000  
G 5  21487063.619   112915265.276        -481.052          46.000  
G 6  21487077.734   112915345.978        -481.193          39.000  
G10  21541798.420   113202901.706        -480.765          32.000  
> 2019  6 16  0 44 15.0000000  0  8                     
G 1  21487382.659   112916939.955        -480.807          38.000  
G 2  21487381.523   112916939.191        -480.785          44.000  
G 4  21487384.922   112916952.626        -480.903          45.000  
G 3  21487382.526   112916939.373        -480.900          46.000  
G 5  21487155.131   112915746.218        -480.743          44.000  
G 6  21487169.408   112915826.922        -480.865          38.000  
G30  21491782.203   112940077.2681       -481.248          32.000  
G10  21541890.106   113203382.648        -480.533          31.000  
> 2019  6 16  0 44 16.0000000  0  8                     
G 1  21487474.336   112917420.865        -480.847          38.000  
G 2  21487473.200   112917420.121        -481.072          45.000  
G 4  21487476.650   112917433.535        -480.991          45.000  
G 3  21487474.191   112917420.291        -481.104          46.000  
G 5  21487246.772   112916227.138        -480.892          44.000  
G 6  21487260.996   112916307.841        -481.084          38.000  
G30  21491873.541   112940557.1473       -480.922          32.000  
G10  21541981.741   113203863.587        -480.828          31.000  
> 2019  6 16  0 44 17.0000000  0  8                     
G 1  21487566.007   112917901.818        -480.787          38.000  
G 2  21487564.980   112917901.082        -480.972          44.000  
G 4  21487568.182   112917914.492        -480.996          45.000  
G 3  21487565.856   112917901.242        -480.923          45.000  
G 5  21487338.418   112916708.098        -480.867          44.000  
G 6  21487352.690   112916788.804        -481.013          37.000  
G30  21491965.097   112941038.1492       -481.138          31.000  
G10  21542073.443   113204344.555        -480.996          31.000  
> 2019  6 16  0 44 18.0000000  0  8                     
G 1  21487657.647   112918382.841        -480.878          38.000  
G 2  21487656.655   112918382.108        -481.101          45.000  
G 4  21487659.720   112918395.520        -481.219          45.000  
G 3  21487657.574   112918382.263        -481.193          45.000  
G 5  21487429.997   112917189.134        -481.162          43.000  
G 6  21487444.340   112917269.820        -481.230          37.000  
G30  21492056.758   112941520.1703       -481.587          30.000  
G10  21542165.124   113204825.578        -481.237          31.000  
> 2019  6 16  0 44 19.0000000  0  8                     
G 1  21487749.203   112918863.952        -480.813          38.000  
G 2  21487748.317   112918863.229        -481.134          44.000  
G 4  21487751.196   112918876.623        -481.118          45.000  
G 3  21487749.218   112918863.398        -481.194          45.000  
G 5  21487521.611   112917670.248        -481.190          43.000  
G 6  21487536.018   112917750.950        -481.237          37.000  
G30  21492149.635   112942008.2832       -481.176          30.000  
G10  21542256.853   113205306.682        -480.973          30.000  
> 2019  6 16  0 44 20.0000000  0  8                     
G 1  21487840.772   112919345.093        -481.150          38.000  
G 2  21487839.998   112919344.361        -481.376          44.000  
G 4  21487842.712   112919357.745        -481.161          45.000  
G 3  21487840.804   112919344.512        -481.248          45.000  
G 5  21487613.225   112918151.370        -481.229          43.000  
G 6  21487627.626   112918232.078        -481.450          37.000  
G30  21492240.407   112942485.3823       -481.471          31.000  
G10  21542348.516   113205787.772        -480.558          30.000  
> 2019  6 16  0 44 21.0000000  0  8                     
G 1  21487932.349   112919826.264        -481.056          38.000  
G 2  21487931.647   112919825.514        -481.080          44.000  
G 4  21487934.267   112919838.915        -480.948          45.000  
G 3  21487932.362   112919825.681        -481.050          45.000  
G 5  21487704.826   112918632.529        -481.187          43.000  
G 6  21487719.268   112918713.242        -481.340          37.000  
G30  21492331.741   112942966.5472       -480.867          31.000  
G10  21542440.169   113206268.934        -480.455          31.000  
> 2019  6 16  0 44 22.0000000  0  8                     
G 1  21488024.007   112920307.402        -481.219          38.000  
G 2  21488023.418   112920306.662        -481.273          44.000  
G 4  21488026.022   112920320.079        -481.259          45.000  
G 3  21488023.932   112920306.837        -481.273          45.000  
G 5  21487796.395   112919113.683        -481.294          43.000  
G 6  21487810.996   112919194.396        -481.573          38.000  
G30  21492423.824   112943447.7102       -481.212          31.000  
G10  21542531.729   113206750.075        -480.676          30.000  
> 2019  6 16  0 44 23.0000000  0  8                     
G 1  21488115.670   112920788.557        -481.288          38.000  
G 2  21488115.131   112920787.836        -481.267          45.000  
G 4  21488117.807   112920801.234        -481.278          46.000  
G 3  21488115.537   112920787.997        -481.344          46.000  
G 5  21487888.011   112919594.854        -481.295          44.000  
G 6  21487902.661   112919675.574        -481.827          37.000  
G30  21492515.216   112943928.8633       -481.053          31.000  
G10  21542623.473   113207231.225        -479.733          31.000  
> 2019  6 16  0 44 24.0000000  0  8                     
G 1  21488207.281   112921269.682        -481.151          38.000  
G 2  21488206.724   112921268.957        -481.326          45.000  
G 4  21488209.394   112921282.358        -481.240          46.000  
G 3  21488207.261   112921269.137        -481.409          46.000  
G 5  21487979.628   112920075.980        -481.332          44.000  
G 6  21487994.306   112920156.684        -481.457          37.000  
G30  21492607.094                        -474.658          30.000  
G10  21542715.117   113207712.412        -480.952          31.000  
> 2019  6 16  0 44 25.0000000  0  8                     
G 1  21488298.949   112921750.781        -480.878          39.000  
G 2  21488298.376   112921750.060        -481.136          45.000  
G 4  21488301.059   112921763.468        -481.105          46.000  
G 3  21488299.002   112921750.244        -481.226          46.000  
G 5  21488071.244   112920557.089        -480.994          44.000  
G 6  21488085.993   112920637.817        -481.310          38.000  
G30  21492697.763                        -479.248          29.000  
G10  21542806.846   113208193.509        -480.228          31.000  
> 2019  6 16  0 44 26.0000000  0  8                     
G 1  21488390.562   112922231.892        -481.136          39.000  
G 2  21488390.127   112922231.169        -481.191          45.000  
G 4  21488392.617   112922244.580        -481.270          46.000  
G 3  21488390.644   112922231.356        -481.329          46.000  
G 5  21488162.887   112921038.200        -481.333          43.000  
G 6  21488177.719   112921118.910        -481.554          38.000  
G30  21492790.040                        -480.078          30.000  
G10  21542898.555   113208674.633        -481.283          31.000  
> 2019  6 16  0 44 27.0000000  0  8                     
G 1  21488482.110   112922713.090        -481.226          38.000  
G 2  21488481.796   112922712.357        -481.105          45.000  
G 4  21488484.141   112922725.765        -481.129          46.000  
G 3  21488482.258   112922712.539        -481.251          46.000  
G 5  21488254.429   112921519.384        -481.161          44.000  
G 6  21488269.459   112921600.098        -481.396          38.000  
G30  21492881.947                        -478.320          30.000  
G10  21542990.238   113209155.798        -481.129          30.000  
> 2019  6 16  0 44 28.0000000  0  8                     
G 1  21488573.750   112923194.321        -481.250          38.000  
G 2  21488573.487   112923193.593        -481.204          45.000  
G 4  21488575.851   112923207.002        -481.154          46.000  
G 3  21488573.860   112923193.778        -481.321          45.000  
G 5  21488346.090   112922000.623        -481.237          43.000  
G 6  21488361.159   112922081.332        -481.361          37.000  
G30  21492973.094                        -478.711          30.000  
G10  21543081.942   113209637.019        -480.685          31.000  
> 2019  6 16  0 44 29.0000000  0  8                     
G 1  21488665.276   112923675.487        -481.134          38.000  
G 2  21488665.031   112923674.768        -481.219          45.000  
G 4  21488667.608   112923688.171        -481.090          46.000  
G 3  21488665.469   112923674.938        -481.132          46.000  
G 5  21488437.710   112922481.798        -481.160          43.000  
G 6  21488452.840   112922562.485        -480.925          38.000  
G30  21493064.442                        -481.006          30.000  
G10  21543173.609   113210118.172        -480.350          31.000  
> 2019  6 16  0 44 30.0000000  0  8                     
G 1  21488756.896   112924156.647        -480.930          39.000  
G 2  21488756.671   112924155.953        -481.290          45.000  
G 4  21488759.264   112924169.340        -481.031          46.000  
G 3  21488757.071   112924156.111        -481.119          46.000  
G 5  21488529.538   112922963.030        -481.099          41.000  
G 6  21488544.493   112923043.650        -480.801          37.000  
G30  21493156.501                        -479.102          30.000  
G10  21543265.167   113210599.324        -480.111          30.000  
> 2019  6 16  0 44 31.0000000  0  8                     
G 1  21488848.570   112924637.838        -481.398          39.000  
G 2  21488848.367   112924637.112        -481.333          45.000  
G 4  21488851.076   112924650.527        -481.338          46.000  
G 3  21488848.754   112924637.293        -481.340          46.000  
G 5  21488621.495   112923444.200        -481.407          41.000  
G 6  21488636.121   112923524.831        -481.195          38.000  
G30  21493248.502   112947782.6392       -481.352          29.000  
G10  21543356.759   113211080.528        -480.643          30.000  
> 2019  6 16  0 44 32.0000000  0  8                     
G 1  21488940.161   112925119.032        -481.227          38.000  
G 2  21488940.084   112925118.317        -481.123          45.000  
G 4  21488942.696   112925131.731        -481.255          46.000  
G 3  21488940.414   112925118.493        -481.200          46.000  
G 5  21488713.385   112923925.412        -481.177          41.000  
G 6  21488727.775   112924006.041        -481.022          37.000  
G30  21493340.114   112948263.8842       -481.556          30.000  
G10  21543448.465   113211561.729        -480.426          30.000  
> 2019  6 16  0 44 33.0000000  0  8                     
G 1  21489031.791   112925600.296        -481.349          38.000  
G 2  21489031.903   112925599.574        -481.074          45.000  
G 4  21489034.359   112925612.995        -481.339          46.000  
G 3  21489032.030   112925599.755        -481.296          46.000  
G 5  21488805.234   112924406.682        -481.235          41.000  
G 6  21488819.464   112924487.309        -481.128          37.000  
G30  21493431.952   112948745.1432       -481.241          31.000  
G10  21543540.121   113212042.983        -480.591          30.000  
> 2019  6 16  0 44 34.0000000  0  8                     
G 1  21489123.519   112926081.646        -481.431          38.000  
G 2  21489123.564   112926080.912        -481.333          45.000  
G 4  21489125.967   112926094.334        -481.439          46.000  
G 3  21489123.638   112926081.079        -481.293          46.000  
G 5  21488897.144   112924888.019        -481.456          40.000  
G 6  21488911.147   112924968.631        -481.234          38.000  
G30  21493522.778   112949226.4692       -481.632          31.000  
G10  21543631.664   113212524.335        -481.395          30.000  
> 2019  6 16  0 44 35.0000000  0  8                     
G 1  21489215.149   112926562.862        -481.224          38.000  
G 2  21489215.172   112926562.145        -481.248          45.000  
G 4  21489217.742   112926575.559        -481.306          45.000  
G 3  21489215.237   112926562.316        -481.217          46.000  
G 5  21488988.848   112925369.238        -481.245          41.000  
G 6  21489002.836   112925449.852        -480.985          37.000  
G30  21493614.962   112949708.7183       -481.982          31.000  
G10  21543723.425   113213005.602        -481.483          30.000  
> 2019  6 16  0 44 36.0000000  0  8                     
G 1  21489306.770   112927044.208        -481.635          39.000  
G 2  21489306.731   112927043.464        -481.443          45.000  
G 4  21489309.294   112927056.878        -481.511          46.000  
G 3  21489306.904   112927043.644        -481.401          46.000  
G 5  21489080.737   112925850.574        -481.522          41.000  
G 6  21489094.525   112925931.180        -481.028          38.000  
G30  21493706.869   112950190.0272       -481.094          31.000  
G10  21543815.106   113213486.981        -482.666          31.000  
> 2019  6 16  0 44 37.0000000  0  8                     
G 1  21489398.652   112927525.449        -481.508          39.000  
G 2  21489398.391   112927524.703        -481.421          45.000  
G 4  21489401.035   112927538.118        -481.239          46.000  
G 3  21489398.552   112927524.888        -481.217          46.000  
G 5  21489172.567   112926331.796        -481.128          41.000  
G 6  21489186.208   112926412.422        -481.011          38.000  
G30  21493799.272   112950670.7481       -481.298          31.000  
G10  21543906.847   113213968.201        -482.223          31.000  
> 2019  6 16  0 44 38.0000000  0  8                     
G 1  21489490.418   112928006.791        -481.565          39.000  
G 2  21489489.970   112928006.059        -481.367          45.000  
G 4  21489492.681   112928019.465        -481.295          46.000  
G 3  21489490.252   112928006.218        -481.172          46.000  
G 5  21489264.192   112926813.152        -481.248          41.000  
G 6  21489278.001   112926893.767        -481.008          38.000  
G30  21493890.563   112951156.6113       -481.221          31.000  
G10  21543998.656   113214449.568        -482.235          31.000  
> 2019  6 16  0 44 39.0000000  0  8                     
G 1  21489582.107   112928488.071        -482.045          39.000  
G 2  21489581.709   112928487.317        -481.445          45.000  
G 4  21489584.313   112928500.734        -481.467          46.000  
G 3  21489582.055   112928487.488        -481.382          46.000  
G 5  21489355.872   112927294.416        -481.488          41.000  
G 6  21489369.670   112927375.032        -481.511          37.000  
G30  21493981.915   112951637.8432       -480.977          31.000  
G10  21544090.388   113214930.789        -481.643          31.000  
> 2019  6 16  0 44 40.0000000  0  8                     
G 1  21489673.854   112928969.287        -481.560          39.000  
G 2  21489673.445   112928968.533        -481.354          45.000  
G 4  21489675.885   112928981.951        -481.223          46.000  
G 3  21489673.697   112928968.702        -481.064          46.000  
G 5  21489447.551   112927775.648        -481.449          42.000  
G 6  21489461.299   112927856.259        -481.009          38.000  
G30  21494073.514   112952118.0903       -480.944          31.000  
G10  21544181.977   113215412.041        -482.057          31.000  
> 2019  6 16  0 44 41.0000000  0  8                     
G 1  21489765.565   112929450.481        -481.183          39.000  
G 2  21489765.062   112929449.741        -481.041          45.000  
G 4  21489767.635   112929463.162        -480.842          46.000  
G 3  21489765.476   112929449.914        -480.844          46.000  
G 5  21489539.273   112928256.852        -480.936          41.000  
G 6  21489552.989   112928337.455        -480.878          38.000  
G30  21494165.016   112952599.2802       -480.900          32.000  
G10  21544273.577   113215893.245        -482.213          31.000  
> 2019  6 16  0 44 42.0000000  0  8                     
G 1  21489857.155   112929931.639        -481.415          39.000  
G 2  21489856.691   112929930.902        -481.138          45.000  
G 4  21489859.351   112929944.319        -481.104          46.000  
G 3  21489857.176   112929931.060        -481.073          46.000  
G 5  21489630.949   112928738.015        -481.102          41.000  
G 6  21489644.638   112928818.629        -481.359          38.000  
G30  21494256.646   112953080.4162       -480.529          31.000  
G10  21544365.248   113216374.400        -481.979          30.000  
> 2019  6 16  0 44 43.0000000  0  8                     
G 1  21489948.640   112930412.699        -481.345          39.000  
G 2  21489948.223   112930411.960        -481.069          45.000  
G 4  21489951.080   112930425.378        -481.049          46.000  
G 3  21489948.836   112930412.124        -481.071          46.000  
G 5  21489722.657   112929219.065        -481.118          42.000  
G 6  21489736.290   112929299.676        -480.903          38.000  
G30  21494348.261   112953561.4883       -480.671          31.000  
G10  21544456.908   113216855.491        -482.452          31.000  
> 2019  6 16  0 44 44.0000000  0  8                     
G 1  21490040.112   112930893.710        -481.052          39.000  
G 2  21490039.777   112930892.997        -481.200          45.000  
G 4  21490042.845   112930906.414        -481.147          46.000  
G 3  21490040.484   112930893.169        -481.234          46.000  
G 5  21489814.287   112929700.115        -481.007          41.000  
G 6  21489828.024   112929780.710        -481.193          38.000  
G30  21494439.879                        -479.701          32.000  
G10  21544548.660   113217336.522        -482.749          31.000  
> 2019  6 16  0 44 45.0000000  0  8                     
G 1  21490131.712   112931374.859        -481.246          39.000  
G 2  21490131.387   112931374.107        -481.202          45.000  
G 4  21490134.551   112931387.532        -481.254          46.000  
G 3  21490132.158   112931374.280        -481.223          46.000  
G 5  21489905.947   112930181.217        -481.018          41.000  
G 6  21489919.675   112930261.840        -481.392          38.000  
G30  21494531.440                        -476.855          31.000  
G10  21544640.280   113217817.630        -482.218          30.000  
> 2019  6 16  0 44 46.0000000  0  8                     
G 1  21490223.630   112931855.985        -481.145          39.000  
G 2  21490222.969   112931855.224        -481.184          45.000  
G 4  21490226.271   112931868.661        -481.130          45.000  
G 3  21490223.695   112931855.418        -481.202          46.000  
G 5  21489997.520   112930662.353        -480.958          41.000  
G 6  21490011.306   112930742.965        -481.226          38.000  
G30  21494622.859                        -475.977          31.000  
G10  21544731.951   113218298.749        -482.377          30.000  
> 2019  6 16  0 44 47.0000000  0  8                     
G 1  21490315.525   112932337.117        -481.001          39.000  
G 2  21490314.499   112932336.382        -481.233          45.000  
G 4  21490317.947   112932349.808        -481.113          45.000  
G 3  21490315.441   112932336.565        -481.182          45.000  
G 5  21490089.147   112931143.500        -481.020          41.000  
G 6  21490102.977   112931224.117        -481.488          37.000  
G30  21494714.605                        -473.438          30.000  
G10  21544823.574   113218779.905        -481.866          30.000  
> 2019  6 16  0 44 48.0000000  0  8                     
G 1  21490407.111   112932818.265        -481.067          38.000  
G 2  21490406.181   112932817.539        -481.255          45.000  
G 4  21490409.435   112932830.950        -481.018          46.000  
G 3  21490407.137   112932817.715        -481.173          46.000  
G 5  21490180.678   112931624.656        -481.079          41.000  
G 6  21490194.571   112931705.266        -481.577          37.000  
G30  21494805.337                        -478.760          30.000  
G10  21544915.254   113219261.053        -481.954          30.000  
> 2019  6 16  0 44 49.0000000  0  8                     
G 1  21490498.605   112933299.402        -481.241          39.000  
G 2  21490497.959   112933298.669        -481.403          45.000  
G 4  21490500.990   112933312.079        -481.200          46.000  
G 3  21490498.892   112933298.849        -481.299          46.000  
G 5  21490272.269   112932105.775        -481.038          40.000  
G 6  21490286.204   112932215.3823       -481.473          38.000  
G30  21494897.236                        -476.904          30.000  
G10  21545006.869   113219742.136        -481.247          30.000  
> 2019  6 16  0 44 50.0000000  0  8                     
G 1  21490590.042   112933780.428        -480.844          38.000  
G 2  21490589.509   112933779.702        -481.024          45.000  
G 4  21490592.596   112933793.114        -480.981          46.000  
G 3  21490590.526   112933779.878        -481.104          46.000  
G 5  21490363.973   112932586.820        -481.053          40.000  
G 6  21490377.900   112932697.4233       -481.306          38.000  
G30  21494988.544                        -476.514          31.000  
G10  21545098.520   113220223.178        -481.008          30.000  
> 2019  6 16  0 44 51.0000000  0  8                     
G 1  21490681.521   112934261.465        -480.808          38.000  
G 2  21490681.160   112934260.742        -480.984          45.000  
G 4  21490684.245   112934274.159        -480.945          46.000  
G 3  21490682.104   112934260.916        -481.069          46.000  
G 5  21490455.655   112933067.852        -480.848          41.000  
G 6  21490469.578   112933179.4322       -480.542          38.000  
G30  21495080.213                        -481.396          31.000  
G10  21545190.205   113220704.252        -481.202          30.000  
> 2019  6 16  0 44 52.0000000  0  8                     
G 1  21490773.177   112934742.448        -481.133          38.000  
G 2  21490772.785   112934741.716        -481.100          45.000  
G 4  21490775.921   112934755.153        -481.270          46.000  
G 3  21490773.744   112934741.908        -481.321          46.000  
G 5  21490547.303   112933548.838        -481.263          41.000  
G 6  21490561.287   112933661.4313       -481.204          38.000  
G30  21495171.679                        -478.809          30.000  
G10  21545281.860   113221185.241        -481.543          30.000  
> 2019  6 16  0 44 53.0000000  0  8                     
G 1  21490864.896   112935223.527        -480.641          39.000  
G 2  21490864.279   112935222.819        -480.947          45.000  
G 4  21490867.563   112935236.241        -480.986          45.000  
G 3  21490865.440   112935222.996        -481.022          46.000  
G 5  21490638.894   112934029.927        -480.712          41.000  
G 6  21490652.889   112934142.5222       -480.975          38.000  
G30  21495263.265                        -487.451          30.000  
G10  21545373.544   113221666.287        -480.686          30.000  
> 2019  6 16  0 44 54.0000000  0  8                     
G 1  21490956.647   112935704.582        -480.857          39.000  
G 2  21490956.054   112935703.848        -481.128          45.000  
G 4  21490959.299   112935717.278        -481.306          45.000  
G 3  21490957.190   112935704.012        -481.245          46.000  
G 5  21490730.641   112934510.962        -481.053          41.000  
G 6  21490744.496   112934623.5742       -481.016          38.000  
G30  21495355.229                        -480.713          31.000  
G10  21545465.189   113222147.358        -481.523          31.000  
> 2019  6 16  0 44 55.0000000  0  8                     
G 1  21491048.500   112936185.520        -480.939          39.000  
G 2  21491047.738   112936184.780        -481.030          45.000  
G 4  21491050.862   112936198.207        -481.030          46.000  
G 3  21491048.701   112936184.966        -480.992          46.000  
G 5  21490822.256   112934991.890        -481.067          41.000  
G 6  21490836.093   112935104.515        -481.022          38.000  
G30  21495446.960                        -487.256          31.000  
G10  21545556.763   113222628.287        -481.527          31.000  
> 2019  6 16  0 44 56.0000000  0  8                     
G 1  21491140.300   112936666.385        -480.837          39.000  
G 2  21491139.291   112936665.626        -480.708          45.000  
G 4  21491142.458   112936679.056        -480.840          46.000  
G 3  21491140.245   112936665.802        -480.698          46.000  
G 5  21490913.936   112935472.753        -480.896          41.000  
G 6  21490927.714   112935585.360        -480.715          38.000  
G30  21495538.575                        -480.615          31.000  
G10  21545648.310   113223109.136        -481.178          30.000  
> 2019  6 16  0 44 57.0000000  0  8                     
G 1  21491231.840   112937147.284        -480.740          39.000  
G 2  21491230.980   112937146.547        -480.864          45.000  
G 4  21491233.964   112937159.969        -480.875          46.000  
G 3  21491231.834   112937146.711        -480.830          46.000  
G 5  21491005.479   112935953.654        -480.897          41.000  
G 6  21491019.349   112936066.269        -480.927          38.000  
G30  21495630.286                        -486.230          31.000  
G10  21545739.956   113223590.049        -480.907          30.000  
> 2019  6 16  0 44 58.0000000  0  8                     
G 1  21491323.364   112937628.264        -481.118          38.000  
G 2  21491322.460   112937627.527        -481.199          44.000  
G 4  21491325.585   112937640.953        -481.338          45.000  
G 3  21491323.431   112937627.701        -481.289          46.000  
G 5  21491097.111   112936434.650        -481.224          40.000  
G 6  21491110.920   112936547.269        -481.410          38.000  
G30  21495721.826                        -482.812          30.000  
G10  21545831.499   113224071.019        -481.169          30.000  
> 2019  6 16  0 44 59.0000000  0  8                     
G 1  21491414.806   112938109.382        -481.202          38.000  
G 2  21491413.965   112938108.646        -481.208          45.000  
G 4  21491417.141   112938122.064        -481.176          45.000  
G 3  21491415.055   112938108.821        -481.144          45.000  
G 5  21491188.806   112936915.762        -481.146          41.000  
G 6  21491202.615   112937028.403        -481.346          38.000  
G30  21495813.609                        -476.514          31.000  
G10  21545923.237   113224552.178        -481.527          31.000  
> 2019  6 16  0 45  0.0000000  0  8                     
G 1  21491506.450   112938590.571        -481.185          38.000  
G 2  21491505.620   112938589.820        -481.110          44.000  
G 4  21491508.795   112938603.244        -481.125          45.000  
G 3  21491506.712   112938589.997        -481.055          45.000  
G 5  21491280.495   112937396.947        -481.194          40.000  
G 6  21491294.268   112937509.575        -481.168          37.000  
G30  21495905.093   112961743.4142       -481.814          31.000  
G10  21546014.843   113225033.355        -482.034          30.000  
> 2019  6 16  0 45  1.0000000  0  8                     
G 1  21491598.024   112939071.660        -480.841          38.000  
G 2  21491597.310   112939070.932        -480.847          44.000  
G 4  21491600.355   112939084.349        -480.879          45.000  
G 3  21491598.416   112939071.107        -480.850          45.000  
G 5  21491372.120   112937878.052        -480.938          40.000  
G 6  21491385.906   112937990.677        -480.890          38.000  
G30  21495996.712   112962224.5172       -481.195          31.000  
G10  21546106.516   113225514.440        -481.243          30.000  
> 2019  6 16  0 45  2.0000000  0  8                     
G 1  21491689.666   112939552.582        -481.151          38.000  
G 2  21491689.011   112939551.863        -481.104          45.000  
G 4  21491692.104   112939565.278        -481.184          45.000  
G 3  21491690.014   112939552.034        -481.158          45.000  
G 5  21491463.757   112938358.978        -481.143          41.000  
G 6  21491477.562   112938471.585        -481.075          37.000  
G30  21496088.536   112962707.4093       -480.887          30.000  
G10  21546198.097   113225995.369        -481.393          30.000  
> 2019  6 16  0 45  3.0000000  0  8                     
G 1  21491781.222   112940033.495        -480.859          38.000  
G 2  21491780.636   112940032.781        -480.869          45.000  
G 4  21491783.638   112940046.198        -481.064          45.000  
G 3  21491781.636   112940032.962        -481.071          46.000  
G 5  21491555.297   112938839.897        -480.947          40.000  
G 6  21491569.223   112938952.536        -481.050          38.000  
G30  21496180.160   112963188.3802       -481.250          31.000  
G10  21546289.713   113226476.284        -480.677          30.000  
> 2019  6 16  0 45  4.0000000  0  8                     
G 1  21491872.733   112940514.533        -481.050          38.000  
G 2  21491872.263   112940513.772        -480.950          45.000  
G 4  21491875.140   112940527.208        -481.099          46.000  
G 3  21491873.217   112940513.959        -481.160          46.000  
G 5  21491646.867   112939320.896        -480.972          40.000  
G 6  21491660.992   112939433.546        -481.162          38.000  
G30  21496271.812   112963670.3633       -480.863          31.000  
G10  21546381.323   113226957.281        -480.681          30.000  
> 2019  6 16  0 45  5.0000000  0  8                     
G 1  21491964.406   112940995.399        -480.554          38.000  
G 2  21491963.844   112940994.676        -480.824          45.000  
G 4  21491966.756   112941008.103        -480.986          45.000  
G 3  21491964.834   112940994.853        -481.078          45.000  
G 5  21491738.413   112939801.809        -480.914          40.000  
G 6  21491752.682   112939914.425        -480.952          38.000  
G30  21496363.487   112964151.2992       -481.503          31.000  
G10  21546473.005   113227438.181        -480.601          30.000  
> 2019  6 16  0 45  6.0000000  0  8                     
G 1  21492056.030   112941476.235        -480.477          38.000  
G 2  21492055.345   112941475.496        -480.751          45.000  
G 4  21492058.404   112941488.919        -480.781          45.000  
G 3  21492056.366   112941475.675        -480.890          46.000  
G 5  21491829.973   112940282.626        -480.879          41.000  
G 6  21491844.355   112940395.255        -480.962          37.000  
G30  21496455.197   112964634.0723       -480.585          32.000  
G10  21546564.670   113227919.002        -480.690          30.000  
> 2019  6 16  0 45  7.0000000  0  8                     
G 1  21492147.768   112941957.158        -480.662          38.000  
G 2  21492147.059   112941956.433        -480.991          44.000  
G 4  21492150.076   112941969.855        -481.066          45.000  
G 3  21492147.933   112941956.617        -481.199          45.000  
G 5  21491921.597   112940763.560        -481.073          41.000  
G 6  21491936.080   112940876.188        -481.017          37.000  
G30  21496546.796   112965115.0293       -481.196          32.000  
G10  21546656.353   113228399.959        -481.108          30.000  
> 2019  6 16  0 45  8.0000000  0  8                     
G 1  21492239.490   112942438.095        -480.750          38.000  
G 2  21492238.675   112942437.352        -480.990          44.000  
G 4  21492241.698   112942450.784        -481.132          45.000  
G 3  21492239.533   112942437.545        -481.176          45.000  
G 5  21492013.213   112941244.473        -481.014          41.000  
G 6  21492027.731   112941357.105        -481.020          37.000  
G30  21496638.111                        -482.345          30.000  
G10  21546748.003   113228880.849        -480.602          30.000  
> 2019  6 16  0 45  9.0000000  0  8                     
G 1  21492331.285   112942919.150        -481.029          38.000  
G 2  21492330.232   112942918.403        -480.912          44.000  
G 4  21492333.308   112942931.830        -481.023          45.000  
G 3  21492331.127   112942918.584        -481.063          45.000  
G 5  21492104.860   112941725.522        -480.948          41.000  
G 6  21492119.425   112941838.152        -480.897          37.000  
G30  21496731.553   112966086.0452       -481.645          31.000  
G10  21546839.532   113229361.879        -480.035          31.000  
> 2019  6 16  0 45 10.0000000  0  8                     
G 1  21492423.108   112943400.243        -481.090          38.000  
G 2  21492421.910   112943399.498        -481.182          44.000  
G 4  21492424.939   112943412.917        -481.057          45.000  
G 3  21492422.750   112943399.682        -481.184          46.000  
G 5  21492196.591   112942206.611        -480.973          41.000  
G 6  21492211.132   112942319.240        -481.062          38.000  
G30  21496822.910   112966567.1052       -481.726          31.000  
G10  21546931.072   113229842.940        -479.742          30.000  
> 2019  6 16  0 45 11.0000000  0  8                     
G 1  21492514.852   112943881.267        -481.123          38.000  
G 2  21492513.501   112943880.527        -481.183          44.000  
G 4  21492516.449   112943893.939        -480.992          45.000  
G 3  21492514.321   112943880.702        -481.105          46.000  
G 5  21492288.195   112942687.636        -481.085          41.000  
G 6  21492302.749   112942800.254        -481.090          38.000  
G30  21496915.121   112967051.0953       -480.570          31.000  
G10  21547022.651   113230323.956        -479.365          31.000  
> 2019  6 16  0 45 12.0000000  0  8                     
G 1  21492606.488   112944362.200        -481.053          38.000  
G 2  21492605.087   112944361.454        -481.234          44.000  
G 4  21492607.866   112944374.866        -481.011          45.000  
G 3  21492605.932   112944361.630        -481.038          45.000  
G 5  21492379.803   112943168.563        -481.224          41.000  
G 6  21492394.452   112943281.174        -480.884          37.000  
G30  21497007.708                        -480.988          31.000  
G10  21547114.295   113230804.894        -479.741          30.000  
> 2019  6 16  0 45 13.0000000  0  8                     
G 1  21492698.089   112944843.192        -480.978          38.000  
G 2  21492696.622   112944842.460        -481.009          44.000  
G 4  21492699.357   112944855.871        -480.969          46.000  
G 3  21492697.449   112944842.637        -481.036          45.000  
G 5  21492471.476   112943649.572        -481.020          41.000  
G 6  21492486.077   112943762.188        -480.862          37.000  
G30  21497098.524   112968015.0592       -481.737          31.000  
G10  21547205.859   113231285.898        -479.825          30.000  
> 2019  6 16  0 45 14.0000000  0  8                     
G 1  21492789.647   112945324.048        -480.822          38.000  
G 2  21492788.257   112945323.303        -480.920          44.000  
G 4  21492791.105   112945336.717        -480.775          45.000  
G 3  21492789.093   112945323.478        -480.879          45.000  
G 5  21492563.067   112944130.399        -480.725          41.000  
G 6  21492577.651   112944243.042        -480.917          37.000  
G30  21497188.642   112968495.8792       -480.959          31.000  
G10  21547297.406   113231766.724        -479.545          30.000  
> 2019  6 16  0 45 15.0000000  0  8                     
G 1  21492881.141   112945804.894        -480.782          38.000  
G 2  21492879.903   112945804.160        -480.665          44.000  
G 4  21492882.831   112945817.574        -480.531          45.000  
G 3  21492880.705   112945804.335        -480.538          46.000  
G 5  21492654.749   112944611.280        -480.732          41.000  
G 6  21492669.210   112944723.893        -480.538          37.000  
G30  21497280.250   112968976.7212       -480.023          30.000  
G10  21547388.949   113232247.604        -479.701          30.000  
> 2019  6 16  0 45 16.0000000  0  8                     
G 1  21492972.915   112946285.744        -480.981          38.000  
G 2  21492971.588   112946285.012        -480.997          45.000  
G 4  21492974.620   112946298.402        -480.741          45.000  
G 3  21492972.363   112946285.169        -480.831          45.000  
G 5  21492746.271   112945092.131        -481.238          41.000  
G 6  21492760.761   112945204.714        -480.502          37.000  
G30  21497371.899   112969457.4902       -478.984          31.000  
G10  21547480.554   113232728.443        -479.929          31.000  
> 2019  6 16  0 45 17.0000000  0  8                     
G 1  21493064.491   112946766.648        -480.918          39.000  
G 2  21493063.296   112946765.937        -481.107          45.000  
G 4  21493066.230   112946779.344        -480.898          45.000  
G 3  21493064.048   112946766.108        -481.038          45.000  
G 5  21492837.842   112945573.068        -481.029          41.000  
G 6  21492852.397   112945701.6673       -480.962          37.000  
G30  21497463.995                        -460.596          30.000  
G10  21547572.108   113233209.404        -480.027          30.000  
> 2019  6 16  0 45 18.0000000  0  8                     
G 1  21493156.059   112947247.669        -481.250          39.000  
G 2  21493154.996   112947246.957        -481.348          45.000  
G 4  21493157.920   112947260.362        -481.179          45.000  
G 3  21493155.641   112947247.118        -481.263          45.000  
G 5  21492929.342   112946054.079        -481.404          40.000  
G 6  21492944.068   112946182.6642       -481.211          37.000  
G30  21497554.510                        -487.061          30.000  
G10  21547663.746   113233690.419        -480.787          30.000  
> 2019  6 16  0 45 19.0000000  0  8                     
G 1  21493247.560   112947728.750        -481.046          39.000  
G 2  21493246.547   112947728.034        -481.266          45.000  
G 4  21493249.493   112947741.439        -481.095          45.000  
G 3  21493247.161   112947728.211        -481.261          46.000  
G 5  21493020.958   112946535.156        -481.282          40.000  
G 6  21493035.758   112946663.782        -481.284          37.000  
G30  21497646.589                        -477.295          30.000  
G10  21547755.500   113234171.536        -481.356          30.000  
> 2019  6 16  0 45 20.0000000  0  8                     
G 1  21493338.944   112948209.886        -481.447          39.000  
G 2  21493338.189   112948209.160        -481.315          45.000  
G 4  21493341.164   112948222.564        -481.094          45.000  
G 3  21493338.818   112948209.336        -481.318          46.000  
G 5  21493112.622   112947016.280        -481.261          40.000  
G 6  21493127.436   112947144.885        -481.224          37.000  
G30  21497736.547   112971367.1793       -481.021          29.000  
G10  21547847.128   113234652.646        -481.319          29.000  
> 2019  6 16  0 45 21.0000000  0  8                     
G 1  21493430.517   112948690.959        -481.322          38.000  
G 2  21493429.823   112948690.236        -481.177          45.000  
G 4  21493432.875   112948703.642        -480.994          45.000  
G 3  21493430.375   112948690.406        -481.049          45.000  
G 5  21493204.171   112947497.358        -481.150          40.000  
G 6  21493219.093   112947625.963        -481.035          37.000  
G30  21497829.342   112971848.2622       -480.717          30.000  
G10  21547938.726   113235133.683        -480.271          30.000  
> 2019  6 16  0 45 22.0000000  0  8                     
G 1  21493522.070   112949172.072        -481.270          38.000  
G 2  21493521.511   112949171.362        -481.272          44.000  
G 4  21493524.648   112949184.767        -481.096          45.000  
G 3  21493522.069   112949171.530        -481.158          45.000  
G 5  21493295.824   112947978.478        -481.129          40.000  
G 6  21493310.714   112948107.080        -481.053          37.000  
G30  21497922.780   112972346.3833       -480.446          30.000  
G10  21548030.303   113235614.815        -481.066          30.000  
> 2019  6 16  0 45 23.0000000  0  8                     
G 1  21493613.732   112949653.237        -481.257          39.000  
G 2  21493613.175   112949652.534        -481.272          45.000  
G 4  21493616.350   112949665.933        -481.112          45.000  
G 3  21493613.708   112949652.691        -481.073          46.000  
G 5  21493387.513   112948459.649        -481.151          40.000  
G 6  21493402.436   112948588.258        -481.135          37.000  
G30  21498013.852   112972824.5053       -479.785          31.000  
G10  21548121.923   113236096.015        -481.140          30.000  
> 2019  6 16  0 45 24.0000000  0  8                     
G 1  21493705.353   112950134.370        -481.428          38.000  
G 2  21493704.882   112950133.653        -481.343          44.000  
G 4  21493708.059   112950147.059        -481.157          45.000  
G 3  21493705.430   112950133.822        -481.198          46.000  
G 5  21493479.173   112948940.770        -481.261          40.000  
G 6  21493494.189   112949069.377        -481.113          37.000  
G30  21498105.462                        -480.922          31.000  
G10  21548213.513   113236577.122        -481.681          30.000  
> 2019  6 16  0 45 25.0000000  0  8                     
G 1  21493796.968   112950615.577        -481.687          38.000  
G 2  21493796.623   112950614.861        -481.443          45.000  
G 4  21493799.595   112950628.264        -481.381          45.000  
G 3  21493797.119   112950615.023        -481.357          46.000  
G 5  21493570.884   112949421.980        -481.329          40.000  
G 6  21493585.881   112949550.592        -481.375          37.000  
G30  21498196.234   112973782.8932       -481.414          31.000  
G10  21548305.164   113237058.340        -481.844          30.000  
> 2019  6 16  0 45 26.0000000  0  8                     
G 1  21493888.424   112951096.761        -481.334          38.000  
G 2  21493888.272   112951096.051        -481.337          45.000  
G 4  21493891.249   112951109.451        -481.250          45.000  
G 3  21493888.712   112951096.218        -481.296          46.000  
G 5  21493662.474   112949903.166        -481.224          40.000  
G 6  21493677.676   112950031.777        -481.302          38.000  
G30  21498287.986                        -481.993          30.000  
G10  21548396.749   113237539.532        -481.227          30.000  
> 2019  6 16  0 45 27.0000000  0  8                     
G 1  21493979.997   112951578.016        -481.398          39.000  
G 2  21493979.918   112951577.302        -481.377          45.000  
G 4  21493982.823   112951590.705        -481.295          46.000  
G 3  21493980.390   112951577.469        -481.260          46.000  
G 5  21493754.213   112950384.422        -481.290          40.000  
G 6  21493769.453   112950513.028        -481.199          38.000  
G30  21498380.874   112974753.3513       -481.814          31.000  
G10  21548488.434   113238020.793        -481.448          30.000  
> 2019  6 16  0 45 28.0000000  0  8                     
G 1  21494071.520   112952059.262        -481.411          39.000  
G 2  21494071.577   112952058.538        -481.106          45.000  
G 4  21494074.289   112952071.944        -481.158          45.000  
G 3  21494072.038   112952058.702        -481.122          46.000  
G 5  21493845.841   112950865.659        -481.082          40.000  
G 6  21493861.180   112950994.262        -480.892          38.000  
G30  21498471.841   112975231.0912       -480.986          30.000  
G10  21548580.055   113238502.017        -481.459          30.000  
> 2019  6 16  0 45 29.0000000  0  8                     
G 1  21494163.247   112952540.349        -480.997          38.000  
G 2  21494163.194   112952539.637        -480.927          45.000  
G 4  21494166.002   112952553.039        -480.909          46.000  
G 3  21494163.672   112952539.803        -480.829          46.000  
G 5  21493937.366   112951346.753        -480.740          40.000  
G 6  21493952.891   112951475.351        -480.677          37.000  
G30  21498564.053   112975712.2032       -481.367          31.000  
G10  21548671.730   113238983.127        -481.445          30.000  
> 2019  6 16  0 45 30.0000000  0  8                     
G 1  21494254.888   112953021.488        -481.288          38.000  
G 2  21494254.787   112953020.775        -481.215          45.000  
G 4  21494257.745   112953034.186        -481.289          45.000  
G 3  21494255.401   112953020.940        -481.152          46.000  
G 5  21494029.050   112951827.893        -481.168          40.000  
G 6  21494044.573   112951956.502        -481.117          38.000  
G30  21498654.225                        -482.480          31.000  
G10  21548763.394   113239464.267        -481.785          30.000  
> 2019  6 16  0 45 31.0000000  0  8                     
G 1  21494346.720   112953502.711        -481.106          38.000  
G 2  21494346.541   112953501.991        -481.111          45.000  
G 4  21494349.366   112953515.404        -481.163          46.000  
G 3  21494347.110   112953502.167        -481.113          46.000  
G 5  21494120.739   112952309.116        -480.997          40.000  
G 6  21494136.222   112952437.717        -481.052          38.000  
G30  21498746.364   112976674.5443       -481.691          31.000  
G10  21548855.087   113239945.475        -481.655          30.000  
> 2019  6 16  0 45 32.0000000  0  8                     
G 1  21494438.415   112953983.927        -481.543          38.000  
G 2  21494438.178   112953983.212        -481.450          45.000  
G 4  21494441.215   112953996.626        -481.512          45.000  
G 3  21494438.836   112953983.375        -481.349          46.000  
G 5  21494212.527   112952790.319        -481.215          40.000  
G 6  21494227.971   112952918.924        -481.300          38.000  
G30  21498838.348   112977155.7892       -482.505          31.000  
G10  21548946.755   113240426.694        -481.574          30.000  
> 2019  6 16  0 45 33.0000000  0  8                     
G 1  21494530.103   112954465.199        -481.305          38.000  
G 2  21494529.813   112954464.478        -481.199          45.000  
G 4  21494532.763   112954477.891        -481.183          45.000  
G 3  21494530.470   112954464.644        -481.051          46.000  
G 5  21494304.183   112953271.590        -481.001          40.000  
G 6  21494319.660   112953400.194        -480.957          38.000  
G30  21498929.806   112977637.0512       -481.412          31.000  
G10  21549038.439   113240907.968        -481.545          30.000  
> 2019  6 16  0 45 34.0000000  0  8                     
G 1  21494621.743   112954946.486        -481.471          39.000  
G 2  21494621.394   112954945.767        -481.364          45.000  
G 4  21494624.231   112954959.179        -481.360          45.000  
G 3  21494622.056   112954945.926        -481.246          46.000  
G 5  21494395.770   112953752.876        -481.222          40.000  
G 6  21494411.416   112953881.492        -481.279          38.000  
G30  21499021.283   112978119.3513       -482.360          31.000  
G10  21549130.126   113241389.210        -480.446          30.000  
> 2019  6 16  0 45 35.0000000  0  8                     
G 1  21494713.283   112955427.739        -481.188          39.000  
G 2  21494713.016   112955427.036        -481.320          45.000  
G 4  21494715.960   112955440.445        -481.339          46.000  
G 3  21494713.682   112955427.195        -481.179          46.000  
G 5  21494487.486   112954234.147        -481.248          40.000  
G 6  21494503.161   112954362.761        -481.459          38.000  
G30  21499113.259   112978602.5993       -482.126          30.000  
G10  21549221.835   113241870.504        -481.300          30.000  
> 2019  6 16  0 45 36.0000000  0  8                     
G 1  21494805.034   112955909.071        -481.338          38.000  
G 2  21494804.667   112955908.349        -481.392          45.000  
G 4  21494807.730   112955921.771        -481.511          45.000  
G 3  21494805.308   112955908.522        -481.439          45.000  
G 5  21494579.115   112954715.469        -481.395          40.000  
G 6  21494594.845   112954844.095        -481.825          38.000  
G30  21499205.156   112979084.9002       -481.298          30.000  
G10  21549313.560   113242351.849        -482.001          30.000  
> 2019  6 16  0 45 37.0000000  0  8                     
G 1  21494896.740   112956390.361        -481.289          38.000  
G 2  21494896.351   112956389.650        -481.418          45.000  
G 4  21494899.417   112956403.064        -481.447          46.000  
G 3  21494896.931   112956389.818        -481.409          46.000  
G 5  21494670.827   112955196.775        -481.523          40.000  
G 6  21494686.580   112955325.393        -481.765          38.000  
G30  21499296.823   112979565.7491       -482.732          31.000  
G10  21549405.261   113242833.164        -482.128          30.000  
> 2019  6 16  0 45 38.0000000  0  8                     
G 1  21494988.544   112956871.664        -481.332          38.000  
G 2  21494988.176   112956870.937        -481.239          45.000  
G 4  21494991.154   112956884.357        -481.354          46.000  
G 3  21494988.654   112956871.107        -481.292          46.000  
G 5  21494762.481   112955678.056        -481.248          40.000  
G 6  21494778.371   112955806.673        -481.454          38.000  
G30  21499388.586   112980049.5583       -482.848          31.000  
G10  21549496.989   113243314.458        -482.349          30.000  
> 2019  6 16  0 45 39.0000000  0  8                     
G 1  21495080.284   112957352.913        -481.370          38.000  
G 2  21495079.889   112957352.193        -481.357          45.000  
G 4  21495082.989   112957365.604        -481.433          45.000  
G 3  21495080.333   112957352.364        -481.299          46.000  
G 5  21494854.066   112956159.299        -481.163          40.000  
G 6  21494870.123   112956287.926        -481.450          37.000  
G30  21499480.190   112980530.7763       -482.482          30.000  
G10  21549588.638   113243795.651        -481.750          30.000  
> 2019  6 16  0 45 40.0000000  0  8                     
G 1  21495172.171   112957834.262        -481.395          38.000  
G 2  21495171.631   112957833.535        -481.372          45.000  
G 4  21495174.479   112957846.941        -481.348          46.000  
G 3  21495172.081   112957833.701        -481.409          46.000  
G 5  21494945.664   112956640.655        -481.429          40.000  
G 6  21494961.893   112956769.261        -481.544          38.000  
G30  21499571.796   112981012.1072       -481.870          31.000  
G10  21549680.327   113244277.053        -482.177          30.000  
> 2019  6 16  0 45 41.0000000  0  8                     
G 1  21495263.867   112958315.535        -480.996          38.000  
G 2  21495263.371   112958314.815        -481.143          46.000  
G 4  21495266.171   112958328.219        -481.134          46.000  
G 3  21495263.626   112958314.992        -481.146          46.000  
G 5  21495037.290   112957121.936        -481.221          40.000  
G 6  21495053.619   112957250.549        -481.332          38.000  
G30  21499663.457   112981493.4082       -481.300          31.000  
G10  21549771.989   113244758.351        -482.372          30.000  
> 2019  6 16  0 45 42.0000000  0  8                     
G 1  21495355.703   112958796.707        -481.177          39.000  
G 2  21495355.009   112958795.989        -481.359          45.000  
G 4  21495357.766   112958809.387        -481.307          46.000  
G 3  21495355.229   112958796.159        -481.455          46.000  
G 5  21495128.840   112957603.101        -481.436          40.000  
G 6  21495145.352   112957731.734        -481.746          38.000  
G30  21499755.195   112981974.5652       -481.891          31.000  
G10  21549863.665   113245239.506        -482.318          30.000  
> 2019  6 16  0 45 43.0000000  0  8                     
G 1  21495447.493   112959277.960        -481.007          39.000  
G 2  21495446.617   112959277.228        -481.379          45.000  
G 4  21495449.363   112959290.636        -481.249          46.000  
G 3  21495446.915   112959277.400        -481.388          47.000  
G 5  21495220.371   112958084.335        -481.224          40.000  
G 6  21495237.119   112958212.968        -481.423          38.000  
G30  21499846.883   112982457.8503       -482.192          31.000  
G10  21549955.281   113245720.738        -481.948          30.000  
> 2019  6 16  0 45 44.0000000  0  8                     
G 1  21495539.150   112959759.183        -481.022          38.000  
G 2  21495538.154   112959758.469        -481.289          45.000  
G 4  21495541.022   112959771.875        -481.210          46.000  
G 3  21495538.611   112959758.645        -481.420          46.000  
G 5  21495311.907   112958565.593        -481.201          40.000  
G 6  21495328.908   112958694.210        -481.483          38.000  
G30  21499938.485   112982939.0652       -481.702          31.000  
G10  21550046.927   113246201.977        -481.770          30.000  
> 2019  6 16  0 45 45.0000000  0  8                     
G 1  21495630.821   112960240.521        -481.218          38.000  
G 2  21495629.941   112960239.804        -481.461          45.000  
G 4  21495632.768   112960253.202        -481.415          46.000  
G 3  21495630.341   112960239.968        -481.438          47.000  
G 5  21495403.515   112959046.918        -481.487          40.000  
G 6  21495420.743   112959175.548        -481.632          38.000  
G30  21500030.006   112983419.3563       -481.444          30.000  
G10  21550138.661   113246683.315        -481.976          30.000  
> 2019  6 16  0 45 46.0000000  0  8                     
G 1  21495722.692   112960721.921        -481.339          38.000  
G 2  21495721.759   112960721.180        -481.429          45.000  
G 4  21495724.427   112960734.595        -481.484          46.000  
G 3  21495722.079   112960721.353        -481.593          47.000  
G 5  21495495.206   112959528.309        -481.536          40.000  
G 6  21495512.537   112959656.925        -481.611          38.000  
G30  21500122.399   112983905.7813       -481.689          31.000  
G10  21550230.382   113247164.714        -481.985          30.000  
> 2019  6 16  0 45 47.0000000  0  8                     
G 1  21495814.481   112961203.247        -481.423          39.000  
G 2  21495813.527   112961202.515        -481.360          45.000  
G 4  21495816.159   112961215.930        -481.466          46.000  
G 3  21495813.850   112961202.695        -481.443          46.000  
G 5  21495586.865   112960009.639        -481.426          40.000  
G 6  21495604.262   112960138.238        -481.450          38.000  
G30  21500213.401   112984387.1112       -481.282          31.000  
G10  21550322.051   113247646.016        -481.685          30.000  
> 2019  6 16  0 45 48.0000000  0  8                     
G 1  21495906.322   112961684.576        -481.384          38.000  
G 2  21495905.217   112961683.833        -481.285          45.000  
G 4  21495907.891   112961697.246        -481.395          46.000  
G 3  21495905.483   112961684.008        -481.412          46.000  
G 5  21495678.498   112960490.952        -481.427          40.000  
G 6  21495695.962   112960619.572        -481.346          37.000  
G30  21500305.805   112984868.3832       -480.768          30.000  
G10  21550413.689   113248127.344        -481.761          30.000  
> 2019  6 16  0 45 49.0000000  0  8                     
G 1  21495998.068   112962165.949        -481.510          38.000  
G 2  21495996.743   112962165.189        -481.086          44.000  
G 4  21495999.599   112962178.606        -481.318          45.000  
G 3  21495997.258   112962165.374        -481.279          46.000  
G 5  21495770.087   112960972.318        -481.145          40.000  
G 6  21495787.600   112961100.923        -481.467          37.000  
G30  21500396.884   112985349.2701       -480.906          30.000  
G10  21550505.303   113248608.685        -480.942          30.000  
> 2019  6 16  0 45 50.0000000  0  8                     
G 1  21496089.810   112962647.289        -481.522          39.000  
G 2  21496088.453   112962646.543        -481.310          45.000  
G 4  21496091.370   112962659.959        -481.426          46.000  
G 3  21496088.957   112962646.707        -481.298          46.000  
G 5  21495861.704   112961453.658        -481.335          40.000  
G 6  21495879.372   112961582.265        -481.135          37.000  
G30  21500488.310   112985828.0853       -480.879          30.000  
G10  21550596.988   113249090.000        -481.285          30.000  
> 2019  6 16  0 45 51.0000000  0  8                     
G 1  21496181.342   112963128.513        -481.650          39.000  
G 2  21496180.152   112963127.764        -481.104          45.000  
G 4  21496183.021   112963141.181        -481.359          46.000  
G 3  21496180.552   112963127.939        -481.224          46.000  
G 5  21495953.444   112961934.897        -481.212          40.000  
G 6  21495971.126   112962063.506        -481.191          37.000  
G30  21500580.854   112986314.3133       -480.476          31.000  
G10  21550688.578   113249571.219        -480.521          30.000  
> 2019  6 16  0 45 52.0000000  0  8                     
G 1  21496272.847   112963609.874        -481.809          38.000  
G 2  21496271.918   112963609.133        -481.281          45.000  
G 4  21496274.704   112963685.5443       -481.456          46.000  
G 3  21496272.237   112963609.301        -481.342          46.000  
G 5  21496045.217   112962416.261        -481.454          40.000  
G 6  21496062.807   112962544.858        -481.143          38.000  
G30  21500673.030                        -481.580          32.000  
G10  21550780.317   113250052.605        -481.412          30.000  
> 2019  6 16  0 45 53.0000000  0  8                     
G 1  21496364.507   112964091.198        -481.559          38.000  
G 2  21496363.612   112964090.447        -481.292          45.000  
G 4  21496366.412   112964167.8592       -481.417          46.000  
G 3  21496363.974   112964090.620        -481.147          47.000  
G 5  21496136.939   112962897.565        -481.219          40.000  
G 6  21496154.542   112963026.175        -480.870          38.000  
G30  21500764.020   112987277.0342       -481.272          32.000  
G10  21550871.960   113250533.885        -479.971          30.000  
> 2019  6 16  0 45 54.0000000  0  8                     
G 1  21496456.212   112964572.526        -481.685          38.000  
G 2  21496455.134   112964571.772        -481.086          45.000  
G 4  21496457.999   112964649.1862       -481.273          46.000  
G 3  21496455.705   112964571.935        -481.177          47.000  
G 5  21496228.666   112963378.909        -481.172          40.000  
G 6  21496246.156   112963507.500        -481.003          38.000  
G30  21500855.328   112987757.3203       -480.737          31.000  
G10  21550963.548   113251015.236        -480.365          30.000  
> 2019  6 16  0 45 55.0000000  0  8                     
G 1  21496547.819   112965053.683        -481.678          38.000  
G 2  21496546.791   112965052.929        -481.055          45.000  
G 4  21496549.860   112965130.348        -481.385          47.000  
G 3  21496547.340   112965053.102        -481.249          47.000  
G 5  21496320.349   112963860.057        -481.228          40.000  
G 6  21496337.862   112963988.646        -481.105          38.000  
G30  21500946.279   112988234.5003       -481.378          30.000  
G10  21551055.165   113251496.402        -480.735          30.000  
> 2019  6 16  0 45 56.0000000  0  8                     
G 1  21496639.530   112965534.797        -481.501          38.000  
G 2  21496638.357   112965534.029        -480.948          45.000  
G 4  21496641.394   112965611.451        -481.174          46.000  
G 3  21496638.983   112965534.214        -481.107          47.000  
G 5  21496411.947   112964341.173        -481.190          40.000  
G 6  21496429.481   112964469.759        -480.977          38.000  
G30  21501038.226   112988717.5552       -480.280          31.000  
G10  21551146.692   113251977.468        -480.272          30.000  
> 2019  6 16  0 45 57.0000000  0  8                     
G 1  21496731.176   112966015.966        -481.293          38.000  
G 2  21496729.932   112966015.207        -480.988          45.000  
G 4  21496732.965   112966092.629        -481.155          47.000  
G 3  21496730.665   112966015.389        -481.119          47.000  
G 5  21496503.521   112964822.341        -481.088          40.000  
G 6  21496521.159   112964950.925        -480.963          38.000  
G30  21501129.862   112989198.7482       -480.939          31.000  
G10  21551238.345   113252458.689        -480.902          30.000  
> 2019  6 16  0 45 58.0000000  0  8                     
G 1  21496822.697   112966496.967        -481.384          38.000  
G 2  21496821.497   112966496.205        -480.953          45.000  
G 4  21496824.582   112966573.627        -481.118          47.000  
G 3  21496822.161   112966496.389        -481.089          47.000  
G 5  21496595.114   112965303.337        -481.093          40.000  
G 6  21496612.796   112965431.922        -480.980          37.000  
G30  21501221.466                        -487.207          30.000  
G10  21551330.022   113252939.675        -480.509          30.000  
> 2019  6 16  0 45 59.0000000  0  8                     
G 1  21496914.188   112966977.992        -481.079          38.000  
G 2  21496913.015   112966977.239        -480.774          45.000  
G 4  21496916.220   112967054.664        -480.939          47.000  
G 3  21496913.751   112966977.426        -480.924          46.000  
G 5  21496686.737   112965784.380        -480.934          40.000  
G 6  21496704.352   112965912.969        -480.873          37.000  
G30  21501311.901                        -473.730          30.000  
G10  21551421.653   113253420.701        -480.305          30.000  
> 2019  6 16  0 46  0.0000000  0  8                     
G 1  21497005.719   112967459.093        -481.150          38.000  
G 2  21497004.672   112967458.356        -481.130          45.000  
G 4  21497007.953   112967535.773        -481.237          47.000  
G 3  21497005.468   112967458.529        -481.267          47.000  
G 5  21496778.474   112966265.492        -481.158          40.000  
G 6  21496796.053   112966394.071        -480.925          38.000  
G30  21501403.768                        -486.475          30.000  
G10  21551513.270   113253901.813        -480.977          30.000  
> 2019  6 16  0 46  1.0000000  0  8                     
G 1  21497097.557   112967940.285        -481.105          38.000  
G 2  21497096.196   112967939.507        -481.094          45.000  
G 4  21497099.456   112968016.933        -481.107          46.000  
G 3  21497097.159   112967939.700        -481.116          46.000  
G 5  21496870.162   112966746.668        -481.082          40.000  
G 6  21496887.684   112966875.241        -480.948          37.000  
G30  21501495.654                        -476.855          30.000  
G10  21551604.974   113254382.989        -480.709          30.000  
> 2019  6 16  0 46  2.0000000  0  8                     
G 1  21497189.353   112968421.353        -481.013          38.000  
G 2  21497187.844   112968420.591        -480.924          45.000  
G 4  21497191.161   112968498.023        -481.116          47.000  
G 3  21497188.851   112968420.780        -481.068          47.000  
G 5  21496961.770   112967227.745        -481.221          39.000  
G 6  21496979.325   112967356.312        -480.922          38.000  
G30  21501587.158   112991603.1423       -480.542          31.000  
G10  21551696.627   113254864.044        -480.563          30.000  
> 2019  6 16  0 46  3.0000000  0  8                     
G 1  21497281.109   112968902.357        -481.034          38.000  
G 2  21497279.396   112968901.596        -481.190          46.000  
G 4  21497282.731   112968979.022        -481.189          47.000  
G 3  21497280.448   112968901.783        -481.250          47.000  
G 5  21497053.382   112967708.750        -481.459          39.000  
G 6  21497070.986   112967837.342        -481.228          38.000  
G30  21501678.869   112992084.1312       -480.369          31.000  
G10  21551788.167   113255345.062        -481.230          29.000  
> 2019  6 16  0 46  4.0000000  0  8                     
G 1  21497372.836   112969383.385        -481.104          39.000  
G 2  21497371.010   112969382.628        -480.944          45.000  
G 4  21497374.356   112969460.050        -481.007          47.000  
G 3  21497372.029   112969382.813        -481.149          47.000  
G 5  21497144.861   112968189.778        -481.454          39.000  
G 6  21497162.668   112968318.356        -481.079          37.000  
G30  21501770.678   112992567.1893       -481.102          30.000  
G10  21551879.798   113255826.109        -480.847          30.000  
> 2019  6 16  0 46  5.0000000  0  8                     
G 1  21497464.425   112969864.412        -481.117          38.000  
G 2  21497462.664   112969863.652        -481.113          46.000  
G 4  21497466.064   112969941.063        -481.073          47.000  
G 3  21497463.600   112969863.821        -481.102          47.000  
G 5  21497236.471   112968670.783        -481.248          40.000  
G 6  21497254.418   112968799.376        -480.753          38.000  
G30  21501862.313   112993048.1772       -480.725          30.000  
G10  21551971.369   113256307.132        -481.132          30.000  
> 2019  6 16  0 46  6.0000000  0  8                     
G 1  21497555.995   112970345.303        -480.696          38.000  
G 2  21497554.276   112970344.562        -480.912          46.000  
G 4  21497557.649   112970421.973        -480.884          48.000  
G 3  21497555.187   112970344.733        -480.840          47.000  
G 5  21497328.099   112969151.686        -480.889          40.000  
G 6  21497346.031   112969280.279        -480.676          38.000  
G30  21501953.934   112993529.0772       -480.729          31.000  
G10  21552062.980   113256788.030        -481.049          30.000  
> 2019  6 16  0 46  7.0000000  0  8                     
G 1  21497647.361   112970826.174        -480.782          38.000  
G 2  21497645.969   112970825.444        -480.907          46.000  
G 4  21497649.211   112970902.847        -480.881          47.000  
G 3  21497646.796   112970825.612        -480.916          47.000  
G 5  21497419.794   112969632.569        -480.988          40.000  
G 6  21497437.742   112969761.168        -480.892          38.000  
G30  21502045.656   112994011.9863       -481.250          31.000  
G10  21552154.538   113257268.907        -480.892          30.000  
> 2019  6 16  0 46  8.0000000  0  8                     
G 1  21497738.889   112971307.133        -480.894          38.000  
G 2  21497737.756   112971306.395        -481.151          46.000  
G 4  21497740.828   112971383.803        -480.822          48.000  
G 3  21497738.379   112971306.573        -480.876          47.000  
G 5  21497511.391   112970113.520        -480.828          40.000  
G 6  21497529.343   112970242.111        -480.876          38.000  
G30  21502137.366   112994492.9372       -480.343          31.000  
G10  21552246.209   113257749.885        -481.492          30.000  
> 2019  6 16  0 46  9.0000000  0  8                     
G 1  21497830.491   112971788.068        -481.144          39.000  
G 2  21497829.450   112971787.344        -481.284          46.000  
G 4  21497832.461   112971864.747        -481.027          48.000  
G 3  21497830.139   112971787.511        -481.187          47.000  
G 5  21497603.123   112970594.464        -481.139          40.000  
G 6  21497620.934   112970723.041        -481.283          38.000  
G30  21502228.982   112994973.8992       -481.105          32.000  
G10  21552337.786   113258230.833        -481.686          30.000  
> 2019  6 16  0 46 10.0000000  0  8                     
G 1  21497922.191   112972269.039        -480.969          39.000  
G 2  21497921.141   112972268.308        -481.132          46.000  
G 4  21497924.197   112972345.721        -480.959          48.000  
G 3  21497921.750   112972268.476        -481.071          47.000  
G 5  21497694.702   112971075.447        -480.879          39.000  
G 6  21497712.580   112971204.026        -481.230          38.000  
G30  21502320.664   112995454.8262       -480.592          32.000  
G10  21552429.460   113258711.773        -481.252          30.000  
> 2019  6 16  0 46 11.0000000  0  8                     
G 1  21498013.773   112972750.064        -480.883          39.000  
G 2  21498012.807   112972749.338        -481.147          46.000  
G 4  21498015.838   112972826.766        -481.057          47.000  
G 3  21498013.407   112972749.527        -481.255          47.000  
G 5  21497786.332   112971556.483        -481.035          41.000  
G 6  21497804.232   112971685.076        -481.104          38.000  
G30  21502412.330   112995935.8762       -480.598          32.000  
G10  21552521.198   113259192.829        -481.050          30.000  
> 2019  6 16  0 46 12.0000000  0  8                     
G 1  21498105.381   112973231.135        -480.961          39.000  
G 2  21498104.322   112973230.398        -480.901          45.000  
G 4  21498107.227   112973307.830        -481.017          47.000  
G 3  21498104.975   112973230.590        -481.191          46.000  
G 5  21497877.909   112972037.552        -480.936          41.000  
G 6  21497895.818   112972166.138        -481.179          37.000  
G30  21502504.783   112996424.8863       -479.946          30.000  
G10  21552612.895   113259673.902        -480.703          30.000  
> 2019  6 16  0 46 13.0000000  0  8                     
G 1  21498196.968   112973712.218        -481.160          39.000  
G 2  21498195.956   112973711.496        -481.237          46.000  
G 4  21498198.966   112973788.915        -481.282          47.000  
G 3  21498196.536   112973711.664        -481.194          47.000  
G 5  21497969.497   112972518.605        -481.027          41.000  
G 6  21497987.469   112972647.237        -481.525          38.000  
G30  21502597.103   112996905.5221       -481.094          31.000  
G10  21552704.504   113260154.943        -480.608          30.000  
> 2019  6 16  0 46 14.0000000  0  8                     
G 1  21498288.540   112974193.297        -481.234          39.000  
G 2  21498287.800   112974192.574        -481.313          46.000  
G 4  21498290.727   112974269.991        -481.207          47.000  
G 3  21498288.063   112974192.735        -481.272          47.000  
G 5  21498061.142   112972999.690        -481.136          41.000  
G 6  21498079.126   112973128.298        -481.385          38.000  
G30  21502688.763   112997386.617        -481.373          31.000  
G10  21552796.049   113260636.014        -480.643          30.000  
> 2019  6 16  0 46 15.0000000  0  8                     
G 1  21498380.213   112974674.391        -481.101          39.000  
G 2  21498379.459   112974673.670        -481.276          46.000  
G 4  21498382.501   112974751.084        -481.031          47.000  
G 3  21498379.611   112974673.828        -481.085          47.000  
G 5  21498152.824   112973480.775        -480.951          41.000  
G 6  21498170.826   112973609.385        -481.127          38.000  
G30  21502780.795   112997875.2913       -482.864          31.000  
G10  21552887.689   113261117.121        -481.055          30.000  
> 2019  6 16  0 46 16.0000000  0  8                     
G 1  21498471.844   112975155.365        -480.978          39.000  
G 2  21498471.331   112975154.660        -481.333          46.000  
G 4  21498474.286   112975232.066        -481.102          48.000  
G 3  21498471.252   112975154.814        -481.227          47.000  
G 5  21498244.500   112973961.759        -481.075          41.000  
G 6  21498262.467   112974090.375        -481.289          37.000  
G30  21502872.331   112998356.2013       -481.736          31.000  
G10  21552979.278   113261598.086        -480.822          30.000  
> 2019  6 16  0 46 17.0000000  0  8                     
G 1  21498563.488   112975636.450        -481.012          39.000  
G 2  21498562.996   112975635.737        -481.323          46.000  
G 4  21498565.908   112975713.152        -481.244          47.000  
G 3  21498562.854   112975635.899        -481.250          46.000  
G 5  21498336.225   112974442.851        -481.145          41.000  
G 6  21498354.127   112974571.453        -481.299          37.000  
G30  21502963.182   112998837.3392       -482.081          31.000  
G10  21553070.876   113262079.213        -481.255          30.000  
> 2019  6 16  0 46 18.0000000  0  8                     
G 1  21498655.123   112976117.599        -481.134          39.000  
G 2  21498654.614   112976116.896        -481.459          46.000  
G 4  21498657.572   112976194.298        -481.219          47.000  
G 3  21498654.470   112976117.047        -481.295          47.000  
G 5  21498427.900   112974924.004        -481.292          41.000  
G 6  21498445.721   112975052.607        -481.453          37.000  
G30  21503054.728   112999314.4313       -481.779          31.000  
G10  21553162.482   113262560.325        -481.144          30.000  
> 2019  6 16  0 46 19.0000000  0  8                     
G 1  21498746.678   112976598.713        -480.793          39.000  
G 2  21498746.307   112976598.025        -481.409          46.000  
G 4  21498749.086   112976675.427        -481.135          47.000  
G 3  21498746.052   112976598.174        -481.267          47.000  
G 5  21498519.540   112975405.117        -481.057          41.000  
G 6  21498537.425   112975533.744        -481.462          38.000  
G30  21503145.827   112999793.6333       -482.825          31.000  
G10  21553254.103   113263041.471        -480.967          30.000  
> 2019  6 16  0 46 20.0000000  0  8                     
G 1  21498838.263   112977079.819        -480.763          39.000  
G 2  21498837.929   112977155.1203       -481.138          46.000  
G 4  21498840.828   112977156.528        -480.975          48.000  
G 3  21498837.587   112977079.278        -481.057          47.000  
G 5  21498611.176   112975886.227        -481.041          41.000  
G 6  21498629.134   112976014.841        -481.173          38.000  
G30  21503241.459   113000295.6243       -480.071          30.000  
G10  21553345.696   113263595.5743       -480.864          30.000  
> 2019  6 16  0 46 21.0000000  0  8                     
G 1  21498929.810   112977560.989        -481.008          39.000  
G 2  21498929.649   112977636.2822       -481.210          46.000  
G 4  21498932.421   112977637.695        -481.145          47.000  
G 3  21498929.213   112977560.441        -481.177          47.000  
G 5  21498702.812   112976367.392        -481.201          41.000  
G 6  21498720.858   112976496.004        -481.261          38.000  
G30  21503330.622                        -493.799          30.000  
G10  21553437.400   113264076.7242       -480.856          30.000  
> 2019  6 16  0 46 22.0000000  0  8                     
G 1  21499021.505   112978042.133        -481.158          39.000  
G 2  21499021.206   112978117.4132       -481.106          46.000  
G 4  21499024.179   112978118.831        -481.165          47.000  
G 3  21499020.918   112978041.576        -481.119          47.000  
G 5  21498794.526   112976848.527        -481.090          41.000  
G 6  21498812.568   112976977.144        -481.050          38.000  
G30  21503422.270   113001245.9812       -481.692          31.000  
G10  21553529.203   113264557.8942       -480.808          31.000  
> 2019  6 16  0 46 23.0000000  0  8                     
G 1  21499113.078   112978523.170        -481.125          38.000  
G 2  21499112.919   112978598.4472       -480.990          46.000  
G 4  21499115.695   112978599.861        -480.906          47.000  
G 3  21499112.550   112978522.605        -480.779          47.000  
G 5  21498886.277   112977329.555        -480.908          41.000  
G 6  21498904.151   112977458.167        -480.890          38.000  
G30  21503512.724   113001722.0303       -482.143          31.000  
G10  21553620.914   113265038.9172       -480.906          31.000  
> 2019  6 16  0 46 24.0000000  0  8                     
G 1  21499204.822   112979004.232        -481.340          38.000  
G 2  21499204.592   112979079.5052       -481.129          46.000  
G 4  21499207.388   112979080.922        -481.246          47.000  
G 3  21499204.250   112979003.667        -481.094          47.000  
G 5  21498977.946   112977810.629        -481.277          41.000  
G 6  21498995.733   112977939.237        -481.376          38.000  
G30  21503604.672   113002205.0353       -481.644          30.000  
G10  21553712.480   113265519.9812       -481.361          30.000  
> 2019  6 16  0 46 25.0000000  0  8                     
G 1  21499296.525   112979485.367        -481.180          39.000  
G 2  21499296.185   112979560.653        -481.189          46.000  
G 4  21499298.981   112979562.068        -481.141          47.000  
G 3  21499295.810   112979484.801        -480.956          47.000  
G 5  21499069.591   112978291.766        -481.183          41.000  
G 6  21499087.395   112978420.376        -481.262          38.000  
G30  21503695.356   113002681.1982       -481.035          30.000  
G10  21553804.119   113266001.151        -481.803          30.000  
> 2019  6 16  0 46 26.0000000  0  8                     
G 1  21499388.205   112979966.590        -481.272          39.000  
G 2  21499387.762   112980041.869        -481.150          46.000  
G 4  21499390.634   112980043.283        -481.141          47.000  
G 3  21499387.422   112979966.021        -480.972          47.000  
G 5  21499161.171   112978772.983        -481.149          41.000  
G 6  21499179.172   112978901.577        -480.991          37.000  
G30  21503787.679   113003166.4152       -481.377          31.000  
G10  21553895.805   113266482.372        -482.498          30.000  
> 2019  6 16  0 46 27.0000000  0  8                     
G 1  21499479.845   112980447.768        -481.193          39.000  
G 2  21499479.498   112980523.063        -481.295          46.000  
G 4  21499482.414   112980524.462        -481.154          48.000  
G 3  21499479.025   112980447.207        -481.194          47.000  
G 5  21499252.744   112979254.176        -481.378          40.000  
G 6  21499270.811   112979382.767        -481.207          37.000  
G30  21503879.263   113003647.6153       -481.747          31.000  
G10  21553987.537   113266963.537        -482.169          30.000  
> 2019  6 16  0 46 28.0000000  0  8                     
G 1  21499571.519   112980929.030        -481.299          39.000  
G 2  21499571.159   112981004.304        -481.560          46.000  
G 4  21499574.029   112981005.713        -481.520          47.000  
G 3  21499570.752   112980928.468        -481.414          47.000  
G 5  21499344.481   112979735.445        -481.464          40.000  
G 6  21499362.653   112979864.022        -481.427          37.000  
G30  21503974.126   113004145.8453       -481.974          31.000  
G10  21554079.150   113267444.781        -482.159          30.000  
> 2019  6 16  0 46 29.0000000  0  8                     
G 1  21499663.224   112981410.364        -481.583          39.000  
G 2  21499662.798   112981485.630        -481.454          46.000  
G 4  21499665.650   112981487.045        -481.534          47.000  
G 3  21499662.463   112981409.786        -481.399          47.000  
G 5  21499436.239   112980216.757        -481.584          41.000  
G 6  21499454.344   112980345.363        -481.549          38.000  
G30  21504064.351   113004620.1683       -480.685          32.000  
G10  21554170.799   113267926.139        -481.893          30.000  
> 2019  6 16  0 46 30.0000000  0  8                     
G 1  21499754.882   112981891.564        -481.301          39.000  
G 2  21499754.420   112981966.832        -481.194          46.000  
G 4  21499757.454   112981968.246        -481.292          47.000  
G 3  21499754.249   112981890.997        -481.251          47.000  
G 5  21499528.036   112980697.955        -481.277          41.000  
G 6  21499545.970   112980826.553        -481.160          38.000  
G30  21504154.466   113005093.8662       -481.353          31.000  
G10  21554262.399   113268407.294        -481.269          30.000  
> 2019  6 16  0 46 31.0000000  0  8                     
G 1  21499846.664   112982372.775        -481.460          39.000  
G 2  21499846.027   112982448.044        -481.283          46.000  
G 4  21499849.037   112982449.454        -481.343          47.000  
G 3  21499845.955   112982372.197        -481.183          47.000  
G 5  21499619.664   112981179.174        -481.501          41.000  
G 6  21499637.548   112981307.758        -481.080          38.000  
G30  21504245.409   113005572.1202       -481.960          32.000  
G10  21554354.051   113268888.520        -481.362          31.000  
> 2019  6 16  0 46 32.0000000  0  8                     
G 1  21499938.508   112982854.028        -481.376          39.000  
G 2  21499937.714   112982929.267        -480.992          45.000  
G 4  21499940.570   112982930.683        -481.031          47.000  
G 3  21499937.697   112982853.438        -480.988          47.000  
G 5  21499711.189   112981660.433        -481.233          41.000  
G 6  21499729.227   112981789.008        -481.044          38.000  
G30  21504337.226   113006054.3403       -480.970          31.000  
G10  21554445.651   113269369.805        -481.927          30.000  
> 2019  6 16  0 46 33.0000000  0  8                     
G 1  21500030.321   112983335.285        -481.569          39.000  
G 2  21500029.381   112983410.526        -481.178          46.000  
G 4  21500032.246   112983411.937        -481.396          47.000  
G 3  21500029.564   112983334.694        -481.191          47.000  
G 5  21499802.800   112982141.672        -481.451          40.000  
G 6  21499820.983   112982270.254        -481.366          38.000  
G30  21504429.737   113006535.5512       -480.475          31.000  
G10  21554537.291   113269851.018        -481.527          30.000  
> 2019  6 16  0 46 34.0000000  0  8                     
G 1  21500122.174   112983816.682        -481.421          39.000  
G 2  21500121.178   112983891.957        -481.688          46.000  
G 4  21500123.723   112983893.349        -481.418          47.000  
G 3  21500121.337   112983816.113        -481.388          47.000  
G 5  21499894.318   112982623.091        -481.636          40.000  
G 6  21499912.608   112982751.649        -481.272          38.000  
G30  21504521.322   113007021.9623       -481.094          31.000  
G10  21554629.068   113270332.447        -481.997          30.000  
> 2019  6 16  0 46 35.0000000  0  8                     
G 1  21500213.831   112984298.111        -481.372          39.000  
G 2  21500212.729   112984373.380        -481.316          46.000  
G 4  21500215.356   112984374.784        -481.371          47.000  
G 3  21500213.050   112984297.549        -481.371          47.000  
G 5  21499985.957   112983104.526        -481.479          40.000  
G 6  21500004.321   112983233.113        -481.277          38.000  
G30  21504613.105   113007504.4493       -481.447          31.000  
G10  21554720.695   113270813.895        -481.770          30.000  
> 2019  6 16  0 46 36.0000000  0  8                     
G 1  21500305.332   112984779.441        -481.437          38.000  
G 2  21500304.283   112984854.704        -481.356          46.000  
G 4  21500306.993   112984856.109        -481.259          47.000  
G 3  21500304.785   112984778.867        -481.140          47.000  
G 5  21500077.633   112983585.838        -481.349          40.000  
G 6  21500096.097   112983714.415        -481.094          38.000  
G30  21504704.745   113007985.7303       -480.781          31.000  
G10  21554812.308   113271295.193        -481.621          30.000  
> 2019  6 16  0 46 37.0000000  0  8                     
G 1  21500396.865   112985260.767        -481.729          38.000  
G 2  21500395.933   112985336.022        -481.417          46.000  
G 4  21500398.809   112985337.433        -481.437          47.000  
G 3  21500396.518   112985260.184        -481.316          47.000  
G 5  21500169.273   112984067.165        -481.418          40.000  
G 6  21500187.824   112984195.736        -481.283          37.000  
G30  21504796.347   113008467.053        -480.934          31.000  
G10  21554904.040   113271776.513        -481.339          30.000  
> 2019  6 16  0 46 38.0000000  0  8                     
G 1  21500488.556   112985742.047        -481.365          39.000  
G 2  21500487.652   112985817.315        -481.420          46.000  
G 4  21500490.564   112985818.723        -481.436          47.000  
G 3  21500488.218   112985741.487        -481.442          46.000  
G 5  21500260.988   112984548.460        -481.366          40.000  
G 6  21500279.437   112984677.034        -481.284          37.000  
G30  21504888.028   113008948.306        -480.177          31.000  
G10  21554995.799   113272257.824        -481.501          30.000  
> 2019  6 16  0 46 39.0000000  0  8                     
G 1  21500580.507   112986223.326        -481.218          39.000  
G 2  21500579.371   112986298.577        -481.620          46.000  
G 4  21500582.322   112986299.988        -481.414          47.000  
G 3  21500579.943   112986222.735        -481.328          47.000  
G 5  21500352.590   112985029.698        -481.340          40.000  
G 6  21500371.114   112985158.287        -481.179          37.000  
G30  21504979.640   113009430.5683       -480.857          30.000  
G10  21555087.472   113272739.056        -481.395          30.000  
> 2019  6 16  0 46 40.0000000  0  8                     
G 1  21500672.307   112986704.523        -480.961          39.000  
G 2  21500671.173   112986779.811        -481.088          46.000  
G 4  21500673.997   112986781.210        -481.166          47.000  
G 3  21500671.538   112986703.968        -481.074          47.000  
G 5  21500444.198   112985510.928        -481.099          40.000  
G 6  21500462.778   112985639.489        -480.974          38.000  
G30  21505071.114   113009911.8702       -482.231          30.000  
G10  21555179.094   113273220.293        -481.411          30.000  
> 2019  6 16  0 46 41.0000000  0  8                     
G 1  21500763.896   112987185.833        -481.647          39.000  
G 2  21500762.979   112987261.108        -481.533          46.000  
G 4  21500765.683   112987262.513        -481.564          47.000  
G 3  21500763.159   112987185.271        -481.487          47.000  
G 5  21500535.758   112985992.230        -481.401          40.000  
G 6  21500554.357   112986120.798        -481.411          37.000  
G30  21505162.880   113010393.1712       -481.708          31.000  
G10  21555270.787   113273701.563        -481.512          30.000  
> 2019  6 16  0 46 42.0000000  0  8                     
G 1  21500855.405   112987667.151        -481.637          39.000  
G 2  21500854.588   112987742.395        -481.293          45.000  
G 4  21500857.481   112987743.809        -481.384          47.000  
G 3  21500854.763   112987666.569        -481.379          46.000  
G 5  21500627.381   112986473.534        -481.368          40.000  
G 6  21500646.014   112986602.108        -481.351          37.000  
G30  21505254.582   113010875.4473       -481.250          31.000  
G10  21555362.498   113274182.886        -481.376          30.000  
> 2019  6 16  0 46 43.0000000  0  8                     
G 1  21500947.088   112988148.428        -481.823          39.000  
G 2  21500946.187   112988223.667        -481.389          45.000  
G 4  21500949.192   112988225.087        -481.471          47.000  
G 3  21500946.474   112988147.843        -481.395          47.000  
G 5  21500718.982   112986954.796        -481.211          40.000  
G 6  21500737.647   112987083.385        -481.415          38.000  
G30  21505346.254   113011356.7082       -481.662          31.000  
G10  21555454.243   113274664.143        -481.550          30.000  
> 2019  6 16  0 46 44.0000000  0  8                     
G 1  21501038.802   112988629.698        -481.537          39.000  
G 2  21501037.702   112988704.931        -481.229          45.000  
G 4  21501040.829   112988706.353        -481.250          46.000  
G 3  21501038.092   112988629.114        -481.394          46.000  
G 5  21500810.573   112987436.069        -481.245          40.000  
G 6  21500829.335   112987564.652        -481.240          38.000  
G30  21505437.806                        -477.197          30.000  
G10  21555545.964   113275145.447        -481.494          30.000  
> 2019  6 16  0 46 45.0000000  0  8                     
G 1  21501130.600   112989111.010        -481.598          39.000  
G 2  21501129.483   112989186.244        -481.462          45.000  
G 4  21501132.534   112989187.659        -481.437          47.000  
G 3  21501129.802   112989110.420        -481.533          47.000  
G 5  21500902.259   112987917.377        -481.410          40.000  
G 6  21500920.931   112988045.961        -481.554          38.000  
G30  21505529.480                        -482.695          31.000  
G10  21555637.673   113275626.742        -481.655          30.000  
> 2019  6 16  0 46 46.0000000  0  8                     
G 1  21501222.390   112989592.315        -481.390          39.000  
G 2  21501221.132   112989667.553        -481.178          45.000  
G 4  21501224.256   112989668.973        -481.196          47.000  
G 3  21501221.503   112989591.738        -481.307          46.000  
G 5  21500993.853   112988398.693        -481.150          40.000  
G 6  21501012.594   112988527.281        -481.335          38.000  
G30  21505621.204   113012801.0822       -480.648          31.000  
G10  21555729.381   113276108.037        -481.351          30.000  
> 2019  6 16  0 46 47.0000000  0  8                     
G 1  21501314.230   112990073.585        -481.357          39.000  
G 2  21501312.822   112990148.831        -481.292          46.000  
G 4  21501316.018   112990150.237        -481.241          47.000  
G 3  21501313.180   112990072.999        -481.357          47.000  
G 5  21501085.560   112988879.965        -481.266          40.000  
G 6  21501104.263   112989008.548        -481.575          38.000  
G30  21505712.829   113013283.3193       -480.791          31.000  
G10  21555821.053   113276589.298        -481.464          29.000  
> 2019  6 16  0 46 48.0000000  0  8                     
G 1  21501405.941   112990554.852        -481.332          39.000  
G 2  21501404.497   112990630.101        -481.370          45.000  
G 4  21501407.440   112990631.525        -481.313          47.000  
G 3  21501404.938   112990554.268        -481.362          47.000  
G 5  21501177.259   112989361.254        -481.400          40.000  
G 6  21501195.937   112989489.834        -481.565          37.000  
G30  21505804.546   113013765.6393       -481.837          30.000  
G10  21555912.781   113277070.606        -480.931          30.000  
> 2019  6 16  0 46 49.0000000  0  8                     
G 1  21501497.581   112991036.063        -481.453          39.000  
G 2  21501496.019   112991111.319        -481.395          46.000  
G 4  21501499.154   112991112.745        -481.598          47.000  
G 3  21501496.650   112991035.491        -481.619          47.000  
G 5  21501268.849   112989842.469        -481.584          40.000  
G 6  21501287.567   112989971.062        -481.763          38.000  
G30  21505896.213   113014246.3641       -481.510          32.000  
G10  21556004.376   113277551.828        -481.727          30.000  
> 2019  6 16  0 46 50.0000000  0  8                     
G 1  21501589.140   112991517.256        -481.216          39.000  
G 2  21501587.602   112991592.512        -481.058          46.000  
G 4  21501590.726   112991593.943        -481.233          47.000  
G 3  21501588.116   112991516.684        -481.206          46.000  
G 5  21501360.372   112990323.646        -481.196          40.000  
G 6  21501379.183   112990452.247        -481.381          37.000  
G30  21505988.524   113014732.0193       -480.936          31.000  
G10  21556096.139   113278033.017        -480.953          31.000  
> 2019  6 16  0 46 51.0000000  0  8                     
G 1  21501680.607   112991998.434        -481.375          39.000  
G 2  21501679.233   112992073.691        -481.139          46.000  
G 4  21501682.361   112992075.119        -481.332          47.000  
G 3  21501679.734   112991997.863        -481.251          47.000  
G 5  21501451.976   112990804.818        -481.169          40.000  
G 6  21501470.865   112990933.424        -481.362          37.000  
G30  21506079.130   113015213.2192       -481.346          30.000  
G10  21556187.737   113278514.166        -481.162          31.000  
> 2019  6 16  0 46 52.0000000  0  8                     
G 1  21501772.030   112992479.604        -481.033          39.000  
G 2  21501770.970   112992554.859        -480.991          46.000  
G 4  21501774.084   112992556.292        -481.167          47.000  
G 3  21501771.289   112992479.031        -481.230          47.000  
G 5  21501543.763   112991285.997        -480.991          40.000  
G 6  21501562.522   112991414.594        -481.340          38.000  
G30  21506172.019   113015696.3813       -481.040          31.000  
G10  21556279.377   113278995.339        -481.226          30.000  
> 2019  6 16  0 46 53.0000000  0  8                     
G 1  21501863.594   112992960.699        -480.848          39.000  
G 2  21501862.579   112993035.961        -480.842          45.000  
G 4  21501865.836   112993037.396        -481.020          46.000  
G 3  21501862.930   112992960.140        -481.047          46.000  
G 5  21501635.357   112991767.107        -480.995          40.000  
G 6  21501654.171   112991895.699        -481.012          38.000  
G30  21506264.024   113016179.5143       -480.685          31.000  
G10  21556370.894   113279476.463        -481.219          30.000  
> 2019  6 16  0 46 54.0000000  0  8                     
G 1  21501955.335   112993441.880        -481.267          39.000  
G 2  21501954.330   112993517.133        -481.251          46.000  
G 4  21501957.459   112993518.562        -481.378          47.000  
G 3  21501954.643   112993441.306        -481.381          47.000  
G 5  21501726.933   112992248.273        -481.289          40.000  
G 6  21501745.752   112992376.862        -481.359          37.000  
G30  21506354.449   113016654.6722       -481.451          30.000  
G10  21556462.491   113279957.609        -481.425          30.000  
> 2019  6 16  0 46 55.0000000  0  8                     
G 1  21502047.070   112993922.982        -480.863          39.000  
G 2  21502046.054   112993998.248        -481.228          46.000  
G 4  21502049.043   112993999.678        -481.300          47.000  
G 3  21502046.289   112993922.424        -481.299          47.000  
G 5  21501818.570   112992729.385        -481.255          40.000  
G 6  21501837.309   112992857.980        -481.298          38.000  
G30  21506445.984   113017135.8162       -482.246          31.000  
G10  21556554.189   113280438.730        -481.415          30.000  
> 2019  6 16  0 46 56.0000000  0  8                     
G 1  21502138.491   112994404.080        -480.754          39.000  
G 2  21502137.553   112994479.359        -481.051          46.000  
G 4  21502140.625   112994480.781        -480.994          47.000  
G 3  21502137.879   112994403.530        -481.089          46.000  
G 5  21501910.165   112993210.509        -480.919          40.000  
G 6  21501928.937   112993339.074        -480.844          37.000  
G30  21506537.138   113017616.9532       -482.033          31.000  
G10  21556645.890   113280919.889        -481.759          30.000  
> 2019  6 16  0 46 57.0000000  0  8                     
G 1  21502230.032   112994885.195        -480.732          39.000  
G 2  21502229.130   112994960.475        -481.241          45.000  
G 4  21502232.214   112994961.894        -481.089          46.000  
G 3  21502229.579   112994884.654        -481.176          46.000  
G 5  21502001.836   112993691.616        -480.973          40.000  
G 6  21502020.479   112993820.191        -481.020          37.000  
G30  21506630.446   113018105.0513       -481.863          31.000  
G10  21556737.487   113281400.985        -481.228          30.000  
> 2019  6 16  0 46 58.0000000  0  8                     
G 1  21502321.538   112995366.376        -480.553          39.000  
G 2  21502320.809   112995441.670        -481.185          46.000  
G 4  21502323.824   112995443.078        -480.852          47.000  
G 3  21502321.327   112995365.841        -481.007          47.000  
G 5  21502093.514   112994172.798        -480.784          40.000  
G 6  21502112.122   112994301.375        -480.833          38.000  
G30  21506721.133   113018582.2422       -482.234          31.000  
G10  21556829.167   113281882.144        -481.056          30.000  
> 2019  6 16  0 46 59.0000000  0  8                     
G 1  21502413.095   112995847.478        -480.803          39.000  
G 2  21502412.483   112995922.767        -481.401          45.000  
G 4  21502415.622   112995924.178        -481.324          46.000  
G 3  21502413.120   112995846.949        -481.523          46.000  
G 5  21502185.318   112994653.898        -481.307          40.000  
G 6  21502203.825   112994782.491        -481.434          38.000  
G30  21506811.740   113019058.3603       -482.429          31.000  
G10  21556920.889   113282363.263        -481.451          30.000  
> 2019  6 16  0 47  0.0000000  0  8                     
G 1  21502504.728   112996328.483        -480.898          38.000  
G 2  21502504.058   112996403.768        -481.273          45.000  
G 4  21502507.188   112996405.183        -481.238          46.000  
G 3  21502504.779   112996327.944        -481.298          47.000  
G 5  21502277.000   112995134.906        -481.176          40.000  
G 6  21502295.435   112995263.480        -481.082          37.000  
G30  21506903.201   113019539.3782       -482.496          31.000  
G10  21557012.540   113282844.257        -481.245          31.000  
> 2019  6 16  0 47  1.0000000  0  8                     
G 1  21502596.350   112996809.503        -480.842          38.000  
G 2  21502595.656   112996884.779        -481.093          45.000  
G 4  21502598.690   112996886.196        -481.105          46.000  
G 3  21502596.468   112996808.962        -481.177          46.000  
G 5  21502368.626   112995615.921        -481.034          40.000  
G 6  21502387.013   112995744.499        -480.936          37.000  
G30  21506995.021   113020019.8841       -482.219          31.000  
G10  21557104.095   113283325.316        -481.598          30.000  
> 2019  6 16  0 47  2.0000000  0  8                     
G 1  21502687.924   112997290.493        -480.665          39.000  
G 2  21502687.384   112997365.780        -480.974          46.000  
G 4  21502690.212   112997367.191        -480.972          47.000  
G 3  21502688.097   112997289.953        -480.952          47.000  
G 5  21502460.253   112996096.915        -480.939          40.000  
G 6  21502478.601   112996225.494        -481.018          37.000  
G30  21507086.514   113020500.819        -481.188          31.000  
G10  21557195.787   113283806.292        -481.226          30.000  
> 2019  6 16  0 47  3.0000000  0  8                     
G 1  21502779.522   112997771.427        -481.099          38.000  
G 2  21502778.949   112997846.691        -481.075          45.000  
G 4  21502781.827   112997848.121        -481.072          46.000  
G 3  21502779.758   112997770.871        -481.128          46.000  
G 5  21502551.877   112996577.841        -481.006          40.000  
G 6  21502570.200   112996706.427        -481.171          37.000  
G30  21507178.124   113020983.2623       -481.257          31.000  
G10  21557287.394   113284287.221        -481.102          30.000  
> 2019  6 16  0 47  4.0000000  0  8                     
G 1  21502871.202   112998252.420        -480.929          38.000  
G 2  21502870.510   112998327.694        -481.187          46.000  
G 4  21502873.485   112998329.120        -481.116          46.000  
G 3  21502871.379   112998251.871        -481.096          47.000  
G 5  21502643.585   112997058.847        -481.105          41.000  
G 6  21502661.781   112997187.407        -481.031          38.000  
G30  21507269.845   113021465.2792       -481.582          32.000  
G10  21557379.069   113284768.184        -480.577          31.000  
> 2019  6 16  0 47  5.0000000  0  8                     
G 1  21502962.751   112998733.506        -480.710          38.000  
G 2  21502962.106   112998808.801        -480.946          45.000  
G 4  21502965.057   112998810.214        -480.858          46.000  
G 3  21502963.050   112998732.973        -480.887          46.000  
G 5  21502735.231   112997539.936        -480.865          41.000  
G 6  21502753.425   112997668.523        -480.801          38.000  
G30  21507361.661   113021946.3772       -481.107          32.000  
G10  21557470.871   113285249.313        -480.717          31.000  
> 2019  6 16  0 47  6.0000000  0  8                     
G 1  21503054.265   112999214.549        -480.946          38.000  
G 2  21503053.675   112999289.838        -480.988          46.000  
G 4  21503056.845   112999291.258        -480.994          46.000  
G 3  21503054.671   112999214.010        -481.064          46.000  
G 5  21502826.864   112998020.976        -481.094          41.000  
G 6  21502845.086   112998149.564        -481.252          38.000  
G30  21507454.233   113022434.3573       -480.293          32.000  
G10  21557562.552   113285730.326        -480.845          31.000  
> 2019  6 16  0 47  7.0000000  0  8                     
G 1  21503145.717   112999695.481        -480.764          39.000  
G 2  21503145.428   112999770.774        -480.839          46.000  
G 4  21503148.633   112999772.192        -480.837          47.000  
G 3  21503146.295   112999694.946        -480.923          46.000  
G 5  21502918.663   112998501.912        -480.894          40.000  
G 6  21502936.758   112998630.502        -481.201          38.000  
G30  21507544.910   113022914.8081       -480.303          31.000  
G10  21557654.114   113286211.261        -480.580          31.000  
> 2019  6 16  0 47  8.0000000  0  8                     
G 1  21503237.336   113000176.564        -481.190          39.000  
G 2  21503237.222   113000251.852        -481.237          45.000  
G 4  21503240.453   113000253.271        -481.201          46.000  
G 3  21503237.967   113000176.024        -481.263          46.000  
G 5  21503010.453   112998982.990        -481.257          40.000  
G 6  21503028.387   112999111.576        -481.395          38.000  
G30  21507636.422   113023395.879        -480.876          32.000  
G10  21557745.716   113286692.326        -480.890          31.000  
