     3.02           OBSERVATION DATA    G: GPS              RINEX VERSION / TYPE
RTKCONV 2.4.3                           20200430 005847 UTC PGM / RUN BY / DATE 
log: D:\FastData\IF_Test\0429-C7สตั้\2020-04-29-zhanghan-u  COMMENT             
format: u-blox                                              COMMENT             
                                                            MARKER NAME         
                                                            MARKER NUMBER       
                                                            MARKER TYPE         
                                                            OBSERVER / AGENCY   
                                                            REC # / TYPE / VERS 
                                                            ANT # / TYPE        
        0.0000        0.0000        0.0000                  APPROX POSITION XYZ 
        0.0000        0.0000        0.0000                  ANTENNA: DELTA H/E/N
G    4 C1C L1C D1C S1C                                      SYS / # / OBS TYPES 
  2019     6    16     0    41   32.0000000     GPS         TIME OF FIRST OBS   
  2019     6    16     0    47   14.0000000     GPS         TIME OF LAST OBS    
G                                                           SYS / PHASE SHIFT   
  0                                                         GLONASS SLOT / FRQ #
 C1C    0.000 C1P    0.000 C2C    0.000 C2P    0.000        GLONASS COD/PHS/BIS 
                                                            END OF HEADER       
> 2019  6 16  0 41 32.0000000  0  9                     
G 2  21508909.978   113029956.367        -527.380          43.000  
G 3  21508906.769   113029976.869        -527.405          44.000  
G 1  21508913.454   113029959.388        -527.228          37.000  
G 4  21508906.274   113029971.094        -527.347          45.000  
G 5  21508677.390   113028731.694        -527.262          44.000  
G 6  21508682.299   113028757.943        -527.323          45.000  
G 7  21485797.482   112908608.412        -527.412          32.000  
G30  21515064.303   113062335.326        -526.719          31.000  
G11  21524179.791   113110261.437        -527.109          31.000  
> 2019  6 16  0 41 33.0000000  0  9                     
G 2  21509010.394   113030483.605        -527.496          43.000  
G 3  21509007.315   113030504.118        -527.511          44.000  
G 1  21509013.847   113030486.631        -527.262          38.000  
G 4  21509006.711   113030498.325        -527.412          45.000  
G 5  21508777.827   113029258.923        -527.330          44.000  
G 6  21508782.766   113029285.179        -527.388          45.000  
G 7  21485897.717   112909135.637        -527.384          32.000  
G30  21515164.663   113062862.594        -526.768          31.000  
G11  21524280.118   113110788.675        -527.038          31.000  
> 2019  6 16  0 41 34.0000000  0  9                     
G 2  21509110.846   113031010.832        -527.266          43.000  
G 3  21509107.752   113031031.332        -527.295          44.000  
G 1  21509114.298   113031013.848        -526.956          37.000  
G 4  21509107.079   113031025.554        -527.194          45.000  
G 5  21508878.233   113029786.159        -527.107          44.000  
G 6  21508883.016   113029812.407        -527.235          45.000  
G 7  21485998.154   112909662.844        -526.866          32.000  
G30  21515265.046   113063389.774        -526.589          30.000  
G11  21524380.458   113111315.907        -526.871          31.000  
> 2019  6 16  0 41 35.0000000  0  9                     
G 2  21509211.316   113031538.181        -527.333          43.000  
G 3  21509208.177   113031558.673        -527.422          44.000  
G 1  21509214.602   113031541.198        -527.230          37.000  
G 4  21509207.506   113031552.901        -527.460          45.000  
G 5  21508978.658   113030313.515        -527.347          44.000  
G 6  21508983.556   113030339.759        -527.389          45.000  
G 7  21486098.736   112910190.261        -527.929          31.000  
G30  21515365.584   113063917.120        -526.755          30.000  
G11  21524480.834   113111843.211        -526.521          31.000  
> 2019  6 16  0 41 36.0000000  0  9                     
G 2  21509311.723   113032065.358        -527.059          43.000  
G 3  21509308.571   113032085.861        -527.227          44.000  
G 1  21509314.943   113032068.384        -526.909          37.000  
G 4  21509307.932   113032080.090        -527.156          45.000  
G 5  21509079.086   113030840.702        -527.202          44.000  
G 6  21509084.021   113030866.944        -527.219          45.000  
G 7  21486199.297   112910717.400        -526.266          31.000  
G30  21515465.961   113064444.302        -526.530          31.000  
G11  21524581.415   113112370.407        -526.553          31.000  
> 2019  6 16  0 41 37.0000000  0  9                     
G 2  21509412.198   113032592.634        -527.371          43.000  
G 3  21509408.923   113032613.143        -527.394          44.000  
G 1  21509415.382   113032595.658        -527.214          37.000  
G 4  21509408.311   113032607.370        -527.407          45.000  
G 5  21509179.541   113031367.981        -527.489          44.000  
G 6  21509184.509   113031394.218        -527.346          45.000  
G 7  21486299.776   112911244.659        -526.554          31.000  
G30  21515566.381   113064971.561        -526.047          30.000  
G11  21524681.687   113112897.658        -525.659          31.000  
> 2019  6 16  0 41 38.0000000  0  9                     
G 2  21509512.670   113033119.870        -527.166          43.000  
G 3  21509509.260   113033140.382        -527.246          44.000  
G 1  21509515.714   113033122.892        -527.061          37.000  
G 4  21509508.706   113033134.605        -527.288          45.000  
G 5  21509280.072   113031895.220        -527.312          44.000  
G 6  21509284.921   113031921.455        -527.251          45.000  
G 7  21486400.204   112911771.907        -526.578          31.000  
G30  21515666.752   113065498.802        -526.759          31.000  
G11  21524782.220   113113424.929        -526.744          29.000  
> 2019  6 16  0 41 39.0000000  0  9                     
G 2  21509613.078   113033647.036        -527.086          43.000  
G 3  21509609.819   113033667.542        -527.240          44.000  
G 1  21509616.030   113033650.062        -527.084          37.000  
G 4  21509609.164   113033661.762        -527.126          44.000  
G 5  21509380.501   113032422.378        -527.134          44.000  
G 6  21509385.309   113032448.616        -527.240          45.000  
G 7  21486500.760   112912299.019        -526.383          32.000  
G30  21515767.142   113066025.953        -526.333          30.000  
G11  21524882.777   113113952.099        -526.925          29.000  
> 2019  6 16  0 41 40.0000000  0  9                     
G 2  21509713.495   113034174.110        -527.201          43.000  
G 3  21509710.179   113034194.619        -527.161          44.000  
G 1  21509716.533   113034177.130        -526.899          37.000  
G 4  21509709.558   113034188.849        -527.223          44.000  
G 5  21509480.902   113032949.457        -527.175          44.000  
G 6  21509485.603   113032975.690        -527.108          45.000  
G 7  21486601.062   112912826.103        -526.460          31.000  
G30  21515867.576   113066553.087        -526.608          30.000  
G11  21524983.319   113114479.223        -527.679          30.000  
> 2019  6 16  0 41 41.0000000  0  9                     
G 2  21509813.895   113034701.239        -527.131          43.000  
G 3  21509810.585   113034721.745        -527.140          44.000  
G 1  21509816.892   113034704.261        -526.973          37.000  
G 4  21509809.921   113034715.968        -527.102          45.000  
G 5  21509581.365   113033476.579        -527.201          44.000  
G 6  21509585.846   113033502.825        -527.211          45.000  
G 7  21486701.265   112913353.244        -526.526          32.000  
G30  21515968.100   113067080.217        -526.628          32.000  
G11  21525083.659   113115006.314        -526.858          30.000  
> 2019  6 16  0 41 42.0000000  0  9                     
G 2  21509914.315   113035228.328        -527.101          43.000  
G 3  21509911.013   113035248.834        -527.074          44.000  
G 1  21509917.263   113035231.350        -527.024          38.000  
G 4  21509910.434   113035243.061        -527.028          45.000  
G 5  21509681.742   113034003.673        -527.155          44.000  
G 6  21509686.281   113034029.910        -527.101          45.000  
G 7  21486801.666   112913880.290        -525.760          28.000  
G30  21516068.504   113067607.283        -526.699          32.000  
G11  21525184.146   113115533.394        -526.958          31.000  
> 2019  6 16  0 41 43.0000000  0  9                     
G 2  21510014.717   113035755.464        -527.355          43.000  
G 3  21510011.372   113035775.963        -527.256          44.000  
G 1  21510017.634   113035758.482        -527.216          37.000  
G 4  21510010.894   113035770.191        -527.302          45.000  
G 5  21509782.034   113034530.799        -527.323          44.000  
G 6  21509786.661   113034557.038        -527.234          45.000  
G 7  21486902.078   112914407.452        -526.418          32.000  
G30  21516168.930   113068134.416        -526.466          31.000  
G11  21525284.761   113116060.527        -526.926          30.000  
> 2019  6 16  0 41 44.0000000  0  9                     
G 2  21510115.091   113036282.527        -527.084          43.000  
G 3  21510111.723   113036303.036        -527.086          44.000  
G 1  21510118.027   113036285.554        -527.039          37.000  
G 4  21510111.260   113036297.262        -527.034          45.000  
G 5  21509882.403   113035057.878        -527.240          44.000  
G 6  21509887.122   113035084.110        -527.053          45.000  
G 7  21487002.333   112914934.512        -526.124          31.000  
G30  21516269.341   113068661.474        -526.793          31.000  
G11  21525385.177   113116587.641        -527.820          30.000  
> 2019  6 16  0 41 45.0000000  0  9                     
G 2  21510215.445   113036809.574        -527.020          43.000  
G 3  21510212.160   113036830.082        -526.996          44.000  
G 1  21510218.499   113036812.612        -527.057          37.000  
G 4  21510211.591   113036824.308        -527.003          45.000  
G 5  21509982.725   113035584.930        -527.246          44.000  
G 6  21509987.657   113035611.158        -526.981          45.000  
G 7  21487102.715   112915461.555        -525.988          31.000  
G30  21516369.644   113069188.527        -526.703          30.000  
G11  21525485.504   113117114.708        -527.869          31.000  
> 2019  6 16  0 41 46.0000000  0  9                     
G 2  21510315.891   113037336.659        -527.234          43.000  
G 3  21510312.619   113037357.165        -527.368          44.000  
G 1  21510319.027   113037339.688        -527.212          37.000  
G 4  21510311.994   113037351.384        -527.223          45.000  
G 5  21510083.106   113036112.003        -527.386          44.000  
G 6  21510088.055   113036138.232        -527.203          45.000  
G 7  21487203.190   112915988.690        -527.460          31.000  
G30  21516470.009   113069715.629        -527.559          31.000  
G11  21525585.896   113117641.781        -528.152          30.000  
> 2019  6 16  0 41 47.0000000  0  9                     
G 2  21510416.365   113037863.717        -527.305          43.000  
G 3  21510413.015   113037884.225        -527.394          44.000  
G 1  21510419.507   113037866.745        -527.350          37.000  
G 4  21510412.345   113037878.448        -527.307          45.000  
G 5  21510183.472   113036639.069        -527.397          44.000  
G 6  21510188.459   113036665.291        -527.205          45.000  
G 7  21487303.755   112916515.737        -526.133          32.000  
G30  21516570.465   113070242.681        -527.397          30.000  
G11  21525686.133   113118168.813        -527.163          30.000  
> 2019  6 16  0 41 48.0000000  0  9                     
G 2  21510516.646   113038390.745        -526.812          44.000  
G 3  21510513.436   113038411.248        -526.903          44.000  
G 1  21510519.841   113038393.773        -526.567          37.000  
G 4  21510512.720   113038405.470        -526.812          44.000  
G 5  21510283.902   113037166.092        -526.902          44.000  
G 6  21510288.890   113037192.326        -526.798          45.000  
G 7  21487404.274   112917042.736        -525.994          32.000  
G30  21516670.830   113070769.697        -526.660          30.000  
G11  21525786.483   113118695.873        -527.192          30.000  
> 2019  6 16  0 41 49.0000000  0  9                     
G 2  21510616.996   113038917.768        -527.230          43.000  
G 3  21510613.755   113038938.267        -527.238          44.000  
G 1  21510620.453   113038920.797        -527.166          37.000  
G 4  21510613.050   113038932.493        -527.172          45.000  
G 5  21510384.321   113037693.114        -527.334          44.000  
G 6  21510389.195   113037719.350        -527.319          45.000  
G 7  21487504.541   112917569.726        -526.287          32.000  
G30  21516771.186   113071296.713        -526.737          30.000  
G11  21525886.767   113119222.912        -528.044          30.000  
> 2019  6 16  0 41 50.0000000  0  9                     
G 2  21510717.392   113039444.810        -526.874          43.000  
G 3  21510714.143   113039465.308        -526.927          44.000  
G 1  21510720.768   113039447.831        -526.912          37.000  
G 4  21510713.471   113039459.538        -526.840          45.000  
G 5  21510484.755   113038220.147        -526.826          44.000  
G 6  21510489.536   113038246.392        -526.954          45.000  
G 7  21487604.892   112918096.828        -527.819          31.000  
G30  21516871.595   113071823.830        -528.091          30.000  
G11  21525987.009   113119749.968        -527.949          30.000  
> 2019  6 16  0 41 51.0000000  0  9                     
G 2  21510817.799   113039971.822        -526.962          43.000  
G 3  21510814.544   113039992.318        -526.982          44.000  
G 1  21510820.812   113039974.838        -526.948          37.000  
G 4  21510813.805   113039986.543        -526.934          45.000  
G 5  21510585.111   113038747.163        -527.026          44.000  
G 6  21510589.968   113038773.398        -527.045          45.000  
G 7  21487705.273   112918623.873        -528.019          31.000  
G30  21516971.970   113072350.788        -526.929          30.000  
G11  21526087.247   113120276.898        -527.201          30.000  
> 2019  6 16  0 41 52.0000000  0  9                     
G 2  21510918.157   113040498.778        -526.849          43.000  
G 3  21510914.815   113040519.272        -526.825          44.000  
G 1  21510921.195   113040501.793        -526.893          38.000  
G 4  21510914.158   113040513.500        -526.818          45.000  
G 5  21510685.468   113039274.118        -526.926          44.000  
G 6  21510690.300   113039300.354        -526.869          45.000  
G 7  21487805.688   112919150.843        -528.308          31.000  
G30  21517072.385   113072877.753        -527.112          31.000  
G11  21526187.617   113120803.878        -526.906          31.000  
> 2019  6 16  0 41 53.0000000  0  9                     
G 2  21511018.514   113041025.709        -526.943          43.000  
G 3  21511015.107   113041046.207        -526.862          44.000  
G 1  21511021.405   113041028.717        -526.847          38.000  
G 4  21511014.523   113041040.431        -526.880          45.000  
G 5  21510785.749   113039801.048        -526.945          44.000  
G 6  21510790.681   113039827.283        -526.945          45.000  
G 7  21487906.098   112919677.738        -527.478          31.000  
G30  21517172.772   113073404.686        -527.092          31.000  
G11  21526287.944   113121330.841        -527.546          30.000  
> 2019  6 16  0 41 54.0000000  0  9                     
G 2  21511118.829   113041552.587        -526.885          43.000  
G 3  21511115.482   113041573.081        -526.879          44.000  
G 1  21511121.788   113041555.601        -526.910          38.000  
G 4  21511114.875   113041567.309        -526.853          45.000  
G 5  21510886.155   113040327.925        -526.930          44.000  
G 6  21510891.041   113040354.164        -526.901          45.000  
G 7  21488006.525   112920204.632        -527.538          31.000  
G30  21517273.225   113073931.607        -527.310          31.000  
G11  21526388.129   113121857.685        -526.665          30.000  
> 2019  6 16  0 41 55.0000000  0  9                     
G 2  21511219.215   113042079.460        -527.065          43.000  
G 3  21511215.812   113042099.955        -526.887          44.000  
G 1  21511221.892   113042082.477        -527.158          37.000  
G 4  21511215.240   113042094.177        -526.902          45.000  
G 5  21510986.405   113040854.796        -527.034          44.000  
G 6  21510991.358   113040881.034        -526.964          45.000  
G 7  21488106.820   112920731.513        -528.335          31.000  
G30  21517373.587   113074458.479        -527.733          31.000  
G11  21526488.384   113122384.542        -526.686          30.000  
> 2019  6 16  0 41 56.0000000  0  9                     
G 2  21511319.595   113042606.410        -526.866          43.000  
G 3  21511316.128   113042626.907        -526.792          44.000  
G 1  21511322.248   113042609.427        -526.940          37.000  
G 4  21511315.640   113042621.131        -526.891          45.000  
G 5  21511086.792   113041523.2493       -526.851          44.000  
G 6  21511091.783   113041407.986        -526.873          45.000  
G 7  21488207.236   112921258.482        -527.531          31.000  
G30  21517474.070   113074985.412        -527.446          31.000  
G11  21526588.863   113122911.490        -526.653          30.000  
> 2019  6 16  0 41 57.0000000  0  9                     
G 2  21511420.024   113043133.291        -526.903          43.000  
G 3  21511416.580   113043153.798        -526.987          44.000  
G 1  21511422.500   113043136.308        -526.714          37.000  
G 4  21511416.023   113043148.020        -526.873          45.000  
G 5  21511187.130   113042050.1352       -526.770          44.000  
G 6  21511192.099   113041934.877        -526.954          45.000  
G 7  21488307.691   112921785.336        -527.788          31.000  
G30  21517574.446   113075512.312        -527.092          31.000  
G11  21526689.306   113123438.378        -526.486          30.000  
> 2019  6 16  0 41 58.0000000  0  9                     
G 2  21511520.486   113043660.269        -527.043          43.000  
G 3  21511516.984   113043680.776        -527.000          44.000  
G 1  21511523.067   113043663.266        -526.753          38.000  
G 4  21511516.388   113043674.975        -527.039          45.000  
G 5  21511287.586   113042577.0922       -526.907          44.000  
G 6  21511292.479   113042461.836        -527.018          45.000  
G 7  21488408.045   112922312.300        -527.698          32.000  
G30  21517674.816   113076039.226        -527.029          31.000  
G11  21526789.794   113123965.329        -526.462          31.000  
> 2019  6 16  0 41 59.0000000  0  9                     
G 2  21511620.845   113044187.172        -526.671          43.000  
G 3  21511617.307   113044207.675        -526.632          44.000  
G 1  21511623.472   113044190.183        -526.624          38.000  
G 4  21511616.609   113044201.889        -526.655          45.000  
G 5  21511388.019   113043104.0102       -526.632          44.000  
G 6  21511392.822   113042988.754        -526.754          45.000  
G 7  21488508.252   112922839.193        -527.130          32.000  
G30  21517775.184   113076566.150        -526.714          32.000  
G11  21526890.042   113124492.241        -526.100          31.000  
> 2019  6 16  0 42  0.0000000  0  9                     
G 2  21511721.236   113044714.083        -527.030          43.000  
G 3  21511717.672   113044734.607        -527.017          44.000  
G 1  21511723.872   113044717.106        -526.921          38.000  
G 4  21511716.905   113044728.814        -527.112          45.000  
G 5  21511488.481   113043630.9192       -526.896          44.000  
G 6  21511493.285   113043515.665        -527.024          45.000  
G 7  21488608.561   112923366.129        -527.031          31.000  
G30  21517875.553   113077093.069        -527.341          32.000  
G11  21526990.421   113125019.155        -526.559          31.000  
> 2019  6 16  0 42  1.0000000  0  9                     
G 2  21511821.675   113045241.005        -526.947          43.000  
G 3  21511817.970   113045261.506        -527.014          44.000  
G 1  21511824.435   113045244.028        -527.054          38.000  
G 4  21511817.180   113045255.727        -527.181          45.000  
G 5  21511588.793   113044157.3281       -526.785          44.000  
G 6  21511593.619   113044186.5713       -526.951          45.000  
G 7  21488708.880   112923893.084        -528.130          31.000  
G30  21517975.835   113077619.990        -527.229          31.000  
G11  21527090.690   113125546.080        -526.702          30.000  
> 2019  6 16  0 42  2.0000000  0  9                     
G 2  21511921.971   113045767.894        -526.986          43.000  
G 3  21511918.264   113045788.417        -526.980          44.000  
G 1  21511925.002   113045770.924        -526.902          38.000  
G 4  21511917.541   113045782.633        -527.080          45.000  
G 5  21511689.151   113044684.238        -526.816          44.000  
G 6  21511693.898   113044713.4802       -527.006          45.000  
G 7  21488809.201   112924419.979        -528.313          31.000  
G30  21518076.033   113078146.881        -527.031          31.000  
G11  21527190.983   113126072.949        -526.017          30.000  
> 2019  6 16  0 42  3.0000000  0  9                     
G 2  21512022.345   113046294.866        -526.791          43.000  
G 3  21512018.601   113046315.361        -526.750          44.000  
G 1  21512025.342   113046297.858        -526.410          38.000  
G 4  21512017.987   113046309.597        -527.025          45.000  
G 5  21511789.516   113045211.188        -526.665          45.000  
G 6  21511794.075   113045240.4323       -526.858          45.000  
G 7  21488909.614   112924946.903        -527.427          31.000  
G30  21518176.504   113078673.837        -526.812          31.000  
G11  21527291.288   113126599.920        -526.112          31.000  
> 2019  6 16  0 42  4.0000000  0  9                     
G 2  21512122.833   113046821.699        -526.827          43.000  
G 3  21512118.907   113046842.198        -526.982          44.000  
G 1  21512125.708   113046824.715        -526.981          38.000  
G 4  21512118.514   113046836.426        -527.002          45.000  
G 5  21511889.907   113045738.033        -526.949          44.000  
G 6  21511894.298   113045767.2683       -527.024          45.000  
G 7  21489017.668                        -528.857          31.000  
G30  21518276.790   113079200.706        -527.448          31.000  
G11  21527379.592   113127143.1933       -525.324          30.000  
> 2019  6 16  0 42  5.0000000  0  9                     
G 2  21512223.090   113047348.513        -526.753          43.000  
G 3  21512219.273   113047369.001        -526.647          44.000  
G 1  21512225.985   113047351.533        -526.609          38.000  
G 4  21512218.983   113047363.241        -526.879          45.000  
G 5  21511990.242   113046264.838        -526.761          44.000  
G 6  21511994.717   113046295.0803       -526.720          45.000  
G 7  21489112.659   112926048.5413       -526.792          31.000  
G30  21518377.204   113079727.513        -526.946          32.000  
G11  21527481.170   113127677.0933       -526.674          31.000  
> 2019  6 16  0 42  6.0000000  0  9                     
G 2  21512323.516   113047875.337        -527.200          43.000  
G 3  21512319.740   113047895.834        -527.130          45.000  
G 1  21512326.418   113047878.364        -527.302          38.000  
G 4  21512319.294   113047890.054        -527.314          45.000  
G 5  21512090.580   113046791.667        -527.220          44.000  
G 6  21512095.109   113046821.9072       -527.223          45.000  
G 7  21489212.748   112926575.3862       -527.306          32.000  
G30  21518477.638   113080254.286        -527.230          32.000  
G11  21527584.953   113128221.9372       -527.979          30.000  
> 2019  6 16  0 42  7.0000000  0  9                     
G 2  21512423.946   113048402.264        -527.098          44.000  
G 3  21512420.171   113048422.765        -526.985          44.000  
G 1  21512426.806   113048405.281        -527.009          38.000  
G 4  21512419.685   113048417.006        -527.241          45.000  
G 5  21512190.875   113047318.605        -527.037          44.000  
G 6  21512195.510   113047348.849        -526.958          45.000  
G 7  21489313.142   112927102.307        -527.291          31.000  
G30  21518577.974   113080781.312        -527.736          31.000  
G11  21527688.143   113128748.3971       -527.797          30.000  
> 2019  6 16  0 42  8.0000000  0  9                     
G 2  21512524.233   113048929.175        -527.136          43.000  
G 3  21512520.522   113048949.675        -527.181          44.000  
G 1  21512527.129   113048932.185        -526.996          38.000  
G 4  21512520.043   113048943.909        -527.190          45.000  
G 5  21512291.352   113047845.503        -527.201          44.000  
G 6  21512295.903   113047875.747        -527.072          45.000  
G 7  21489413.140   112927629.207        -526.788          31.000  
G30  21518678.390   113081308.149        -527.013          31.000  
G11  21527790.478   113129275.248        -527.090          30.000  
> 2019  6 16  0 42  9.0000000  0  9                     
G 2  21512624.532   113049456.149        -526.852          43.000  
G 3  21512620.979   113049476.657        -526.759          44.000  
G 1  21512627.340   113049459.154        -526.863          38.000  
G 4  21512620.463   113049470.886        -526.902          45.000  
G 5  21512391.660   113048372.484        -526.897          44.000  
G 6  21512396.225   113048402.727        -526.824          45.000  
G 7  21489513.477   112928156.224        -527.332          31.000  
G30  21518778.945   113081835.127        -526.749          30.000  
G11  21527890.797   113129802.264        -527.430          30.000  
> 2019  6 16  0 42 10.0000000  0  9                     
G 2  21512724.814   113049983.035        -527.175          43.000  
G 3  21512721.391   113050003.523        -526.957          44.000  
G 1  21512727.894   113049986.066        -527.500          38.000  
G 4  21512720.802   113049997.760        -527.142          45.000  
G 5  21512491.972   113048899.361        -527.002          44.000  
G 6  21512496.554   113048929.609        -527.120          45.000  
G 7  21489613.749   112928683.101        -527.932          31.000  
G30  21518879.295   113082362.000        -526.721          31.000  
G11  21527991.564   113130329.114        -527.517          30.000  
> 2019  6 16  0 42 11.0000000  0  9                     
G 2  21512825.209   113050509.940        -527.111          43.000  
G 3  21512821.719   113050530.438        -526.991          44.000  
G 1  21512828.215   113050512.954        -527.107          38.000  
G 4  21512821.225   113050524.676        -527.104          45.000  
G 5  21512592.304   113049426.270        -527.029          45.000  
G 6  21512597.080   113049456.519        -527.023          45.000  
G 7  21489713.833   112929210.061        -529.249          31.000  
G30  21518979.651   113082888.943        -527.290          31.000  
G11  21528092.807   113130856.021        -527.494          30.000  
> 2019  6 16  0 42 12.0000000  0  9                     
G 2  21512925.489   113051036.819        -526.742          44.000  
G 3  21512922.184   113051057.322        -526.785          44.000  
G 1  21512928.496   113051039.852        -527.152          38.000  
G 4  21512921.590   113051051.552        -526.998          44.000  
G 5  21512692.717   113049953.152        -526.740          44.000  
G 6  21512697.289   113049983.398        -526.909          45.000  
G 7  21489813.946   112929733.8833       -527.773          33.000  
G30  21519079.944   113083415.794        -527.572          30.000  
G11  21528193.262   113131382.930        -527.498          29.000  
> 2019  6 16  0 42 13.0000000  0  9                     
G 2  21513025.874   113051563.651        -526.782          43.000  
G 3  21513022.540   113051584.164        -526.786          44.000  
G 1  21513028.870   113051566.678        -526.899          38.000  
G 4  21513021.898   113051578.381        -526.779          45.000  
G 5  21512793.075   113050479.991        -526.765          44.000  
G 6  21512797.614   113050510.239        -526.935          45.000  
G 7  21489914.257   112930260.705        -527.126          31.000  
G30  21519180.249   113083942.622        -526.581          31.000  
G11  21528293.562   113131909.790        -527.460          30.000  
> 2019  6 16  0 42 14.0000000  0  9                     
G 2  21513126.141   113052090.524        -527.100          43.000  
G 3  21513122.923   113052111.024        -527.007          44.000  
G 1  21513129.234   113052093.561        -527.109          38.000  
G 4  21513122.256   113052105.249        -527.054          45.000  
G 5  21512893.366   113051006.851        -527.041          44.000  
G 6  21512898.069   113051037.102        -527.078          45.000  
G 7  21490014.503   112930787.562        -526.963          32.000  
G30  21519280.633   113084469.523        -527.240          31.000  
G11  21528393.817   113132436.622        -526.533          30.000  
> 2019  6 16  0 42 15.0000000  0  9                     
G 2  21513226.498   113052617.372        -526.876          43.000  
G 3  21513223.223   113052637.876        -526.705          45.000  
G 1  21513229.689   113052620.408        -527.018          38.000  
G 4  21513222.557   113052632.112        -526.752          45.000  
G 5  21512993.733   113051533.708        -526.807          44.000  
G 6  21512998.426   113051563.960        -526.782          45.000  
G 7  21490114.678   112931314.456        -527.576          32.000  
G30  21519380.923   113084996.361        -526.636          31.000  
G11  21528494.164   113132999.9913       -527.123          30.000  
> 2019  6 16  0 42 16.0000000  0  9                     
G 2  21513326.848   113053144.241        -526.925          43.000  
G 3  21513323.585   113053164.751        -526.802          45.000  
G 1  21513329.939   113053147.279        -527.141          38.000  
G 4  21513322.859   113053158.972        -526.826          45.000  
G 5  21513094.076   113052060.585        -526.935          44.000  
G 6  21513098.762   113052090.823        -526.780          45.000  
G 7  21490214.951   112931841.325        -527.585          31.000  
G30  21519481.263   113085523.244        -526.761          32.000  
G11  21528594.560   113133526.9232       -528.474          31.000  
> 2019  6 16  0 42 17.0000000  0  9                     
G 2  21513427.115   113053671.157        -527.067          43.000  
G 3  21513423.837   113053691.661        -527.018          44.000  
G 1  21513430.236   113053674.176        -527.216          38.000  
G 4  21513423.189   113053685.886        -527.026          45.000  
G 5  21513194.478   113052587.495        -527.115          44.000  
G 6  21513199.126   113052617.736        -526.989          45.000  
G 7  21490315.376   112932368.227        -527.435          31.000  
G30  21519581.669   113086050.136        -526.876          32.000  
G11  21528695.070   113134053.8042       -527.979          31.000  
> 2019  6 16  0 42 18.0000000  0  9                     
G 2  21513527.441   113054198.148        -527.059          43.000  
G 3  21513524.157   113054218.653        -527.064          45.000  
G 1  21513530.456   113054201.171        -527.250          38.000  
G 4  21513523.579   113054212.880        -527.090          45.000  
G 5  21513294.766   113053114.488        -527.128          44.000  
G 6  21513299.500   113053144.732        -527.046          45.000  
G 7  21490415.703   112932895.229        -527.362          31.000  
G30  21519682.074   113086577.121        -527.115          31.000  
G11  21528795.611   113134580.8112       -528.184          31.000  
> 2019  6 16  0 42 19.0000000  0  9                     
G 2  21513627.799   113054725.143        -526.833          43.000  
G 3  21513624.573   113054745.659        -526.984          45.000  
G 1  21513630.894   113054728.182        -527.096          38.000  
G 4  21513623.890   113054739.877        -526.918          45.000  
G 5  21513395.116   113053641.486        -526.960          44.000  
G 6  21513399.788   113053671.733        -526.921          45.000  
G 7  21490516.256   112933422.242        -527.147          31.000  
G30  21519782.515   113087104.139        -527.196          31.000  
G11  21528896.301   113135107.2331       -527.579          30.000  
> 2019  6 16  0 42 20.0000000  0  9                     
G 2  21513728.167   113055252.173        -526.880          43.000  
G 3  21513724.936   113055272.686        -527.004          45.000  
G 1  21513731.362   113055255.220        -527.244          38.000  
G 4  21513724.310   113055266.902        -526.906          44.000  
G 5  21513495.502   113054168.520        -527.041          44.000  
G 6  21513500.257   113054198.769        -527.047          45.000  
G 7  21490616.569   112933949.258        -527.312          31.000  
G30  21519882.933   113087631.207        -527.125          30.000  
G11  21528996.904   113135634.310        -527.395          29.000  
> 2019  6 16  0 42 21.0000000  0  9                     
G 2  21513828.571   113055779.176        -526.880          43.000  
G 3  21513825.368   113055799.693        -527.186          45.000  
G 1  21513831.809   113055782.234        -527.427          38.000  
G 4  21513824.721   113055793.920        -526.912          45.000  
G 5  21513595.820   113054695.521        -527.098          44.000  
G 6  21513600.597   113054725.768        -527.075          45.000  
G 7  21490716.815   112934476.230        -527.030          32.000  
G30  21519983.264   113088158.160        -526.866          30.000  
G11  21529097.145   113136161.333        -527.767          30.000  
> 2019  6 16  0 42 22.0000000  0  9                     
G 2  21513929.036   113056306.108        -526.747          44.000  
G 3  21513925.665   113056326.618        -527.004          45.000  
G 1  21513932.464   113056309.160        -526.968          38.000  
G 4  21513925.179   113056320.857        -526.749          44.000  
G 5  21513696.132   113055222.462        -527.104          44.000  
G 6  21513700.987   113055252.695        -526.837          45.000  
G 7  21490817.036   112935003.145        -526.410          31.000  
G30  21520083.693   113088685.077        -526.173          30.000  
G11  21529197.526   113136688.287        -527.860          30.000  
> 2019  6 16  0 42 23.0000000  0  9                     
G 2  21514029.358   113056832.949        -526.722          43.000  
G 3  21514025.972   113056853.455        -526.913          45.000  
G 1  21514032.994   113056835.998        -526.874          38.000  
G 4  21514025.640   113056847.691        -526.675          44.000  
G 5  21513796.530   113055749.302        -527.021          44.000  
G 6  21513801.426   113055779.530        -526.747          45.000  
G 7  21490917.222   112935529.986        -525.881          31.000  
G30  21520183.908   113089211.863        -526.418          30.000  
G11  21529298.027   113137215.074        -527.258          30.000  
> 2019  6 16  0 42 24.0000000  0  9                     
G 2  21514129.728   113057359.799        -526.906          43.000  
G 3  21514126.416   113057380.309        -527.000          44.000  
G 1  21514133.426   113057362.839        -526.709          38.000  
G 4  21514125.882   113057374.545        -526.709          44.000  
G 5  21513896.840   113056276.148        -526.936          44.000  
G 6  21513901.690   113056306.397        -526.917          45.000  
G 7  21491017.570                        -525.000          32.000  
G30  21520284.200   113089738.752        -526.093          31.000  
G11  21529398.463   113137741.962        -528.151          29.000  
> 2019  6 16  0 42 25.0000000  0  9                     
G 2  21514230.042   113057886.674        -526.865          43.000  
G 3  21514226.748   113057907.180        -526.982          45.000  
G 1  21514233.799   113057889.703        -526.600          38.000  
G 4  21514226.268   113057901.415        -526.689          45.000  
G 5  21513997.113   113056803.015        -526.816          44.000  
G 6  21514002.003   113056833.258        -526.780          45.000  
G 7  21491117.775   112936585.1683       -525.804          32.000  
G30  21520384.660   113090265.673        -526.342          30.000  
G11  21529498.843   113138268.805        -527.069          30.000  
> 2019  6 16  0 42 26.0000000  0  9                     
G 2  21514330.339   113058413.457        -526.770          43.000  
G 3  21514327.019   113058433.955        -526.866          45.000  
G 1  21514334.002   113058416.488        -526.764          38.000  
G 4  21514326.679   113058428.176        -526.632          45.000  
G 5  21514097.590   113057329.793        -526.766          44.000  
G 6  21514102.424   113057360.037        -526.708          45.000  
G 7  21491218.089   112937111.9742       -525.931          31.000  
G30  21520484.986   113090792.431        -526.260          31.000  
G11  21529599.308   113138795.568        -526.539          32.000  
> 2019  6 16  0 42 27.0000000  0  9                     
G 2  21514430.773   113058940.259        -526.798          44.000  
G 3  21514427.294   113058960.771        -526.920          44.000  
G 1  21514434.342   113058943.297        -526.848          38.000  
G 4  21514426.957   113058954.991        -526.731          45.000  
G 5  21514197.966   113057856.604        -526.893          44.000  
G 6  21514202.876   113057886.858        -526.909          45.000  
G 7  21491318.256   112937638.7832       -526.353          32.000  
G30  21520585.483   113091319.279        -526.851          30.000  
G11  21529699.544   113139322.405        -527.048          31.000  
> 2019  6 16  0 42 28.0000000  0  9                     
G 2  21514531.091   113059467.134        -526.746          43.000  
G 3  21514527.474   113059487.646        -526.809          44.000  
G 1  21514534.690   113059470.173        -526.628          39.000  
G 4  21514527.340   113059481.866        -526.646          45.000  
G 5  21514298.351   113058383.477        -526.732          44.000  
G 6  21514303.165   113058413.717        -526.597          45.000  
G 7  21491418.457   112938165.6312       -525.775          32.000  
G30  21520685.815   113091846.110        -526.554          31.000  
G11  21529799.820   113139849.282        -526.697          31.000  
> 2019  6 16  0 42 29.0000000  0  9                     
G 2  21514631.409   113059994.036        -526.890          43.000  
G 3  21514627.829   113060014.551        -526.931          44.000  
G 1  21514635.093   113059997.077        -527.015          39.000  
G 4  21514627.620   113060008.764        -526.846          45.000  
G 5  21514398.804   113058910.377        -526.875          44.000  
G 6  21514403.534   113058940.624        -526.852          45.000  
G 7  21491518.731   112938692.5562       -526.396          33.000  
G30  21520786.064   113092372.973        -526.818          31.000  
G11  21529900.228   113140376.137        -526.945          30.000  
> 2019  6 16  0 42 30.0000000  0  9                     
G 2  21514731.702   113060520.837        -526.951          43.000  
G 3  21514728.126   113060541.355        -526.904          45.000  
G 1  21514735.341   113060523.879        -526.923          39.000  
G 4  21514727.899   113060535.576        -526.849          45.000  
G 5  21514499.199   113059437.187        -526.768          44.000  
G 6  21514503.959   113059467.429        -526.783          45.000  
G 7  21491618.804   112939219.3342       -526.514          32.000  
G30  21520886.447   113092899.840        -527.205          30.000  
G11  21530000.455   113140902.924        -525.411          31.000  
> 2019  6 16  0 42 31.0000000  0  9                     
G 2  21514832.017   113061047.603        -526.927          43.000  
G 3  21514828.535   113061068.097        -526.699          44.000  
G 1  21514835.560   113061050.633        -527.024          39.000  
G 4  21514828.219   113061062.320        -526.738          45.000  
G 5  21514599.534   113059963.926        -526.617          45.000  
G 6  21514604.284   113059994.173        -526.677          45.000  
G 7  21491719.129   112939745.6631       -527.454          32.000  
G30  21520986.732   113093426.559        -526.312          31.000  
G11  21530100.648   113141429.644        -525.031          31.000  
> 2019  6 16  0 42 32.0000000  0  9                     
G 2  21514932.290   113061574.270        -526.531          43.000  
G 3  21514928.779   113061594.773        -526.471          44.000  
G 1  21514935.876   113061577.295        -526.730          38.000  
G 4  21514928.471   113061589.000        -526.497          45.000  
G 5  21514699.891   113060490.599        -526.383          44.000  
G 6  21514704.524   113060520.850        -526.465          45.000  
G 7  21491819.603   112940272.322        -526.790          31.000  
G30  21521087.079   113093953.227        -526.614          31.000  
G11  21530201.146   113141956.340        -525.201          30.000  
> 2019  6 16  0 42 33.0000000  0  9                     
G 2  21515032.596   113062100.952        -526.907          43.000  
G 3  21515029.148   113062121.462        -526.783          45.000  
G 1  21515036.143   113062104.011        -526.890          38.000  
G 4  21515028.773   113062115.687        -526.821          45.000  
G 5  21514800.240   113061017.288        -526.732          45.000  
G 6  21514804.914   113061047.543        -526.799          46.000  
G 7  21491919.841   112940799.009        -526.796          32.000  
G30  21521187.531   113094479.923        -526.210          30.000  
G11  21530301.407   113142483.065        -526.083          31.000  
> 2019  6 16  0 42 34.0000000  0  9                     
G 2  21515132.971   113062627.532        -526.738          43.000  
G 3  21515129.342   113062648.026        -526.578          45.000  
G 1  21515136.596   113062630.562        -526.628          38.000  
G 4  21515129.054   113062642.253        -526.699          46.000  
G 5  21514900.522   113061543.853        -526.576          45.000  
G 6  21514905.227   113061574.109        -526.632          45.000  
G 7  21492020.194   112941325.575        -526.605          31.000  
G30  21521287.834   113095006.463        -526.433          30.000  
G11  21530401.465   113143009.614        -525.663          31.000  
> 2019  6 16  0 42 35.0000000  0  9                     
G 2  21515233.248   113063154.120        -526.880          43.000  
G 3  21515229.638   113063174.624        -526.812          44.000  
G 1  21515236.965   113063157.156        -526.991          38.000  
G 4  21515229.409   113063168.841        -526.803          45.000  
G 5  21515000.890   113062070.440        -526.619          44.000  
G 6  21515005.529   113062100.701        -526.759          45.000  
G 7  21492120.594   112941852.182        -526.915          32.000  
G30  21521388.055   113095533.089        -527.155          31.000  
G11  21530501.702   113143536.177        -525.804          30.000  
> 2019  6 16  0 42 36.0000000  0  9                     
G 2  21515333.658   113063680.806        -526.997          43.000  
G 3  21515329.994   113063701.307        -526.946          44.000  
G 1  21515337.296   113063683.822        -526.844          38.000  
G 4  21515329.677   113063695.518        -526.830          45.000  
G 5  21515101.190   113062597.126        -526.761          44.000  
G 6  21515105.884   113062627.371        -526.815          46.000  
G 7  21492220.945   112942378.828        -526.848          32.000  
G30  21521488.340   113096059.746        -527.261          31.000  
G11  21530602.089   113144062.822        -525.624          30.000  
> 2019  6 16  0 42 37.0000000  0  9                     
G 2  21515434.026   113064207.581        -527.006          43.000  
G 3  21515430.353   113064228.082        -526.801          45.000  
G 1  21515437.670   113064210.631        -527.064          38.000  
G 4  21515429.912   113064222.302        -526.842          45.000  
G 5  21515201.470   113063123.910        -526.709          44.000  
G 6  21515206.165   113063154.164        -526.869          46.000  
G 7  21492321.249   112942905.648        -527.272          32.000  
G30  21521588.533   113096586.528        -527.075          31.000  
G11  21530702.494   113144589.622        -525.574          30.000  
> 2019  6 16  0 42 38.0000000  0  9                     
G 2  21515534.357   113064734.423        -526.808          43.000  
G 3  21515530.693   113064754.926        -526.770          44.000  
G 1  21515538.063   113064737.461        -526.949          38.000  
G 4  21515530.196   113064749.151        -526.797          45.000  
G 5  21515301.813   113063650.743        -526.732          44.000  
G 6  21515306.498   113063681.001        -526.825          46.000  
G 7  21492421.597   112943432.473        -527.007          32.000  
G30  21521688.816   113097113.402        -526.980          31.000  
G11  21530802.844   113145116.472        -526.002          30.000  
> 2019  6 16  0 42 39.0000000  0  9                     
G 2  21515634.650   113065261.253        -526.774          43.000  
G 3  21515631.024   113065281.762        -526.748          44.000  
G 1  21515638.350   113065264.316        -527.076          38.000  
G 4  21515630.513   113065275.983        -526.725          45.000  
G 5  21515402.228   113064177.586        -526.763          44.000  
G 6  21515406.822   113064207.838        -526.755          46.000  
G 7  21492522.002   112943959.333        -527.096          31.000  
G30  21521789.117   113097640.236        -526.868          31.000  
G11  21530903.285   113145643.348        -526.822          30.000  
> 2019  6 16  0 42 40.0000000  0  9                     
G 2  21515734.948   113065788.080        -527.286          43.000  
G 3  21515731.374   113065808.573        -526.919          44.000  
G 1  21515738.718   113065791.120        -527.177          38.000  
G 4  21515730.950   113065802.810        -527.059          45.000  
G 5  21515502.590   113064704.419        -527.145          44.000  
G 6  21515507.278   113064734.655        -526.997          46.000  
G 7  21492622.347   112944486.139        -527.319          32.000  
G30  21521889.350   113098167.019        -526.832          31.000  
G11  21531003.690   113146170.129        -526.427          30.000  
> 2019  6 16  0 42 41.0000000  0  9                     
G 2  21515835.167   113066314.859        -526.624          43.000  
G 3  21515831.678   113066335.366        -526.599          45.000  
G 1  21515839.081   113066317.921        -526.674          38.000  
G 4  21515831.140   113066329.601        -526.547          45.000  
G 5  21515602.905   113065231.215        -526.663          44.000  
G 6  21515607.632   113065261.450        -526.565          46.000  
G 7  21492722.829   112945012.924        -526.946          31.000  
G30  21521989.586   113098693.870        -526.370          31.000  
G11  21531104.099   113146696.945        -526.039          30.000  
> 2019  6 16  0 42 42.0000000  0  9                     
G 2  21515935.459   113066841.603        -526.735          43.000  
G 3  21515931.938   113066862.104        -526.699          44.000  
G 1  21515939.498   113066844.643        -526.617          38.000  
G 4  21515931.467   113066856.333        -526.685          45.000  
G 5  21515703.220   113065757.939        -526.709          44.000  
G 6  21515707.884   113065788.180        -526.606          46.000  
G 7  21492823.100   112945539.652        -526.781          32.000  
G30  21522089.999   113099220.597        -527.227          31.000  
G11  21531204.427   113147223.645        -525.632          31.000  
> 2019  6 16  0 42 43.0000000  0  9                     
G 2  21516035.746   113067368.238        -526.411          43.000  
G 3  21516032.258   113067388.729        -526.464          45.000  
G 1  21516039.932   113067371.272        -526.354          38.000  
G 4  21516031.794   113067382.972        -526.584          45.000  
G 5  21515803.526   113066284.569        -526.436          44.000  
G 6  21515808.234   113066314.810        -526.381          46.000  
G 7  21492923.458   112946066.284        -526.527          32.000  
G30  21522190.319   113099747.231        -527.117          31.000  
G11  21531304.868   113147750.300        -525.972          31.000  
> 2019  6 16  0 42 44.0000000  0  9                     
G 2  21516135.980   113067894.765        -526.367          42.000  
G 3  21516132.570   113067915.258        -526.478          45.000  
G 1  21516140.194   113067897.813        -526.362          38.000  
G 4  21516132.166   113067909.500        -526.505          45.000  
G 5  21515903.876   113066811.097        -526.365          45.000  
G 6  21515908.467   113066841.337        -526.289          46.000  
G 7  21493023.770   112946592.792        -526.377          32.000  
G30  21522290.536   113100273.769        -527.042          32.000  
G11  21531405.254   113148276.825        -526.058          31.000  
> 2019  6 16  0 42 45.0000000  0  9                     
G 2  21516236.306   113068421.409        -526.614          43.000  
G 3  21516232.887   113068441.923        -526.759          45.000  
G 1  21516240.464   113068424.458        -526.654          38.000  
G 4  21516232.529   113068436.157        -526.696          46.000  
G 5  21516004.224   113067337.749        -526.694          45.000  
G 6  21516008.660   113067367.991        -526.547          46.000  
G 7  21493124.083   112947119.475        -526.505          32.000  
G30  21522390.927   113100800.427        -527.312          31.000  
G11  21531505.839   113148803.492        -526.674          31.000  
> 2019  6 16  0 42 46.0000000  0  9                     
G 2  21516336.574   113068948.033        -526.356          43.000  
G 3  21516333.249   113068968.547        -526.429          45.000  
G 1  21516340.605   113068951.073        -526.339          39.000  
G 4  21516332.974   113068962.778        -526.437          46.000  
G 5  21516104.567   113067864.378        -526.459          45.000  
G 6  21516109.032   113067894.617        -526.320          46.000  
G 7  21493224.421   112947646.089        -526.095          33.000  
G30  21522491.345   113101327.028        -526.492          31.000  
G11  21531606.150   113149330.115        -526.077          30.000  
> 2019  6 16  0 42 47.0000000  0  9                     
G 2  21516436.886   113069474.661        -526.637          43.000  
G 3  21516433.590   113069495.173        -526.698          44.000  
G 1  21516440.990   113069477.687        -526.327          39.000  
G 4  21516433.232   113069489.409        -526.703          46.000  
G 5  21516204.885   113068391.004        -526.820          45.000  
G 6  21516209.324   113068421.235        -526.615          46.000  
G 7  21493324.630   112948172.692        -526.477          32.000  
G30  21522591.568   113101853.625        -527.026          31.000  
G11  21531706.535   113149856.728        -526.381          30.000  
> 2019  6 16  0 42 48.0000000  0  9                     
G 2  21516537.123   113070001.337        -526.664          43.000  
G 3  21516533.944   113070021.852        -526.705          45.000  
G 1  21516541.104   113070004.362        -526.399          39.000  
G 4  21516533.570   113070016.087        -526.760          46.000  
G 5  21516305.174   113068917.686        -526.862          44.000  
G 6  21516309.684   113068947.923        -526.609          46.000  
G 7  21493424.874   112948699.391        -526.478          32.000  
G30  21522691.968   113102380.289        -526.368          30.000  
G11  21531807.049   113150383.448        -527.063          30.000  
> 2019  6 16  0 42 49.0000000  0  9                     
G 2  21516637.424   113070692.0883       -526.749          43.000  
G 3  21516634.248   113070675.6003       -526.754          45.000  
G 1  21516641.668   113070714.6263       -526.588          39.000  
G 4  21516633.982   113070674.3413       -526.848          45.000  
G 5  21516405.460   113069472.9353       -526.810          45.000  
G 6  21516410.144   113069497.6733       -526.685          46.000  
G 7  21493525.467   112949238.1293       -525.948          32.000  
G30  21522792.256   113103036.0283       -525.991          30.000  
G11  21531903.210   113150914.1593       -526.397          30.000  
> 2019  6 16  0 42 50.0000000  0  9                     
G 2  21516737.750   113071219.8212       -526.660          43.000  
G 3  21516734.619   113071203.3152       -526.692          45.000  
G 1  21516742.028   113071242.3342       -526.515          39.000  
G 4  21516734.324   113071201.0612       -526.749          45.000  
G 5  21516505.803   113070000.6612       -526.747          44.000  
G 6  21516510.480   113070025.4022       -526.644          46.000  
G 7  21493625.738   112949764.8772       -526.464          32.000  
G30  21522892.597   113103563.7902       -526.621          30.000  
G11  21532003.522   113151441.8882       -527.124          30.000  
> 2019  6 16  0 42 51.0000000  0  9                     
G 2  21516838.096   113071746.5682       -526.614          43.000  
G 3  21516834.945   113071730.0682       -526.649          45.000  
G 1  21516842.191   113071769.0732       -526.256          38.000  
G 4  21516834.585   113071727.8022       -526.615          45.000  
G 5  21516606.104   113070527.4002       -526.597          44.000  
G 6  21516610.707   113070552.1452       -526.631          47.000  
G 7  21493726.111   112950291.5982       -526.313          32.000  
G30  21522992.960   113104090.5002       -526.375          31.000  
G11  21532108.810   113151968.6402       -526.705          30.000  
> 2019  6 16  0 42 52.0000000  0  9                     
G 2  21516938.377   113072273.2962       -526.862          43.000  
G 3  21516935.290   113072256.8012       -526.854          44.000  
G 1  21516942.412   113072295.7912       -526.412          38.000  
G 4  21516934.910   113072254.5262       -526.821          45.000  
G 5  21516706.408   113071054.1252       -526.733          44.000  
G 6  21516711.082   113071078.8732       -526.785          46.000  
G 7  21493826.357   112950818.3442       -526.663          32.000  
G30  21523093.207   113104617.2482       -526.417          31.000  
G11  21532212.420   113152495.3452       -526.980          31.000  
> 2019  6 16  0 42 53.0000000  0  9                     
G 2  21517038.683   113072800.8873       -526.464          43.000  
G 3  21517035.653   113072785.3993       -526.407          44.000  
G 1  21517042.551   113072821.4113       -526.245          38.000  
G 4  21517035.051   113072782.1293       -526.459          45.000  
G 5  21516806.711   113071581.7293       -526.422          44.000  
G 6  21516811.258   113071605.4793       -526.447          46.000  
G 7  21493926.547   112951345.9613       -527.081          32.000  
G30  21523193.646   113105145.8993       -526.328          31.000  
G11  21532313.383   113153069.9803       -526.670          30.000  
> 2019  6 16  0 42 54.0000000  0  9                     
G 2  21517138.972   113073328.4792       -526.783          43.000  
G 3  21517135.962   113073311.9922       -526.664          45.000  
G 1  21517142.713   113073348.0332       -526.793          38.000  
G 4  21517135.394   113073308.7222       -526.743          45.000  
G 5  21516907.033   113072109.3322       -526.698          44.000  
G 6  21516911.641   113072133.0712       -526.788          46.000  
G 7  21494026.805   112951872.5612       -527.675          31.000  
G30  21523294.017   113105672.4892       -527.388          31.000  
G11  21532413.742   113153597.5712       -527.219          31.000  
> 2019  6 16  0 42 55.0000000  0  9                     
G 2  21517239.240   113073854.9913       -526.705          43.000  
G 3  21517236.340   113073839.4953       -526.454          45.000  
G 1  21517243.277   113073876.5233       -526.350          38.000  
G 4  21517235.671   113073836.2173       -526.556          45.000  
G 5  21517007.316   113072635.8163       -526.495          44.000  
G 6  21517011.913   113072660.5773       -526.676          46.000  
G 7  21494127.144   112952400.0793       -527.253          32.000  
G30  21523394.303   113106199.9863       -526.847          31.000  
G11  21532513.698   113154123.0443       -526.344          31.000  
> 2019  6 16  0 42 56.0000000  0  9                     
G 2  21517339.563   113074381.4582       -526.613          43.000  
G 3  21517336.595   113074365.9712       -526.530          45.000  
G 1  21517343.686   113074402.9742       -526.204          38.000  
G 4  21517335.858   113074362.6812       -526.619          45.000  
G 5  21517107.663   113073162.2942       -526.550          44.000  
G 6  21517112.179   113073187.0402       -526.730          46.000  
G 7  21494227.632   112952926.5402       -527.214          32.000  
G30  21523494.546   113106726.3912       -526.229          31.000  
G11  21532613.875   113154649.5222       -526.627          30.000  
> 2019  6 16  0 42 57.0000000  0  9                     
G 2  21517439.802   113074908.0042       -526.600          44.000  
G 3  21517436.947   113074892.5132       -526.632          46.000  
G 1  21517443.957   113074929.5302       -526.636          38.000  
G 4  21517436.142   113074889.2302       -526.725          45.000  
G 5  21517207.974   113073688.8372       -526.703          44.000  
G 6  21517212.487   113073713.5792       -526.731          46.000  
G 7  21494328.014   112953453.0552       -526.660          33.000  
G30  21523594.636   113107252.9462       -526.682          31.000  
G11  21532713.869   113155176.1192       -527.485          31.000  
> 2019  6 16  0 42 58.0000000  0  9                     
G 2  21517540.097   113075434.5612       -526.353          43.000  
G 3  21517537.240   113075419.0772       -526.315          46.000  
G 1  21517544.341   113075456.0982       -526.476          38.000  
G 4  21517536.447   113075415.7922       -526.570          45.000  
G 5  21517308.277   113074215.4092       -526.564          44.000  
G 6  21517312.769   113074240.1472       -526.703          47.000  
G 7  21494428.372   112953979.6302       -526.450          32.000  
G30  21523694.926   113107779.5822       -527.678          31.000  
G11  21532814.210   113155701.6773       -527.510          31.000  
> 2019  6 16  0 42 59.0000000  0  9                     
G 2  21517640.529   113075961.1182       -526.588          44.000  
G 3  21517637.504   113075945.6202       -526.615          45.000  
G 1  21517644.805   113075982.6512       -526.484          38.000  
G 4  21517636.714   113075942.3512       -526.824          46.000  
G 5  21517408.554   113074741.9562       -526.642          44.000  
G 6  21517412.931   113074766.7012       -526.688          46.000  
G 7  21494528.685   112954506.1532       -526.304          35.000  
G30  21523795.276   113108306.0872       -526.470          31.000  
G11  21532914.354   113156228.2152       -526.678          31.000  
> 2019  6 16  0 43  0.0000000  0  9                     
G 2  21517740.813   113076487.7352       -526.598          43.000  
G 3  21517737.845   113076472.2382       -526.581          45.000  
G 1  21517745.005   113076509.2612       -526.506          38.000  
G 4  21517737.053   113076468.9552       -526.729          45.000  
G 5  21517508.858   113075268.5692       -526.700          44.000  
G 6  21517513.258   113075293.3202       -526.831          46.000  
G 7  21494628.754   112955032.7802       -526.527          33.000  
G30  21523895.584   113108832.7072       -526.870          31.000  
G11  21533014.437   113156754.8512       -527.622          31.000  
> 2019  6 16  0 43  1.0000000  0  9                     
G 2  21517841.099   113077014.351        -526.599          43.000  
G 3  21517838.142   113076998.852        -526.542          46.000  
G 1  21517845.514   113077035.3821       -526.707          38.000  
G 4  21517837.330   113076995.0791       -526.655          45.000  
G 5  21517609.151   113075794.6881       -526.653          45.000  
G 6  21517613.628   113075819.923        -526.708          46.000  
G 7  21494729.056   112955559.397        -526.393          32.000  
G30  21523995.810   113109359.326        -527.081          31.000  
G11  21533114.619   113157281.454        -527.427          31.000  
> 2019  6 16  0 43  2.0000000  0  9                     
G 2  21517941.393   113077541.014        -526.653          43.000  
G 3  21517938.455   113077525.510        -526.691          46.000  
G 1  21517945.781   113077562.035        -526.622          38.000  
G 4  21517937.641   113077521.737        -526.750          46.000  
G 5  21517709.558   113076321.347        -526.715          45.000  
G 6  21517713.914   113076346.590        -526.820          46.000  
G 7  21494829.349   112956086.050        -526.342          32.000  
G30  21524096.046   113109885.981        -526.921          31.000  
G11  21533215.009   113157808.098        -527.249          31.000  
> 2019  6 16  0 43  3.0000000  0  9                     
G 2  21518041.750   113078067.626        -526.652          43.000  
G 3  21518038.804   113078052.123        -526.664          45.000  
G 1  21518046.019   113078088.657        -526.741          38.000  
G 4  21518037.979   113078048.353        -526.761          46.000  
G 5  21517809.828   113076847.956        -526.752          44.000  
G 6  21517814.188   113076873.195        -526.764          46.000  
G 7  21494929.673   112956612.669        -526.448          32.000  
G30  21524196.331   113110412.613        -526.974          31.000  
G11  21533315.327   113158334.718        -526.763          31.000  
> 2019  6 16  0 43  4.0000000  0  9                     
G 2  21518142.147   113078594.244        -526.309          43.000  
G 3  21518139.159   113078578.745        -526.294          45.000  
G 1  21518146.237   113078615.280        -526.545          38.000  
G 4  21518138.301   113078574.977        -526.454          45.000  
G 5  21517910.126   113077374.583        -526.416          44.000  
G 6  21517914.513   113077399.820        -526.379          46.000  
G 7  21495030.050   112957139.311        -526.654          32.000  
G30  21524296.570   113110939.245        -526.460          32.000  
G11  21533415.539   113158861.335        -526.444          31.000  
> 2019  6 16  0 43  5.0000000  0  9                     
G 2  21518242.459   113079120.720        -526.400          43.000  
G 3  21518239.443   113079105.223        -526.422          45.000  
G 1  21518246.525   113079141.750        -526.573          38.000  
G 4  21518238.631   113079101.442        -526.415          45.000  
G 5  21518010.390   113077907.5553       -526.487          44.000  
G 6  21518014.749   113077926.289        -526.339          46.000  
G 7  21495130.269   112957665.760        -526.219          32.000  
G30  21524396.807   113111465.708        -526.476          32.000  
G11  21533515.814   113159388.7863       -526.082          30.000  
> 2019  6 16  0 43  6.0000000  0  9                     
G 2  21518342.729   113079647.190        -526.447          43.000  
G 3  21518339.751   113079631.697        -526.515          45.000  
G 1  21518346.710   113079668.228        -526.797          38.000  
G 4  21518338.918   113079627.930        -526.689          45.000  
G 5  21518110.757   113078434.0422       -526.672          44.000  
G 6  21518115.079   113078452.772        -526.548          46.000  
G 7  21495230.499   112958192.231        -526.473          32.000  
G30  21524497.068   113111992.168        -526.725          31.000  
G11  21533616.080   113159915.2202       -525.237          30.000  
> 2019  6 16  0 43  7.0000000  0  9                     
G 2  21518443.087   113080173.748        -526.676          43.000  
G 3  21518439.942   113080158.259        -526.827          45.000  
G 1  21518447.032   113080194.786        -526.957          38.000  
G 4  21518439.191   113080154.483        -526.968          46.000  
G 5  21518211.098   113078960.0941       -526.943          44.000  
G 6  21518215.251   113078979.327        -526.886          46.000  
G 7  21495330.760   112958718.738        -525.576          32.000  
G30  21524597.338   113112518.735        -526.725          32.000  
G11  21533716.245   113160441.843        -527.179          30.000  
> 2019  6 16  0 43  8.0000000  0  9                     
G 2  21518543.372   113080700.358        -526.431          43.000  
G 3  21518540.267   113080684.866        -526.494          45.000  
G 1  21518547.270   113080721.395        -526.814          39.000  
G 4  21518539.404   113080681.086        -526.541          45.000  
G 5  21518311.356   113079486.700        -526.564          44.000  
G 6  21518315.543   113079505.934        -526.423          46.000  
G 7  21495431.077   112959245.459        -527.125          32.000  
G30  21524697.695   113113045.355        -526.750          31.000  
G11  21533816.350   113160968.398        -526.387          30.000  
> 2019  6 16  0 43  9.0000000  0  9                     
G 2  21518643.646   113081226.869        -526.318          43.000  
G 3  21518640.598   113081211.368        -526.349          45.000  
G 1  21518647.462   113081247.898        -526.355          38.000  
G 4  21518639.719   113081207.589        -526.458          45.000  
G 5  21518411.651   113080013.202        -526.455          44.000  
G 6  21518415.870   113080032.435        -526.306          46.000  
G 7  21495531.434   112959771.903        -525.957          32.000  
G30  21524797.898   113113571.869        -526.709          31.000  
G11  21533916.660   113161494.941        -526.180          31.000  
> 2019  6 16  0 43 10.0000000  0  9                     
G 2  21518743.935   113081753.385        -526.444          44.000  
G 3  21518740.858   113081737.884        -526.354          45.000  
G 1  21518747.830   113081774.410        -526.443          38.000  
G 4  21518739.915   113081734.098        -526.478          45.000  
G 5  21518511.927   113080539.723        -526.466          44.000  
G 6  21518516.246   113080558.955        -526.349          46.000  
G 7  21495631.697   112960298.377        -525.653          32.000  
G30  21524898.273   113114098.346        -526.108          30.000  
G11  21534016.728   113162021.443        -526.096          30.000  
> 2019  6 16  0 43 11.0000000  0  9                     
G 2  21518844.259   113082279.982        -526.635          44.000  
G 3  21518841.184   113082264.482        -526.591          45.000  
G 1  21518848.342   113082301.010        -526.671          38.000  
G 4  21518840.358   113082260.717        -526.611          46.000  
G 5  21518612.221   113081066.327        -526.665          44.000  
G 6  21518616.540   113081085.561        -526.620          46.000  
G 7  21495731.755   112960824.905        -524.451          32.000  
G30  21524998.647   113114624.982        -526.998          30.000  
G11  21534116.917   113162548.078        -527.042          30.000  
> 2019  6 16  0 43 12.0000000  0  9                     
G 2  21518944.587   113082806.631        -526.517          44.000  
G 3  21518941.465   113082791.139        -526.609          45.000  
G 1  21518948.558   113082827.659        -526.431          38.000  
G 4  21518940.631   113082787.354        -526.541          46.000  
G 5  21518712.544   113081592.977        -526.604          44.000  
G 6  21518716.818   113081612.211        -526.577          46.000  
G 7  21495831.981   112961351.598        -525.581          31.000  
G30  21525098.902   113115151.613        -526.454          31.000  
G11  21534217.167   113163074.695        -526.179          31.000  
> 2019  6 16  0 43 13.0000000  0  9                     
G 2  21519044.877   113083333.219        -526.473          44.000  
G 3  21519041.830   113083317.729        -526.615          45.000  
G 1  21519048.953   113083354.251        -526.458          38.000  
G 4  21519040.878   113083313.944        -526.481          45.000  
G 5  21518812.814   113082119.564        -526.549          44.000  
G 6  21518817.242   113082138.796        -526.477          46.000  
G 7  21495932.134   112961878.219        -526.208          31.000  
G30  21525199.222   113115678.209        -526.339          31.000  
G11  21534317.420   113163601.2913       -526.317          31.000  
> 2019  6 16  0 43 14.0000000  0  9                     
G 2  21519145.161   113083859.778        -526.689          44.000  
G 3  21519142.160   113083844.282        -526.718          45.000  
G 1  21519149.135   113083880.785        -526.495          38.000  
G 4  21519141.175   113083840.495        -526.632          45.000  
G 5  21518913.083   113082646.115        -526.705          44.000  
G 6  21518917.486   113082665.340        -526.555          46.000  
G 7  21496032.362   112962404.781        -526.420          31.000  
G30  21525299.533   113116204.742        -526.533          30.000  
G11  21534417.500   113164126.8422       -526.615          30.000  
> 2019  6 16  0 43 15.0000000  0  9                     
G 2  21519245.491   113084386.324        -526.711          44.000  
G 3  21519242.417   113084370.826        -526.680          45.000  
G 1  21519249.300   113084407.345        -526.654          38.000  
G 4  21519241.454   113084367.040        -526.556          45.000  
G 5  21519013.385   113083172.662        -526.697          44.000  
G 6  21519017.735   113083191.893        -526.603          46.000  
G 7  21496132.588   112962931.300        -526.289          31.000  
G30  21525399.939   113116731.287        -526.289          30.000  
G11  21534517.523   113164653.4092       -526.732          31.000  
> 2019  6 16  0 43 16.0000000  0  9                     
G 2  21519345.811   113084912.871        -526.560          44.000  
G 3  21519342.668   113084897.386        -526.660          45.000  
G 1  21519349.392   113084933.897        -526.648          38.000  
G 4  21519341.741   113084893.591        -526.412          45.000  
G 5  21519113.672   113083699.208        -526.622          45.000  
G 6  21519118.004   113083718.446        -526.562          46.000  
G 7  21496232.848   112963457.903        -526.848          32.000  
G30  21525500.236   113117257.824        -526.058          30.000  
G11  21534617.786   113165179.9632       -526.981          30.000  
> 2019  6 16  0 43 17.0000000  0  9                     
G 2  21519446.067   113085439.415        -526.490          43.000  
G 3  21519442.954   113085423.914        -526.560          45.000  
G 1  21519449.949   113085460.434        -526.500          39.000  
G 4  21519442.029   113085420.125        -526.417          45.000  
G 5  21519214.014   113084225.741        -526.584          45.000  
G 6  21519218.253   113084244.981        -526.556          46.000  
G 7  21496333.222   112963984.437        -526.757          33.000  
G30  21525600.429   113117784.364        -526.095          31.000  
G11  21534717.943   113165706.4373       -526.105          30.000  
> 2019  6 16  0 43 18.0000000  0  9                     
G 2  21519546.434   113085965.910        -526.506          43.000  
G 3  21519543.230   113085950.419        -526.573          45.000  
G 1  21519550.223   113085986.923        -526.469          38.000  
G 4  21519542.291   113085946.621        -526.294          45.000  
G 5  21519314.274   113084752.237        -526.516          45.000  
G 6  21519318.560   113084771.484        -526.512          46.000  
G 7  21496433.506   112964510.928        -526.224          32.000  
G30  21525700.595   113118310.850        -526.061          31.000  
G11  21534818.254   113166232.9602       -525.889          30.000  
> 2019  6 16  0 43 19.0000000  0  9                     
G 2  21519646.663   113086492.442        -526.519          43.000  
G 3  21519643.492   113086476.954        -526.556          45.000  
G 1  21519650.379   113086513.452        -526.298          38.000  
G 4  21519642.648   113086473.154        -526.304          45.000  
G 5  21519414.559   113085278.767        -526.428          44.000  
G 6  21519418.879   113085298.017        -526.543          46.000  
G 7  21496533.858   112965037.448        -526.426          32.000  
G30  21525800.915   113118837.426        -526.285          31.000  
G11  21534918.540   113166759.493        -526.234          31.000  
> 2019  6 16  0 43 20.0000000  0  9                     
G 2  21519746.997   113087018.868        -526.337          43.000  
G 3  21519743.675   113087003.378        -526.520          45.000  
G 1  21519750.682   113087039.882        -526.296          38.000  
G 4  21519742.828   113086999.580        -526.256          45.000  
G 5  21519514.879   113085805.196        -526.353          44.000  
G 6  21519519.141   113085824.444        -526.465          46.000  
G 7  21496634.101   112965563.874        -525.950          32.000  
G30  21525901.078   113119363.815        -526.250          31.000  
G11  21535018.725   113167285.923        -526.493          30.000  
> 2019  6 16  0 43 21.0000000  0  9                     
G 2  21519847.324   113087545.305        -526.449          43.000  
G 3  21519843.910   113087529.807        -526.560          45.000  
G 1  21519850.981   113087566.320        -526.489          38.000  
G 4  21519843.022   113087526.015        -526.390          45.000  
G 5  21519615.205   113086331.632        -526.505          44.000  
G 6  21519619.391   113086350.876        -526.542          46.000  
G 7  21496734.460   112966090.325        -526.230          32.000  
G30  21526001.366   113119890.281        -526.376          31.000  
G11  21535118.899   113167813.4023       -526.853          30.000  
> 2019  6 16  0 43 22.0000000  0  9                     
G 2  21519947.642   113088071.780        -526.533          43.000  
G 3  21519944.168   113088056.288        -526.532          45.000  
G 1  21519951.102   113088092.794        -526.519          38.000  
G 4  21519943.334   113088052.494        -526.422          45.000  
G 5  21519715.434   113086858.103        -526.420          44.000  
G 6  21519719.769   113086877.356        -526.575          46.000  
G 7  21496834.672   112966616.803        -526.124          32.000  
G30  21526101.586   113120416.739        -526.274          31.000  
G11  21535219.151   113168339.8592       -526.573          31.000  
> 2019  6 16  0 43 23.0000000  0  9                     
G 2  21520047.929   113088598.187        -526.626          43.000  
G 3  21520044.376   113088582.693        -526.566          45.000  
G 1  21520051.446   113088619.208        -526.738          38.000  
G 4  21520043.621   113088578.902        -526.523          45.000  
G 5  21519815.740   113087384.512        -526.487          45.000  
G 6  21519820.057   113087403.759        -526.594          46.000  
G 7  21496935.040   112967143.231        -526.548          32.000  
G30  21526201.869   113120943.165        -526.636          32.000  
G11  21535319.162   113168866.2932       -526.456          30.000  
> 2019  6 16  0 43 24.0000000  0  9                     
G 2  21520148.220   113089124.673        -526.475          43.000  
G 3  21520144.669   113089109.178        -526.516          45.000  
G 1  21520151.766   113089145.700        -526.671          38.000  
G 4  21520143.799   113089105.388        -526.528          45.000  
G 5  21519916.087   113087910.996        -526.482          44.000  
G 6  21519920.210   113087930.245        -526.527          46.000  
G 7  21497035.430   112967669.706        -526.404          32.000  
G30  21526302.035   113121469.643        -526.689          31.000  
G11  21535419.301   113169392.7552       -526.470          30.000  
> 2019  6 16  0 43 25.0000000  0  9                     
G 2  21520248.511   113089651.133        -526.580          43.000  
G 3  21520244.977   113089635.636        -526.587          45.000  
G 1  21520251.990   113089672.159        -526.714          38.000  
G 4  21520244.050   113089631.851        -526.659          45.000  
G 5  21520016.342   113088437.462        -526.719          44.000  
G 6  21520020.439   113088456.706        -526.633          46.000  
G 7  21497135.711   112968196.160        -526.510          32.000  
G30  21526402.195   113121996.134        -527.797          32.000  
G11  21535519.520   113169919.182        -526.661          30.000  
> 2019  6 16  0 43 26.0000000  0  9                     
G 2  21520348.859   113090177.573        -526.440          43.000  
G 3  21520345.194   113090162.074        -526.383          45.000  
G 1  21520352.207   113090198.599        -526.591          38.000  
G 4  21520344.330   113090158.288        -526.428          45.000  
G 5  21520116.642   113088963.905        -526.404          45.000  
G 6  21520120.749   113088983.141        -526.312          46.000  
G 7  21497236.009   112968722.612        -526.667          32.000  
G30  21526502.509   113122522.547        -526.038          31.000  
G11  21535619.820   113170445.629        -526.221          31.000  
> 2019  6 16  0 43 27.0000000  0  9                     
G 2  21520449.116   113090704.051        -526.486          44.000  
G 3  21520445.442   113090688.561        -526.493          45.000  
G 1  21520452.397   113090725.071        -526.571          38.000  
G 4  21520444.642   113090684.767        -526.501          45.000  
G 5  21520216.927   113089490.379        -526.429          45.000  
G 6  21520221.056   113089509.620        -526.399          46.000  
G 7  21497336.263   112969249.066        -526.760          32.000  
G30  21526602.822   113123048.998        -526.222          31.000  
G11  21535720.201   113170972.094        -526.038          31.000  
> 2019  6 16  0 43 28.0000000  0  9                     
G 2  21520549.359   113091230.494        -526.400          44.000  
G 3  21520545.775   113091215.008        -526.443          45.000  
G 1  21520552.534   113091251.518        -526.509          38.000  
G 4  21520544.916   113091211.217        -526.498          45.000  
G 5  21520317.116   113090016.822        -526.343          45.000  
G 6  21520321.234   113090036.064        -526.276          46.000  
G 7  21497436.458   112969775.535        -526.428          32.000  
G30  21526703.106   113123575.457        -526.100          31.000  
G11  21535820.545   113171498.536        -525.930          30.000  
> 2019  6 16  0 43 29.0000000  0  9                     
G 2  21520649.650   113091756.865        -526.488          44.000  
G 3  21520646.062   113091741.366        -526.572          45.000  
G 1  21520652.911   113091777.903        -526.685          38.000  
G 4  21520645.114   113091737.579        -526.591          45.000  
G 5  21520417.317   113090543.199        -526.434          45.000  
G 6  21520421.513   113090562.436        -526.439          46.000  
G 7  21497536.647   112970301.887        -526.909          32.000  
G30  21526803.432   113124101.822        -526.582          31.000  
G11  21535920.890   113172024.921        -526.486          31.000  
> 2019  6 16  0 43 30.0000000  0  9                     
G 2  21520749.909   113092283.272        -526.440          43.000  
G 3  21520746.331   113092267.784        -526.373          45.000  
G 1  21520753.288   113092304.307        -526.650          38.000  
G 4  21520745.382   113092264.002        -526.532          45.000  
G 5  21520517.599   113091069.603        -526.285          44.000  
G 6  21520521.780   113091088.850        -526.293          46.000  
G 7  21497636.897   112970828.318        -527.031          32.000  
G30  21526903.768   113124628.282        -526.858          31.000  
G11  21536021.171   113172551.344        -526.716          31.000  
> 2019  6 16  0 43 31.0000000  0  9                     
G 2  21520850.213   113092809.613        -526.338          43.000  
G 3  21520846.563   113092794.117        -526.371          44.000  
G 1  21520853.400   113092830.650        -526.620          38.000  
G 4  21520845.620   113092790.346        -526.580          45.000  
G 5  21520617.741   113091595.953        -526.385          44.000  
G 6  21520622.036   113091615.186        -526.383          46.000  
G 7  21497737.050   112971354.674        -527.668          32.000  
G30  21527003.937   113125154.606        -526.931          31.000  
G11  21536121.566   113173077.661        -526.067          31.000  
> 2019  6 16  0 43 32.0000000  0  9                     
G 2  21520950.472   113093335.974        -526.400          43.000  
G 3  21520946.775   113093320.473        -526.429          44.000  
G 1  21520953.795   113093357.016        -526.646          38.000  
G 4  21520945.934   113093316.705        -526.561          45.000  
G 5  21520717.945   113092122.303        -526.317          45.000  
G 6  21520722.203   113092141.543        -526.378          46.000  
G 7  21497837.268   112971881.047        -527.137          32.000  
G30  21527104.256   113125680.954        -526.932          31.000  
G11  21536221.873   113173604.052        -526.812          30.000  
> 2019  6 16  0 43 33.0000000  0  9                     
G 2  21521050.767   113093862.326        -526.443          43.000  
G 3  21521046.954   113093846.828        -526.432          44.000  
G 1  21521054.113   113093883.361        -526.628          38.000  
G 4  21521046.263   113093843.054        -526.508          44.000  
G 5  21520818.126   113092648.654        -526.329          44.000  
G 6  21520822.470   113092667.900        -526.312          46.000  
G 7  21497937.717   112972407.421        -527.208          31.000  
G30  21527204.585   113126207.300        -526.758          31.000  
G11  21536322.138   113174130.357        -526.490          30.000  
> 2019  6 16  0 43 34.0000000  0  9                     
G 2  21521150.962   113094388.683        -526.458          43.000  
G 3  21521147.138   113094373.166        -526.338          44.000  
G 1  21521154.161   113094409.705        -526.394          38.000  
G 4  21521146.498   113094369.388        -526.429          45.000  
G 5  21520918.392   113093175.005        -526.371          44.000  
G 6  21520922.688   113093194.244        -526.201          46.000  
G 7  21498038.162   112972933.730        -526.399          31.000  
G30  21527304.858   113126733.655        -526.337          32.000  
G11  21536422.243   113174656.749        -526.527          31.000  
> 2019  6 16  0 43 35.0000000  0  9                     
G 2  21521251.210   113094915.006        -526.356          43.000  
G 3  21521247.349   113094899.493        -526.235          44.000  
G 1  21521254.555   113094936.037        -526.313          38.000  
G 4  21521246.664   113094895.723        -526.389          45.000  
G 5  21521018.568   113093701.330        -526.348          44.000  
G 6  21521022.946   113093720.576        -526.376          46.000  
G 7  21498138.498   112973460.075        -526.912          31.000  
G30  21527405.154   113127259.944        -526.185          32.000  
G11  21536522.344   113175183.036        -526.400          31.000  
> 2019  6 16  0 43 36.0000000  0  9                     
G 2  21521351.451   113095441.332        -526.150          43.000  
G 3  21521347.622   113095425.827        -526.293          45.000  
G 1  21521354.837   113095462.352        -526.157          38.000  
G 4  21521346.903   113095422.048        -526.353          45.000  
G 5  21521118.791   113094227.652        -526.217          44.000  
G 6  21521123.218   113094246.901        -526.284          46.000  
G 7  21498238.968   112973986.394        -526.781          32.000  
G30  21527505.317   113127786.264        -525.940          31.000  
G11  21536622.519   113175709.388        -526.547          30.000  
> 2019  6 16  0 43 37.0000000  0  9                     
G 2  21521451.782   113095991.6663       -526.122          43.000  
G 3  21521447.972   113095972.1703       -526.132          45.000  
G 1  21521455.115   113096009.6993       -526.146          38.000  
G 4  21521447.211   113095967.8893       -526.107          45.000  
G 5  21521219.002   113094768.4873       -526.041          44.000  
G 6  21521223.500   113094792.2303       -526.168          46.000  
G 7  21498339.274   112974534.7123       -526.683          33.000  
G30  21527605.604   113128330.6273       -526.138          31.000  
G11  21536711.753   113176183.2243       -526.392          29.000  
> 2019  6 16  0 43 38.0000000  0  9                     
G 2  21521551.964   113096517.9802       -526.154          43.000  
G 3  21521548.275   113096499.4822       -526.216          45.000  
G 1  21521555.394   113096536.0122       -526.162          38.000  
G 4  21521547.387   113096494.2122       -526.205          45.000  
G 5  21521319.184   113095294.8222       -526.230          44.000  
G 6  21521323.714   113095318.5652       -526.263          46.000  
G 7  21498439.288   112975060.0162       -526.279          32.000  
G30  21527705.826   113128856.9722       -526.322          31.000  
G11  21536808.240   113176690.5552       -526.805          33.000  
> 2019  6 16  0 43 39.0000000  0  9                     
G 2  21521652.164   113097044.3572       -526.337          43.000  
G 3  21521648.500   113097025.8642       -526.451          45.000  
G 1  21521655.721   113097062.3902       -526.276          38.000  
G 4  21521647.629   113097020.5832       -526.296          45.000  
G 5  21521419.435   113095821.1862       -526.287          44.000  
G 6  21521423.989   113095844.9442       -526.467          46.000  
G 7  21498539.527   112975586.4162       -526.722          32.000  
G30  21527806.129   113129383.3432       -526.340          30.000  
G11  21536914.759   113177216.9412       -526.968          31.000  
> 2019  6 16  0 43 40.0000000  0  9                     
G 2  21521752.428   113097570.7742       -526.410          43.000  
G 3  21521748.804   113097552.2652       -526.383          45.000  
G 1  21521755.852   113097588.7992       -526.383          39.000  
G 4  21521747.910   113097546.9992       -526.414          45.000  
G 5  21521519.702   113096347.5962       -526.307          44.000  
G 6  21521524.350   113096371.3522       -526.426          46.000  
G 7  21498639.803   112976112.8382       -526.608          32.000  
G30  21527906.501   113129909.7552       -526.543          31.000  
G11  21537017.936   113177743.3632       -527.094          31.000  
> 2019  6 16  0 43 41.0000000  0  9                     
G 2  21521852.675   113098099.1293       -526.271          43.000  
G 3  21521849.160   113098080.6183       -526.436          44.000  
G 1  21521856.220   113098117.1653       -526.368          39.000  
G 4  21521848.166   113098075.3463       -526.261          45.000  
G 5  21521620.054   113096875.9603       -526.418          44.000  
G 6  21521624.619   113096900.7083       -526.404          46.000  
G 7  21498740.032   112976641.1893       -526.613          33.000  
G30  21528006.656   113130438.1113       -526.488          31.000  
G11  21537120.058   113178329.7283       -526.879          31.000  
> 2019  6 16  0 43 42.0000000  0  9                     
G 2  21521952.887   113098625.4132       -526.322          43.000  
G 3  21521949.383   113098606.8992       -526.400          45.000  
G 1  21521956.458   113098644.4412       -526.377          38.000  
G 4  21521948.454   113098601.6292       -526.306          45.000  
G 5  21521720.230   113097402.2372       -526.431          44.000  
G 6  21521724.816   113097426.9882       -526.490          46.000  
G 7  21498840.342   112977168.4772       -526.855          32.000  
G30  21528106.903   113130964.3952       -526.625          31.000  
G11  21537222.023   113178865.0052       -527.017          31.000  
> 2019  6 16  0 43 43.0000000  0  9                     
G 2  21522053.166   113099152.7163       -526.085          43.000  
G 3  21522049.603   113099133.2113       -526.310          45.000  
G 1  21522056.671   113099170.7533       -526.332          39.000  
G 4  21522048.756   113099128.9403       -526.178          45.000  
G 5  21521820.453   113097929.5473       -526.313          44.000  
G 6  21521825.049   113097953.3013       -526.355          45.000  
G 7  21498940.354   112977693.7813       -526.459          32.000  
G30  21528207.159   113131491.7063       -526.519          31.000  
G11  21537322.566   113179393.3273       -527.163          31.000  
> 2019  6 16  0 43 44.0000000  0  9                     
G 2  21522153.405   113099678.9302       -526.136          43.000  
G 3  21522149.932   113099659.4242       -526.282          45.000  
G 1  21522156.832   113099696.9812       -526.482          39.000  
G 4  21522148.967   113099655.1472       -526.117          45.000  
G 5  21521920.597   113098455.7672       -526.315          44.000  
G 6  21521925.235   113098479.5112       -526.278          45.000  
G 7  21499040.450   112978219.9882       -526.335          32.000  
G30  21528307.520   113132017.9272       -526.252          31.000  
G11  21537422.966   113179919.5242       -526.476          31.000  
> 2019  6 16  0 43 45.0000000  0  9                     
G 2  21522253.618   113100205.1702       -526.216          43.000  
G 3  21522250.152   113100185.6572       -526.270          45.000  
G 1  21522257.131   113100223.2052       -526.349          38.000  
G 4  21522249.234   113100181.3812       -526.157          45.000  
G 5  21522020.863   113098981.9982       -526.310          44.000  
G 6  21522025.440   113099005.7452       -526.370          46.000  
G 7  21499140.641   112978746.2252       -526.263          32.000  
G30  21528407.663   113132544.1652       -526.494          31.000  
G11  21537522.792   113180445.7552       -526.410          31.000  
> 2019  6 16  0 43 46.0000000  0  9                     
G 2  21522353.876   113100731.3722       -526.165          43.000  
G 3  21522350.384   113100711.8562       -526.179          44.000  
G 1  21522357.250   113100749.4222       -526.569          38.000  
G 4  21522349.459   113100707.5832       -526.089          45.000  
G 5  21522121.088   113099508.2022       -526.282          44.000  
G 6  21522125.655   113099531.9512       -526.283          46.000  
G 7  21499240.913   112979272.4182       -526.379          32.000  
G30  21528507.951   113133070.3832       -526.541          31.000  
G11  21537622.900   113180971.9853       -526.410          31.000  
> 2019  6 16  0 43 47.0000000  0  9                     
G 2  21522453.972   113101257.5132       -526.240          43.000  
G 3  21522450.634   113101237.9932       -526.167          45.000  
G 1  21522457.506   113101275.5542       -526.487          38.000  
G 4  21522449.647   113101233.7252       -526.127          45.000  
G 5  21522221.357   113100034.3362       -526.237          44.000  
G 6  21522225.986   113100058.0842       -526.190          46.000  
G 7  21499341.226   112979798.5552       -526.183          32.000  
G30  21528608.259   113133596.5132       -526.251          31.000  
G11  21537723.059   113181498.0812       -526.155          32.000  
> 2019  6 16  0 43 48.0000000  0  9                     
G 2  21522554.155   113101783.6472       -526.134          43.000  
G 3  21522550.795   113101764.1212       -526.045          45.000  
G 1  21522557.719   113101801.6882       -526.367          38.000  
G 4  21522549.789   113101759.8572       -526.069          45.000  
G 5  21522321.516   113100560.4662       -526.105          44.000  
G 6  21522326.133   113100584.2162       -526.091          45.000  
G 7  21499441.516   112980324.6912       -526.396          33.000  
G30  21528708.545   113134122.6142       -526.445          31.000  
G11  21537823.367   113182024.2452       -526.259          31.000  
> 2019  6 16  0 43 49.0000000  0  9                     
G 2  21522654.389   113102309.794        -526.150          43.000  
G 3  21522651.023   113102290.271        -526.052          45.000  
G 1  21522657.902   113102327.827        -526.235          38.000  
G 4  21522650.042   113102285.5101       -526.179          45.000  
G 5  21522421.782   113101086.1231       -526.144          44.000  
G 6  21522426.494   113101110.367        -526.246          45.000  
G 7  21499541.737   112980850.831        -526.371          33.000  
G30  21528808.611   113134648.769        -526.782          31.000  
G11  21537923.510   113182549.8871       -526.375          31.000  
> 2019  6 16  0 43 50.0000000  0  9                     
G 2  21522754.489   113102835.889        -526.194          43.000  
G 3  21522751.234   113102816.376        -526.101          44.000  
G 1  21522758.080   113102853.920        -526.357          38.000  
G 4  21522750.303   113102811.598        -526.096          45.000  
G 5  21522522.017   113101612.217        -526.127          44.000  
G 6  21522526.651   113101636.462        -526.139          45.000  
G 7  21499641.970   112981376.922        -525.942          33.000  
G30  21528908.888   113135174.878        -526.565          31.000  
G11  21538023.728   113183075.977        -526.261          31.000  
> 2019  6 16  0 43 51.0000000  0  9                     
G 2  21522854.683   113103362.045        -526.158          43.000  
G 3  21522851.476   113103342.527        -526.078          44.000  
G 1  21522858.250   113103380.079        -526.283          38.000  
G 4  21522850.550   113103337.752        -526.014          44.000  
G 5  21522622.185   113102138.372        -526.143          44.000  
G 6  21522626.861   113102162.619        -526.095          45.000  
G 7  21499742.202   112981903.091        -526.121          33.000  
G30  21529009.064   113135701.016        -526.713          32.000  
G11  21538124.040   113183602.116        -526.130          31.000  
> 2019  6 16  0 43 52.0000000  0  9                     
G 2  21522954.984   113103888.228        -526.013          43.000  
G 3  21522951.616   113103868.714        -526.223          44.000  
G 1  21522958.529   113103906.271        -526.113          37.000  
G 4  21522950.673   113103863.941        -526.201          45.000  
G 5  21522722.418   113102664.560        -526.179          44.000  
G 6  21522727.100   113102688.806        -526.152          45.000  
G 7  21499842.391   112982429.282        -526.361          33.000  
G30  21529109.184   113136227.227        -527.266          31.000  
G11  21538224.357   113184128.321        -526.691          30.000  
> 2019  6 16  0 43 53.0000000  0  9                     
G 2  21523055.107   113104414.464        -526.265          43.000  
G 3  21523051.898   113104394.957        -526.294          44.000  
G 1  21523058.822   113104432.511        -526.495          38.000  
G 4  21523050.881   113104390.179        -526.385          45.000  
G 5  21522822.632   113103190.793        -526.353          44.000  
G 6  21522827.443   113103215.042        -526.371          45.000  
G 7  21499942.639   112982955.504        -526.471          32.000  
G30  21529209.403   113136753.468        -526.766          31.000  
G11  21538324.476   113184654.533        -526.322          30.000  
> 2019  6 16  0 43 54.0000000  0  9                     
G 2  21523155.336   113104940.669        -526.210          43.000  
G 3  21523152.019   113104921.183        -526.193          44.000  
G 1  21523159.115   113104958.722        -526.422          38.000  
G 4  21523151.023   113104916.401        -526.448          44.000  
G 5  21522922.798   113103717.011        -526.299          44.000  
G 6  21522927.511   113103741.258        -526.299          45.000  
G 7  21500042.808   112983481.709        -525.842          32.000  
G30  21529309.605   113137279.666        -527.014          31.000  
G11  21538424.848   113185180.762        -526.506          31.000  
> 2019  6 16  0 43 55.0000000  0  9                     
G 2  21523255.557   113105466.963        -526.172          43.000  
G 3  21523252.205   113105447.464        -526.222          44.000  
G 1  21523259.401   113105485.012        -526.219          39.000  
G 4  21523251.143   113105442.682        -526.292          44.000  
G 5  21523023.119   113104243.296        -526.284          44.000  
G 6  21523027.646   113104273.5513       -526.284          45.000  
G 7  21500148.003                        -526.110          32.000  
G30  21529409.812   113137805.998        -527.080          31.000  
G11  21538524.909   113185707.5802       -526.382          31.000  
> 2019  6 16  0 43 56.0000000  0  9                     
G 2  21523355.832   113105993.164        -526.074          43.000  
G 3  21523352.401   113105973.653        -526.136          44.000  
G 1  21523359.702   113106011.208        -526.056          38.000  
G 4  21523351.378   113105968.873        -526.152          45.000  
G 5  21523123.353   113104769.495        -526.062          44.000  
G 6  21523127.938   113104799.7443       -526.086          46.000  
G 7  21500248.373   112984567.1893       -526.105          32.000  
G30  21529510.070   113138332.169        -527.008          30.000  
G11  21538618.674   113186204.7343       -525.699          31.000  
> 2019  6 16  0 43 57.0000000  0  9                     
G 2  21523456.037   113106519.330        -526.086          43.000  
G 3  21523452.667   113106499.828        -526.104          45.000  
G 1  21523459.947   113106537.365        -526.017          39.000  
G 4  21523451.597   113106495.056        -526.182          45.000  
G 5  21523223.542   113105295.668        -526.073          44.000  
G 6  21523228.264   113105327.9192       -526.188          45.000  
G 7  21500346.156   112985081.4032       -526.541          32.000  
G30  21529610.306   113138858.359        -526.503          31.000  
G11  21538720.102   113186737.9133       -525.862          31.000  
> 2019  6 16  0 43 58.0000000  0  9                     
G 2  21523556.275   113107045.588        -526.289          43.000  
G 3  21523552.904   113107026.053        -525.895          45.000  
G 1  21523559.960   113107063.619        -526.306          38.000  
G 4  21523551.907   113107021.286        -526.128          45.000  
G 5  21523323.838   113105821.918        -526.313          44.000  
G 6  21523328.440   113105854.1432       -525.992          45.000  
G 7  21500442.918   112985589.5452       -525.160          28.000  
G30  21529710.571   113139384.507        -525.900          30.000  
G11  21538820.584   113187264.0662       -524.171          25.000  
> 2019  6 16  0 43 59.0000000  0  8                     
G 2  21523656.525   113107571.816        -526.195          43.000  
G 3  21523653.135   113107552.310        -526.111          45.000  
G 1  21523660.123   113107589.840        -526.111          38.000  
G 4  21523652.148   113107547.540        -526.207          45.000  
G 5  21523424.021   113106348.147        -526.160          44.000  
G 6  21523428.724   113106380.3933       -526.213          45.000  
G 7  21500543.581   112986118.8653       -526.061          33.000  
G30  21529810.753   113139910.786        -526.172          31.000  
> 2019  6 16  0 44  0.0000000  0  8                     
G 2  21523756.775   113108098.066        -526.111          43.000  
G 3  21523753.341   113108078.551        -526.060          45.000  
G 1  21523760.286   113108116.100        -525.929          38.000  
G 4  21523752.500   113108073.790        -526.165          45.000  
G 5  21523524.211   113106874.396        -526.132          44.000  
G 6  21523528.963   113106906.6492       -526.219          45.000  
G 7  21500646.698   112986645.1132       -525.872          32.000  
G30  21529910.873   113140437.058        -526.317          32.000  
> 2019  6 16  0 44  1.0000000  0  8                     
G 2  21523857.000   113108624.256        -526.147          43.000  
G 3  21523853.503   113108604.750        -526.115          45.000  
G 1  21523860.477   113108642.291        -526.002          38.000  
G 4  21523852.664   113108599.991        -526.311          45.000  
G 5  21523624.511   113107400.596        -526.144          44.000  
G 6  21523629.174   113107432.837        -526.072          45.000  
G 7  21500745.249   112987171.300        -525.881          33.000  
G30  21530011.056   113140963.231        -525.648          31.000  
> 2019  6 16  0 44  2.0000000  0  8                     
G 2  21523957.128   113109150.424        -526.316          43.000  
G 3  21523953.752   113109130.910        -526.235          44.000  
G 1  21523960.655   113109168.454        -526.018          38.000  
G 4  21523952.978   113109126.156        -526.436          45.000  
G 5  21523724.758   113107926.759        -526.304          44.000  
G 6  21523729.479   113107958.998        -526.320          45.000  
G 7  21500845.934   112987697.463        -525.901          32.000  
G30  21530111.200   113141489.412        -526.504          31.000  
> 2019  6 16  0 44  3.0000000  0  8                     
G 2  21524057.401   113109676.555        -525.984          43.000  
G 3  21524054.025   113109657.051        -525.985          45.000  
G 1  21524061.087   113109694.592        -525.790          38.000  
G 4  21524053.227   113109652.293        -526.071          45.000  
G 5  21523824.958   113108452.893        -525.972          44.000  
G 6  21523829.632   113108485.135        -525.955          45.000  
G 7  21500946.753   112988223.570        -525.518          32.000  
G30  21530211.322   113142015.556        -526.143          31.000  
> 2019  6 16  0 44  4.0000000  0  8                     
G 2  21524157.617   113110202.774        -526.434          43.000  
G 3  21524154.339   113110183.277        -526.317          44.000  
G 1  21524161.391   113110220.813        -526.018          38.000  
G 4  21524153.491   113110178.510        -526.299          45.000  
G 5  21523925.241   113108979.112        -526.299          44.000  
G 6  21523929.882   113109011.355        -526.212          45.000  
G 7  21501046.700   112988749.823        -525.861          32.000  
G30  21530311.538   113142541.751        -525.830          31.000  
> 2019  6 16  0 44  5.0000000  0  8                     
G 2  21524257.861   113110728.904        -526.101          43.000  
G 3  21524254.561   113110709.400        -526.134          45.000  
G 1  21524261.595   113110746.931        -525.873          38.000  
G 4  21524253.838   113110704.628        -526.132          45.000  
G 5  21524025.449   113109505.236        -526.041          44.000  
G 6  21524030.046   113109537.477        -525.970          45.000  
G 7  21501146.809   112989275.937        -525.535          32.000  
G30  21530411.789   113143067.885        -525.513          32.000  
> 2019  6 16  0 44  6.0000000  0  8                     
G 2  21524357.984   113111254.992        -526.289          43.000  
G 3  21524354.811   113111235.489        -526.279          44.000  
G 1  21524361.752   113111273.023        -526.199          38.000  
G 4  21524354.011   113111230.733        -526.398          45.000  
G 5  21524125.701   113110031.342        -526.368          44.000  
G 6  21524130.280   113110063.583        -526.237          45.000  
G 7  21501246.999   112989802.020        -525.992          34.000  
G30  21530511.964   113143593.972        -526.047          31.000  
> 2019  6 16  0 44  7.0000000  0  8                     
G 2  21524458.108   113111781.126        -526.373          43.000  
G 3  21524455.000   113111761.633        -526.321          44.000  
G 1  21524462.017   113111799.156        -526.068          38.000  
G 4  21524454.126   113111756.866        -526.316          45.000  
G 5  21524225.977   113110557.463        -526.318          44.000  
G 6  21524230.466   113110589.708        -526.239          45.000  
G 7  21501347.231   112990328.156        -525.847          31.000  
G30  21530612.237   113144120.105        -526.152          31.000  
> 2019  6 16  0 44  8.0000000  0  8                     
G 2  21524558.308   113112307.270        -526.074          44.000  
G 3  21524555.212   113112287.773        -526.075          44.000  
G 1  21524562.091   113112325.303        -526.021          39.000  
G 4  21524554.315   113112282.998        -526.096          45.000  
G 5  21524326.101   113111083.608        -526.238          44.000  
G 6  21524330.509   113111115.848        -525.995          45.000  
G 7  21501447.310   112990854.291        -525.837          32.000  
G30  21530712.266   113144646.224        -525.632          31.000  
> 2019  6 16  0 44  9.0000000  0  8                     
G 2  21524658.431   113112833.347        -526.166          43.000  
G 3  21524655.412   113112813.841        -526.180          44.000  
G 1  21524662.491   113112851.376        -525.959          38.000  
G 4  21524654.586   113112809.079        -526.055          45.000  
G 5  21524426.217   113111609.681        -526.166          44.000  
G 6  21524430.694   113111641.927        -526.086          45.000  
G 7  21501547.460   112991380.367        -525.842          31.000  
G30  21530812.539   113145172.335        -525.797          31.000  
> 2019  6 16  0 44 10.0000000  0  8                     
G 2  21524758.608   113113359.489        -526.222          43.000  
G 3  21524755.517   113113339.997        -526.305          44.000  
G 1  21524762.774   113113377.532        -526.115          39.000  
G 4  21524754.785   113113335.218        -526.154          45.000  
G 5  21524526.426   113112135.844        -526.493          44.000  
G 6  21524530.953   113112168.074        -526.149          45.000  
G 7  21501647.879   112991906.478        -524.320          32.000  
G30  21530912.812   113145698.443        -525.070          30.000  
> 2019  6 16  0 44 11.0000000  0  8                     
G 2  21524858.793   113113885.619        -526.034          43.000  
G 3  21524855.652   113113866.132        -526.295          44.000  
G 1  21524863.081   113113903.656        -526.104          39.000  
G 4  21524855.011   113113861.348        -526.074          45.000  
G 5  21524626.658   113112661.971        -526.290          44.000  
G 6  21524631.099   113112694.211        -526.119          45.000  
G 7  21501747.963   112992432.625        -525.563          32.000  
G30  21531012.963   113146224.587        -525.693          30.000  
> 2019  6 16  0 44 12.0000000  0  8                     
G 2  21524958.965   113114411.640        -525.918          43.000  
G 3  21524955.783   113114392.156        -526.090          44.000  
G 1  21524963.341   113114429.692        -525.996          39.000  
G 4  21524955.237   113114387.378        -525.892          45.000  
G 5  21524726.799   113113187.998        -526.107          44.000  
G 6  21524731.295   113113220.231        -526.010          45.000  
G 7  21501847.887   112992958.657        -524.991          32.000  
G30  21531113.216   113146750.615        -525.646          30.000  
> 2019  6 16  0 44 13.0000000  0  8                     
G 2  21525059.160   113114937.571        -525.996          43.000  
G 3  21525055.916   113114918.095        -526.136          44.000  
G 1  21525063.682   113114955.618        -525.905          39.000  
G 4  21525055.491   113114913.299        -525.825          45.000  
G 5  21524827.038   113113713.928        -526.205          44.000  
G 6  21524831.488   113113746.164        -526.124          45.000  
G 7  21501948.015   112993484.583        -525.325          33.000  
G30  21531213.362   113147276.560        -525.982          30.000  
> 2019  6 16  0 44 14.0000000  0  8                     
G 2  21525159.332   113115463.548        -526.177          43.000  
G 3  21525156.106   113115444.068        -526.307          44.000  
G 1  21525163.984   113115481.610        -526.083          39.000  
G 4  21525155.642   113115439.278        -526.068          45.000  
G 5  21524927.287   113114239.914        -526.359          44.000  
G 6  21524931.781   113114272.137        -526.127          45.000  
G 7  21502048.217   112994010.589        -526.187          32.000  
G30  21531313.463   113147802.552        -525.950          30.000  
> 2019  6 16  0 44 15.0000000  0  8                     
G 2  21525259.538   113115989.641        -526.149          43.000  
G 3  21525256.308   113115970.166        -526.364          44.000  
G 1  21525264.273   113116007.683        -526.127          38.000  
G 4  21525255.837   113115965.365        -526.007          45.000  
G 5  21525027.525   113114765.993        -526.239          44.000  
G 6  21525032.044   113114798.220        -526.134          45.000  
G 7  21502148.296   112994536.664        -525.786          32.000  
G30  21531413.660   113148328.602        -525.520          32.000  
> 2019  6 16  0 44 16.0000000  0  8                     
G 2  21525359.776   113116515.789        -526.184          43.000  
G 3  21525356.435   113116496.316        -526.410          44.000  
G 1  21525364.523   113116533.831        -526.016          39.000  
G 4  21525356.132   113116491.523        -526.190          45.000  
G 5  21525127.703   113115292.148        -526.239          44.000  
G 6  21525132.378   113115324.380        -526.277          45.000  
G 7  21502248.483   112995062.803        -525.289          32.000  
G30  21531513.876   113148854.760        -525.705          31.000  
> 2019  6 16  0 44 17.0000000  0  8                     
G 2  21525460.030   113117041.837        -525.925          43.000  
G 3  21525456.719   113117022.353        -525.995          44.000  
G 1  21525464.639   113117059.874        -525.789          38.000  
G 4  21525456.317   113117017.563        -525.919          45.000  
G 5  21525227.997   113115818.187        -525.959          44.000  
G 6  21525232.408   113115850.424        -525.919          45.000  
G 7  21502348.766   112995588.892        -525.896          32.000  
G30  21531614.018   113149380.810        -525.682          31.000  
> 2019  6 16  0 44 18.0000000  0  8                     
G 2  21525560.157   113117567.782        -525.812          43.000  
G 3  21525556.953   113117548.312        -525.990          44.000  
G 1  21525564.730   113117585.831        -525.806          38.000  
G 4  21525556.527   113117543.516        -525.936          45.000  
G 5  21525328.139   113116344.142        -525.916          44.000  
G 6  21525332.524   113116376.371        -525.862          45.000  
G 7  21502455.085   112996163.8413       -525.840          31.000  
G30  21531714.175   113149906.750        -525.719          30.000  
> 2019  6 16  0 44 19.0000000  0  8                     
G 2  21525660.397   113118093.731        -525.918          43.000  
G 3  21525657.126   113118074.246        -525.999          44.000  
G 1  21525664.974   113118111.773        -525.870          38.000  
G 4  21525656.748   113118069.463        -525.938          45.000  
G 5  21525428.386   113116870.083        -525.953          44.000  
G 6  21525432.738   113116902.314        -526.056          45.000  
G 7  21502552.945   112996689.781        -526.305          31.000  
G30  21531814.360   113150432.711        -526.083          31.000  
> 2019  6 16  0 44 20.0000000  0  8                     
G 2  21525760.636   113118619.687        -525.875          43.000  
G 3  21525757.293   113118600.198        -525.959          45.000  
G 1  21525765.009   113118637.728        -525.917          38.000  
G 4  21525756.920   113118595.431        -526.055          45.000  
G 5  21525528.539   113117396.038        -525.942          44.000  
G 6  21525532.822   113117428.280        -526.102          45.000  
G 7  21502649.800   112997215.712        -526.060          32.000  
G30  21531914.637   113150958.705        -526.163          31.000  
> 2019  6 16  0 44 21.0000000  0  8                     
G 2  21525860.906   113119145.637        -525.885          44.000  
G 3  21525857.430   113119126.149        -525.936          44.000  
G 1  21525865.183   113119163.687        -525.935          39.000  
G 4  21525857.078   113119121.380        -526.039          45.000  
G 5  21525628.697   113117921.991        -525.962          44.000  
G 6  21525633.081   113117954.222        -525.967          45.000  
G 7  21502748.631   112997741.655        -526.024          32.000  
G30  21532014.905   113151484.622        -525.348          30.000  
> 2019  6 16  0 44 22.0000000  0  8                     
G 2  21525961.067   113119671.613        -526.123          43.000  
G 3  21525957.737   113119652.115        -526.021          45.000  
G 1  21525965.331   113119689.640        -526.050          38.000  
G 4  21525957.239   113119647.344        -526.090          45.000  
G 5  21525728.797   113118447.953        -526.019          44.000  
G 6  21525733.226   113118480.192        -526.052          45.000  
G 7  21502848.871   112998267.658        -526.145          32.000  
G30  21532115.204   113152010.592        -526.089          31.000  
> 2019  6 16  0 44 23.0000000  0  8                     
G 2  21526061.226   113120197.563        -525.885          43.000  
G 3  21526057.907   113120178.062        -525.852          44.000  
G 1  21526065.280   113120215.590        -526.010          38.000  
G 4  21526057.293   113120173.291        -525.964          45.000  
G 5  21525828.957   113118973.891        -525.753          44.000  
G 6  21525833.394   113119006.139        -525.818          45.000  
G 7  21502949.764   112998793.600        -526.237          31.000  
G30  21532215.381   113152536.575        -526.061          31.000  
> 2019  6 16  0 44 24.0000000  0  8                     
G 2  21526161.371   113120723.435        -526.128          43.000  
G 3  21526157.984   113120703.936        -526.147          44.000  
G 1  21526165.402   113120741.458        -526.036          38.000  
G 4  21526157.507   113120699.163        -526.169          44.000  
G 5  21525929.151   113119499.779        -526.040          44.000  
G 6  21525933.725   113119532.015        -526.108          45.000  
G 7  21503049.755   112999319.475        -526.516          31.000  
G30  21532315.562   113153062.426        -526.321          31.000  
> 2019  6 16  0 44 25.0000000  0  8                     
G 2  21526261.555   113121249.200        -525.890          43.000  
G 3  21526258.057   113121229.693        -525.815          44.000  
G 1  21526265.404   113121267.211        -525.652          38.000  
G 4  21526257.646   113121224.929        -525.925          45.000  
G 5  21526029.307   113120025.545        -525.721          44.000  
G 6  21526033.923   113120057.780        -525.784          45.000  
G 7  21503150.131   112999845.250        -526.414          31.000  
G30  21532415.777   113153588.199        -526.163          32.000  
> 2019  6 16  0 44 26.0000000  0  8                     
G 2  21526361.719   113121775.094        -526.125          44.000  
G 3  21526358.238   113121755.596        -525.991          44.000  
G 1  21526365.459   113121793.134        -526.212          38.000  
G 4  21526357.811   113121750.829        -526.117          45.000  
G 5  21526129.560   113120551.441        -525.930          44.000  
G 6  21526134.220   113120583.675        -525.973          45.000  
G 7  21503250.318   113000371.176        -526.853          32.000  
G30  21532515.949   113154114.100        -526.221          32.000  
> 2019  6 16  0 44 27.0000000  0  8                     
G 2  21526461.944   113122300.970        -526.077          43.000  
G 3  21526458.460   113122281.474        -525.946          44.000  
G 1  21526465.721   113122319.013        -526.228          38.000  
G 4  21526457.956   113122276.702        -526.008          45.000  
G 5  21526229.682   113121077.323        -525.942          44.000  
G 6  21526234.322   113121109.549        -525.938          45.000  
G 7  21503350.541   113000897.034        -526.573          31.000  
G30  21532616.112   113154639.987        -526.412          32.000  
> 2019  6 16  0 44 28.0000000  0  8                     
G 2  21526562.198   113122826.936        -525.930          43.000  
G 3  21526558.544   113122807.432        -525.804          44.000  
G 1  21526565.993   113122844.969        -525.944          38.000  
G 4  21526558.142   113122802.654        -525.806          45.000  
G 5  21526329.827   113121603.276        -525.765          44.000  
G 6  21526334.464   113121635.510        -525.859          45.000  
G 7  21503450.733   113001422.995        -526.431          32.000  
G30  21532716.356   113155165.936        -526.134          32.000  
> 2019  6 16  0 44 29.0000000  0  8                     
G 2  21526662.381   113123352.827        -526.022          43.000  
G 3  21526658.738   113123333.331        -525.912          44.000  
G 1  21526666.299   113123370.855        -526.122          38.000  
G 4  21526658.251   113123328.551        -525.870          45.000  
G 5  21526430.118   113122129.179        -525.969          44.000  
G 6  21526434.626   113122161.413        -526.012          45.000  
G 7  21503550.805   113001948.896        -526.462          33.000  
G30  21532816.548   113155691.821        -526.234          32.000  
> 2019  6 16  0 44 30.0000000  0  8                     
G 2  21526762.521   113123878.738        -525.867          43.000  
G 3  21526758.872   113123859.251        -526.000          44.000  
G 1  21526766.368   113123896.778        -525.968          38.000  
G 4  21526758.395   113123854.477        -525.815          45.000  
G 5  21526530.305   113122655.125        -525.895          45.000  
G 6  21526534.814   113122687.322        -525.940          45.000  
G 7  21503651.065   113002474.843        -527.337          32.000  
G30  21532916.821   113156217.726        -525.739          32.000  
> 2019  6 16  0 44 31.0000000  0  8                     
G 2  21526862.621   113124404.609        -526.005          43.000  
G 3  21526859.098   113124385.112        -525.959          44.000  
G 1  21526866.763   113124422.654        -526.083          38.000  
G 4  21526858.531   113124380.330        -525.812          44.000  
G 5  21526630.471   113123180.986        -525.952          45.000  
G 6  21526634.896   113123213.181        -525.980          45.000  
G 7  21503751.261   113003000.658        -526.497          31.000  
G30  21533017.117   113156743.585        -525.791          31.000  
> 2019  6 16  0 44 32.0000000  0  8                     
G 2  21526962.768   113124930.472        -526.023          43.000  
G 3  21526959.293   113124910.988        -526.127          44.000  
G 1  21526967.002   113124948.526        -526.282          38.000  
G 4  21526958.688   113124906.201        -525.938          44.000  
G 5  21526730.636   113123706.852        -525.903          45.000  
G 6  21526735.131   113123739.046        -526.030          45.000  
G 7  21503851.398   113003500.9933       -526.063          32.000  
G30  21533117.429   113157269.481        -526.259          31.000  
> 2019  6 16  0 44 33.0000000  0  8                     
G 2  21527062.977   113125456.363        -525.801          43.000  
G 3  21527059.521   113125436.874        -525.841          44.000  
G 1  21527067.297   113125474.404        -525.773          38.000  
G 4  21527058.807   113125432.092        -525.723          44.000  
G 5  21526830.753   113124232.741        -525.729          45.000  
G 6  21526835.207   113124264.939        -525.829          45.000  
G 7  21503951.666   113004026.9572       -526.927          31.000  
G30  21533217.759   113157795.377        -525.635          32.000  
> 2019  6 16  0 44 34.0000000  0  8                     
G 2  21527163.143   113125982.230        -525.790          43.000  
G 3  21527159.698   113125962.737        -525.846          44.000  
G 1  21527167.572   113126000.279        -526.030          38.000  
G 4  21527158.993   113125957.966        -525.801          44.000  
G 5  21526930.887   113124758.604        -525.847          45.000  
G 6  21526935.330   113124790.800        -525.804          45.000  
G 7  21504051.781   113004552.7982       -526.389          31.000  
G30  21533318.052   113158321.223        -525.814          32.000  
> 2019  6 16  0 44 35.0000000  0  8                     
G 2  21527263.307   113126508.088        -525.839          43.000  
G 3  21527259.942   113126488.603        -525.975          44.000  
G 1  21527267.693   113126526.133        -526.086          38.000  
G 4  21527259.238   113126483.825        -525.784          44.000  
G 5  21527031.106   113125284.468        -525.857          45.000  
G 6  21527035.534   113125316.669        -525.920          45.000  
G 7  21504151.808   113005078.6572       -526.505          31.000  
G30  21533418.366   113158847.088        -526.027          32.000  
> 2019  6 16  0 44 36.0000000  0  8                     
G 2  21527363.429   113127033.878        -525.846          43.000  
G 3  21527360.100   113127014.395        -525.782          44.000  
G 1  21527367.517   113127051.914        -525.968          38.000  
G 4  21527359.346   113127009.615        -525.858          45.000  
G 5  21527131.268   113125810.268        -525.850          44.000  
G 6  21527135.710   113125842.457        -525.868          45.000  
G 7  21504251.975   113005604.4242       -525.363          32.000  
G30  21533518.624   113159372.872        -525.898          32.000  
> 2019  6 16  0 44 37.0000000  0  8                     
G 2  21527463.566   113127559.705        -525.762          43.000  
G 3  21527460.268   113127540.218        -525.887          44.000  
G 1  21527467.724   113127577.758        -525.853          38.000  
G 4  21527459.568   113127535.455        -525.796          45.000  
G 5  21527231.422   113126336.096        -525.894          44.000  
G 6  21527235.779   113126368.286        -525.903          45.000  
G 7  21504352.055   113006130.2902       -526.567          32.000  
G30  21533618.784   113159898.721        -526.052          31.000  
> 2019  6 16  0 44 38.0000000  0  8                     
G 2  21527563.661   113128085.509        -525.890          42.000  
G 3  21527560.376   113128066.007        -525.782          45.000  
G 1  21527567.714   113128103.563        -526.112          38.000  
G 4  21527559.844   113128061.243        -525.688          45.000  
G 5  21527331.543   113126861.889        -525.759          44.000  
G 6  21527335.937   113126894.083        -525.869          45.000  
G 7  21504452.204   113006656.0852       -526.282          32.000  
G30  21533719.113   113160424.514        -526.027          31.000  
> 2019  6 16  0 44 39.0000000  0  8                     
G 2  21527663.788   113128611.388        -525.824          43.000  
G 3  21527660.499   113128591.887        -525.941          45.000  
G 1  21527668.019   113128629.445        -526.179          38.000  
G 4  21527660.064   113128587.121        -525.768          45.000  
G 5  21527431.659   113127387.769        -525.710          44.000  
G 6  21527436.101   113127419.960        -525.887          45.000  
G 7  21504552.439   113007181.9382       -526.239          31.000  
G30  21533819.450   113160950.366        -525.734          31.000  
> 2019  6 16  0 44 40.0000000  0  8                     
G 2  21527763.908   113129137.148        -525.636          43.000  
G 3  21527760.637   113129117.683        -525.865          44.000  
G 1  21527768.165   113129155.247        -526.003          38.000  
G 4  21527760.245   113129112.910        -525.686          45.000  
G 5  21527531.768   113127913.554        -525.768          44.000  
G 6  21527536.362   113127945.753        -525.867          45.000  
G 7  21504652.546   113007707.7062       -525.946          31.000  
G30  21533919.726   113161476.214        -525.785          31.000  
> 2019  6 16  0 44 41.0000000  0  8                     
G 2  21527863.919   113129663.007        -525.918          42.000  
G 3  21527860.669   113129643.549        -525.916          44.000  
G 1  21527868.475   113129681.087        -525.941          38.000  
G 4  21527860.469   113129638.769        -525.857          45.000  
G 5  21527631.984   113128439.418        -525.868          44.000  
G 6  21527636.398   113128471.617        -525.996          45.000  
G 7  21504752.568   113008236.5423       -525.894          31.000  
G30  21534019.934   113162002.044        -525.946          31.000  
> 2019  6 16  0 44 42.0000000  0  8                     
G 2  21527963.963   113130188.895        -525.854          42.000  
G 3  21527960.854   113130169.425        -525.759          45.000  
G 1  21527968.570   113130206.954        -525.861          38.000  
G 4  21527960.649   113130164.648        -525.769          45.000  
G 5  21527732.037   113128965.296        -525.698          44.000  
G 6  21527736.507   113128997.493        -525.792          45.000  
G 7  21504852.799   113008762.4442       -526.063          31.000  
G30  21534120.247   113162527.946        -525.653          31.000  
> 2019  6 16  0 44 43.0000000  0  8                     
G 2  21528064.048   113130714.739        -525.870          42.000  
G 3  21528061.064   113130695.259        -525.752          45.000  
G 1  21528068.832   113130732.817        -525.900          37.000  
G 4  21528060.786   113130690.488        -525.870          45.000  
G 5  21527832.156   113129491.132        -525.815          45.000  
G 6  21527836.611   113129523.333        -525.842          45.000  
G 7  21504952.902   113009289.2753       -526.183          31.000  
G30  21534220.496   113163053.773        -526.295          30.000  
> 2019  6 16  0 44 44.0000000  0  8                     
G 2  21528164.228   113131240.584        -525.905          42.000  
G 3  21528161.193   113131221.101        -525.830          44.000  
G 1  21528168.965   113131258.645        -525.908          37.000  
G 4  21528160.894   113131216.325        -525.911          45.000  
G 5  21527932.378   113130016.976        -525.927          45.000  
G 6  21527936.902   113130049.170        -525.879          45.000  
G 7  21505053.138   113009815.1452       -525.420          31.000  
G30  21534320.722   113163579.600        -526.099          31.000  
> 2019  6 16  0 44 45.0000000  0  8                     
G 2  21528264.413   113131766.398        -525.576          43.000  
G 3  21528261.392   113131746.912        -525.576          44.000  
G 1  21528269.175   113131784.452        -525.471          38.000  
G 4  21528261.096   113131742.141        -525.662          45.000  
G 5  21528032.663   113130542.791        -525.742          45.000  
G 6  21528037.089   113130574.985        -525.662          45.000  
G 7  21505153.448   113010340.9752       -525.681          31.000  
G30  21534420.935   113164105.402        -526.047          32.000  
> 2019  6 16  0 44 46.0000000  0  8                     
G 2  21528364.535   113132292.153        -525.626          43.000  
G 3  21528361.426   113132272.671        -525.586          44.000  
G 1  21528369.176   113132310.201        -525.509          38.000  
G 4  21528361.232   113132267.895        -525.620          45.000  
G 5  21528132.784   113131068.547        -525.653          45.000  
G 6  21528137.294   113131100.738        -525.627          45.000  
G 7  21505253.707   113010866.7722       -526.772          31.000  
G30  21534521.149   113164631.171        -526.350          32.000  
> 2019  6 16  0 44 47.0000000  0  8                     
G 2  21528464.687   113132817.829        -525.868          42.000  
G 3  21528461.595   113132798.336        -525.614          44.000  
G 1  21528469.442   113132835.884        -525.764          38.000  
G 4  21528461.280   113132793.571        -525.817          45.000  
G 5  21528233.048   113131594.226        -525.736          44.000  
G 6  21528237.460   113131626.411        -525.775          45.000  
G 7  21505353.834   113011392.3922       -525.729          31.000  
G30  21534621.258   113165156.834        -525.631          32.000  
> 2019  6 16  0 44 48.0000000  0  8                     
G 2  21528564.788   113133343.558        -525.812          42.000  
G 3  21528561.667   113133324.059        -525.544          44.000  
G 1  21528569.571   113133361.611        -525.770          38.000  
G 4  21528561.287   113133319.295        -525.734          44.000  
G 5  21528333.150   113132119.950        -525.776          44.000  
G 6  21528337.519   113132152.132        -525.702          45.000  
G 7  21505454.047   113011918.1392       -526.138          31.000  
G30  21534721.532   113165682.551        -525.598          31.000  
> 2019  6 16  0 44 49.0000000  0  8                     
G 2  21528664.941   113133869.366        -526.239          42.000  
G 3  21528661.900   113133849.875        -526.235          44.000  
G 1  21528669.723   113133887.438        -526.388          38.000  
G 4  21528661.458   113133845.105        -526.226          44.000  
G 5  21528433.223   113132645.762        -526.262          44.000  
G 6  21528437.698   113132702.9523       -526.278          45.000  
G 7  21505554.053   113012443.9142       -526.104          30.000  
G30  21534821.680   113166208.340        -526.134          32.000  
> 2019  6 16  0 44 50.0000000  0  8                     
G 2  21528765.147   113134395.220        -525.859          43.000  
G 3  21528762.078   113134375.735        -525.907          44.000  
G 1  21528769.997   113134413.301        -526.147          38.000  
G 4  21528761.579   113134370.955        -525.767          44.000  
G 5  21528533.386   113133171.610        -525.880          44.000  
G 6  21528537.875   113133229.7993       -525.742          45.000  
G 7  21505654.618   113012977.2823       -525.939          31.000  
G30  21534921.919   113166734.234        -525.967          31.000  
> 2019  6 16  0 44 51.0000000  0  8                     
G 2  21528865.433   113134921.150        -526.332          43.000  
G 3  21528862.293   113134901.663        -526.106          44.000  
G 1  21528870.456   113134939.223        -526.305          38.000  
G 4  21528861.777   113134896.884        -526.196          44.000  
G 5  21528633.484   113133697.535        -526.143          45.000  
G 6  21528637.996   113133755.7242       -526.028          45.000  
G 7  21505761.743   113013540.1073       -524.148          31.000  
G30  21535022.110   113167260.137        -526.360          31.000  
> 2019  6 16  0 44 52.0000000  0  8                     
G 2  21528965.555   113135447.042        -525.864          43.000  
G 3  21528962.483   113135427.570        -525.854          44.000  
G 1  21528970.703   113135465.116        -525.687          39.000  
G 4  21528961.886   113135422.792        -525.803          44.000  
G 5  21528733.666   113134223.428        -525.706          45.000  
G 6  21528738.141   113134281.6303       -525.814          45.000  
G 7  21505856.356   113014037.1072       -526.115          31.000  
G30  21535122.325   113167786.065        -525.621          31.000  
> 2019  6 16  0 44 53.0000000  0  8                     
G 2  21529065.759   113135972.892        -526.024          43.000  
G 3  21529062.670   113135953.417        -526.044          44.000  
G 1  21529070.972   113135990.962        -525.813          38.000  
G 4  21529062.020   113135948.639        -525.912          44.000  
G 5  21528833.918   113134749.281        -525.933          45.000  
G 6  21528838.306   113134807.4782       -526.016          45.000  
G 7  21505957.062   113014562.9462       -525.798          31.000  
G30  21535222.547   113168311.889        -525.538          31.000  
> 2019  6 16  0 44 54.0000000  0  8                     
G 2  21529165.902   113136498.652        -525.726          43.000  
G 3  21529162.816   113136479.188        -525.929          44.000  
G 1  21529170.978   113136516.725        -525.906          38.000  
G 4  21529162.107   113136474.399        -525.764          45.000  
G 5  21528934.067   113135275.051        -525.746          45.000  
G 6  21528938.335   113135333.2492       -525.844          45.000  
G 7  21506056.330   113015088.6812       -524.623          31.000  
G30  21535322.752   113168837.665        -525.540          31.000  
> 2019  6 16  0 44 55.0000000  0  8                     
G 2  21529266.043   113137024.477        -525.809          43.000  
G 3  21529263.083   113137004.982        -525.774          44.000  
G 1  21529271.214   113137042.521        -525.402          38.000  
G 4  21529262.325   113137000.211        -525.867          45.000  
G 5  21529034.220   113135800.857        -525.859          44.000  
G 6  21529038.413   113135859.050        -525.792          45.000  
G 7  21506153.832   113015614.517        -525.643          33.000  
G30  21535422.952   113169363.450        -525.028          31.000  
> 2019  6 16  0 44 56.0000000  0  8                     
G 2  21529366.269   113137550.365        -525.925          43.000  
G 3  21529363.301   113137530.885        -525.973          44.000  
G 1  21529371.238   113137568.419        -525.962          37.000  
G 4  21529362.561   113137526.105        -526.090          45.000  
G 5  21529134.351   113136326.759        -526.071          44.000  
G 6  21529138.609   113136384.949        -525.995          45.000  
G 7  21506254.785   113016140.376        -525.428          33.000  
G30  21535523.126   113169889.361        -525.472          32.000  
> 2019  6 16  0 44 57.0000000  0  8                     
G 2  21529466.439   113138076.199        -525.881          43.000  
G 3  21529463.407   113138056.722        -526.058          44.000  
G 1  21529471.384   113138094.245        -525.660          38.000  
G 4  21529462.810   113138051.945        -526.050          45.000  
G 5  21529234.510   113136852.587        -526.071          44.000  
G 6  21529238.804   113136910.783        -526.022          45.000  
G 7  21506355.233   113016666.206        -525.127          32.000  
G30  21535623.349   113170415.178        -525.448          31.000  
> 2019  6 16  0 44 58.0000000  0  8                     
G 2  21529566.571   113138602.040        -525.939          43.000  
G 3  21529563.594   113138582.560        -526.073          44.000  
G 1  21529571.514   113138620.090        -525.906          38.000  
G 4  21529562.987   113138577.781        -526.030          44.000  
G 5  21529334.682   113137378.436        -526.147          44.000  
G 6  21529339.054   113137436.628        -526.066          45.000  
G 7  21506455.455   113017192.052        -524.886          32.000  
G30  21535723.542   113170941.051        -525.709          30.000  
> 2019  6 16  0 44 59.0000000  0  8                     
G 2  21529666.664   113139127.879        -525.647          43.000  
G 3  21529663.730   113139108.392        -525.720          44.000  
G 1  21529671.916   113139145.933        -525.458          38.000  
G 4  21529663.156   113139103.615        -525.732          45.000  
G 5  21529434.864   113137904.274        -525.780          44.000  
G 6  21529439.103   113137962.455        -525.699          45.000  
G 7  21506555.543   113017717.871        -524.569          31.000  
G30  21535823.763   113171466.860        -525.220          30.000  
> 2019  6 16  0 45  0.0000000  0  8                     
G 2  21529766.829   113139653.693        -525.684          43.000  
G 3  21529763.920   113139634.206        -525.715          44.000  
G 1  21529772.091   113139671.751        -525.502          38.000  
G 4  21529763.404   113139629.438        -525.803          45.000  
G 5  21529535.001   113138430.088        -525.828          44.000  
G 6  21529539.251   113138488.274        -525.753          45.000  
G 7  21506655.629   113018243.684        -524.552          32.000  
G30  21535923.991   113171992.650        -525.504          30.000  
> 2019  6 16  0 45  1.0000000  0  8                     
G 2  21529866.892   113140179.483        -525.750          43.000  
G 3  21529864.100   113140159.992        -525.665          45.000  
G 1  21529872.123   113140197.533        -525.516          37.000  
G 4  21529863.600   113140155.220        -525.731          45.000  
G 5  21529635.170   113138955.877        -525.778          44.000  
G 6  21529639.378   113139014.063        -525.695          45.000  
G 7  21506755.861   113018769.5022       -524.930          31.000  
G30  21536024.186   113172518.471        -525.201          30.000  
> 2019  6 16  0 45  2.0000000  0  8                     
G 2  21529967.052   113140705.367        -525.967          43.000  
G 3  21529964.252   113140685.877        -525.841          45.000  
G 1  21529972.150   113140723.410        -525.691          38.000  
G 4  21529963.810   113140681.108        -525.936          45.000  
G 5  21529735.311   113139481.754        -525.927          45.000  
G 6  21529739.577   113139539.942        -525.822          45.000  
G 7  21506856.152   113019295.3582       -525.173          32.000  
G30  21536124.429   113173044.340        -525.269          31.000  
> 2019  6 16  0 45  3.0000000  0  8                     
G 2  21530067.150   113141231.245        -525.729          43.000  
G 3  21530064.438   113141211.759        -525.732          44.000  
G 1  21530072.288   113141249.292        -525.519          37.000  
G 4  21530063.927   113141206.983        -525.780          45.000  
G 5  21529835.536   113140007.641        -525.862          44.000  
G 6  21529839.674   113140065.822        -525.707          45.000  
G 7  21506956.235   113019821.2612       -525.031          32.000  
G30  21536224.678   113173570.222        -525.422          32.000  
> 2019  6 16  0 45  4.0000000  0  8                     
G 2  21530167.249   113141757.117        -526.160          43.000  
G 3  21530164.686   113141737.644        -526.169          44.000  
G 1  21530172.474   113141775.173        -525.929          38.000  
G 4  21530164.083   113141732.864        -526.191          45.000  
G 5  21529935.722   113140533.523        -526.385          44.000  
G 6  21529939.967   113140591.707        -526.250          45.000  
G 7  21507056.161   113020347.1172       -525.352          32.000  
G30  21536324.836   113174096.109        -526.051          31.000  
> 2019  6 16  0 45  5.0000000  0  8                     
G 2  21530267.468   113142282.971        -525.900          43.000  
G 3  21530264.808   113142263.496        -525.886          44.000  
G 1  21530272.593   113142301.018        -525.760          38.000  
G 4  21530264.208   113142258.718        -525.869          45.000  
G 5  21530035.734   113141059.363        -525.951          44.000  
G 6  21530040.172   113141117.548        -525.859          45.000  
G 7  21507156.463   113020872.9672       -524.896          32.000  
G30  21536424.996   113174621.955        -525.939          32.000  
> 2019  6 16  0 45  6.0000000  0  8                     
G 2  21530367.583   113142808.698        -525.658          43.000  
G 3  21530365.036   113142789.205        -525.736          44.000  
G 1  21530372.666   113142826.747        -525.599          37.000  
G 4  21530364.306   113142784.429        -525.685          45.000  
G 5  21530135.812   113141585.077        -525.828          44.000  
G 6  21530140.304   113141643.269        -525.706          45.000  
G 7  21507256.587   113021398.6992       -524.785          32.000  
G30  21536525.179   113175147.666        -525.807          32.000  
> 2019  6 16  0 45  7.0000000  0  8                     
G 2  21530467.788   113143334.339        -525.721          43.000  
G 3  21530465.259   113143314.840        -525.809          44.000  
G 1  21530472.886   113143352.388        -525.707          38.000  
G 4  21530464.460   113143310.073        -525.769          44.000  
G 5  21530235.774   113142110.714        -525.808          44.000  
G 6  21530240.488   113142168.910        -525.781          45.000  
G 7  21507356.637   113021924.336        -525.159          32.000  
G30  21536625.320   113175673.323        -525.732          32.000  
> 2019  6 16  0 45  8.0000000  0  8                     
G 2  21530568.004   113143860.044        -525.857          43.000  
G 3  21530565.445   113143840.545        -525.797          44.000  
G 1  21530573.020   113143878.081        -525.636          38.000  
G 4  21530564.583   113143835.773        -525.750          44.000  
G 5  21530335.813   113142636.414        -525.802          44.000  
G 6  21530340.617   113142694.619        -525.797          45.000  
G 7  21507456.647   113022450.018        -525.238          32.000  
G30  21536725.484   113176199.010        -525.507          31.000  
> 2019  6 16  0 45  9.0000000  0  8                     
G 2  21530668.240   113144385.810        -526.007          43.000  
G 3  21530665.608   113144366.308        -525.946          45.000  
G 1  21530673.292   113144403.875        -526.184          37.000  
G 4  21530664.634   113144361.538        -525.874          45.000  
G 5  21530435.926   113143162.174        -525.928          44.000  
G 6  21530440.629   113143220.381        -525.995          45.000  
G 7  21507556.882   113022975.900        -526.760          33.000  
G30  21536825.604   113176724.797        -526.525          30.000  
> 2019  6 16  0 45 10.0000000  0  8                     
G 2  21530768.454   113144911.612        -525.872          43.000  
G 3  21530765.789   113144892.111        -525.845          44.000  
G 1  21530773.306   113144929.663        -526.001          38.000  
G 4  21530764.787   113144887.345        -525.845          44.000  
G 5  21530536.001   113143687.992        -525.935          44.000  
G 6  21530540.793   113143746.189        -525.879          45.000  
G 7  21507657.060   113023501.675        -526.757          32.000  
G30  21536925.814   113177250.604        -526.211          31.000  
> 2019  6 16  0 45 11.0000000  0  8                     
G 2  21530868.593   113145437.326        -525.713          43.000  
G 3  21530865.922   113145417.838        -525.746          44.000  
G 1  21530873.428   113145455.380        -525.845          38.000  
G 4  21530864.972   113145413.066        -525.669          44.000  
G 5  21530636.104   113144213.709        -525.836          44.000  
G 6  21530640.974   113144271.900        -525.703          45.000  
G 7  21507757.136   113024027.426        -526.958          31.000  
G30  21537025.978   113177776.301        -526.029          32.000  
> 2019  6 16  0 45 12.0000000  0  8                     
G 2  21530968.733   113145962.938        -525.808          43.000  
G 3  21530965.991   113145943.456        -525.751          45.000  
G 1  21530973.317   113145980.990        -525.862          38.000  
G 4  21530965.171   113145938.686        -525.732          45.000  
G 5  21530736.198   113144739.328        -525.859          44.000  
G 6  21530740.995   113144797.517        -525.718          45.000  
G 7  21507857.317   113024553.010        -526.976          31.000  
G30  21537126.120   113178301.959        -526.364          32.000  
> 2019  6 16  0 45 13.0000000  0  8                     
G 2  21531068.808   113146488.489        -525.366          43.000  
G 3  21531066.087   113146469.002        -525.408          44.000  
G 1  21531073.570   113146506.554        -525.562          38.000  
G 4  21531065.204   113146464.240        -525.431          45.000  
G 5  21530836.344   113145264.876        -525.487          44.000  
G 6  21530841.113   113145323.071        -525.448          45.000  
G 7  21507957.428   113025078.554        -525.977          32.000  
G30  21537226.253   113178827.470        -525.332          32.000  
> 2019  6 16  0 45 14.0000000  0  8                     
G 2  21531168.924   113147014.027        -525.625          43.000  
G 3  21531166.187   113146994.540        -525.674          44.000  
G 1  21531173.724   113147032.083        -525.583          38.000  
G 4  21531165.275   113146989.766        -525.524          45.000  
G 5  21530936.366   113145790.407        -525.574          44.000  
G 6  21530941.319   113145848.605        -525.636          45.000  
G 7  21508057.612   113025604.077        -526.158          32.000  
G30  21537326.361   113179353.037        -526.033          32.000  
> 2019  6 16  0 45 15.0000000  0  8                     
G 2  21531269.132   113147539.666        -525.618          43.000  
G 3  21531266.337   113147520.174        -525.548          44.000  
G 1  21531273.890   113147557.715        -525.706          38.000  
G 4  21531265.401   113147515.403        -525.619          44.000  
G 5  21531036.408   113146316.042        -525.563          44.000  
G 6  21531041.266   113146374.241        -525.619          45.000  
G 7  21508157.759   113026129.736        -526.285          32.000  
G30  21537426.444   113179878.667        -525.813          31.000  
> 2019  6 16  0 45 16.0000000  0  8                     
G 2  21531369.290   113148065.327        -525.676          43.000  
G 3  21531366.383   113148045.833        -525.717          44.000  
G 1  21531373.758   113148083.364        -525.657          38.000  
G 4  21531365.479   113148041.047        -525.636          45.000  
G 5  21531136.541   113146841.697        -525.634          44.000  
G 6  21531141.351   113146899.897        -525.753          44.000  
G 7  21508257.688   113026655.355        -525.898          32.000  
G30  21537526.460   113180404.326        -525.856          31.000  
> 2019  6 16  0 45 17.0000000  0  8                     
G 2  21531469.376   113148590.831        -525.399          43.000  
G 3  21531466.487   113148571.342        -525.464          44.000  
G 1  21531473.715   113148608.865        -525.316          38.000  
G 4  21531465.546   113148566.569        -525.327          45.000  
G 5  21531236.601   113147367.206        -525.319          44.000  
G 6  21531241.401   113147436.4063       -525.491          45.000  
G 7  21508357.676   113027180.900        -526.550          31.000  
G30  21537626.619   113180929.811        -525.695          31.000  
> 2019  6 16  0 45 18.0000000  0  8                     
G 2  21531569.438   113149116.418        -525.505          43.000  
G 3  21531566.643   113149096.922        -525.544          44.000  
G 1  21531573.910   113149134.469        -525.552          38.000  
G 4  21531565.715   113149092.149        -525.486          45.000  
G 5  21531336.762   113147892.796        -525.430          44.000  
G 6  21531341.511   113147961.9862       -525.482          45.000  
G 7  21508457.815   113027706.472        -526.025          32.000  
G30  21537726.706   113181455.414        -525.632          32.000  
> 2019  6 16  0 45 19.0000000  0  8                     
G 2  21531669.470   113149641.897        -525.679          43.000  
G 3  21531666.624   113149622.411        -525.715          45.000  
G 1  21531674.041   113149659.950        -525.536          38.000  
G 4  21531665.854   113149617.639        -525.723          45.000  
G 5  21531436.955   113148418.280        -525.541          44.000  
G 6  21531441.733   113148487.476        -525.653          45.000  
G 7  21508557.948   113028231.933        -525.576          33.000  
G30  21537826.779   113181980.860        -525.494          31.000  
> 2019  6 16  0 45 20.0000000  0  8                     
G 2  21531769.552   113150167.450        -525.460          43.000  
G 3  21531766.717   113150147.951        -525.433          44.000  
G 1  21531774.221   113150185.495        -525.432          38.000  
G 4  21531765.958   113150143.188        -525.563          45.000  
G 5  21531537.010   113148943.827        -525.312          44.000  
G 6  21531541.703   113149013.026        -525.402          44.000  
G 7  21508657.875   113028757.495        -526.049          32.000  
G30  21537926.856   113182506.414        -525.249          31.000  
> 2019  6 16  0 45 21.0000000  0  8                     
G 2  21531869.658   113150692.984        -525.576          43.000  
G 3  21531866.848   113150673.489        -525.536          44.000  
G 1  21531874.371   113150711.032        -525.590          38.000  
G 4  21531866.169   113150668.730        -525.728          45.000  
G 5  21531637.188   113149469.366        -525.494          44.000  
G 6  21531641.740   113149538.563        -525.603          45.000  
G 7  21508758.133   113029283.084        -526.946          31.000  
G30  21538026.921   113183031.972        -525.704          31.000  
> 2019  6 16  0 45 22.0000000  0  8                     
G 2  21531969.762   113151218.590        -525.696          43.000  
G 3  21531966.810   113151199.082        -525.435          44.000  
G 1  21531974.431   113151236.624        -525.421          38.000  
G 4  21531966.273   113151194.328        -525.819          45.000  
G 5  21531737.413   113149994.965        -525.579          45.000  
G 6  21531741.921   113150064.158        -525.568          45.000  
G 7  21508858.192   113029808.631        -526.069          32.000  
G30  21538126.954   113183557.578        -526.112          31.000  
> 2019  6 16  0 45 23.0000000  0  8                     
G 2  21532069.877   113151744.147        -525.817          43.000  
G 3  21532066.937   113151724.646        -525.729          44.000  
G 1  21532074.506   113151762.184        -525.604          38.000  
G 4  21532066.432   113151719.891        -525.907          45.000  
G 5  21531837.494   113150520.532        -525.837          45.000  
G 6  21531841.982   113150589.724        -525.773          45.000  
G 7  21508958.251   113030334.179        -525.895          32.000  
G30  21538227.064   113184083.151        -526.271          31.000  
> 2019  6 16  0 45 24.0000000  0  8                     
G 2  21532169.931   113152269.673        -525.408          43.000  
G 3  21532166.924   113152250.182        -525.393          44.000  
G 1  21532174.662   113152287.717        -525.356          38.000  
G 4  21532166.529   113152245.422        -525.597          45.000  
G 5  21531937.500   113151046.057        -525.400          44.000  
G 6  21531942.189   113151115.255        -525.424          45.000  
G 7  21509058.380   113030859.722        -525.833          31.000  
G30  21538327.150   113184608.692        -525.612          32.000  
> 2019  6 16  0 45 25.0000000  0  8                     
G 2  21532270.080   113152795.208        -525.457          43.000  
G 3  21532266.957   113152775.717        -525.422          44.000  
G 1  21532274.711   113152813.264        -525.607          38.000  
G 4  21532266.586   113152770.961        -525.674          45.000  
G 5  21532037.639   113151571.597        -525.521          44.000  
G 6  21532042.244   113151640.787        -525.435          45.000  
G 7  21509158.486   113031385.280        -526.067          31.000  
G30  21538427.264   113185134.171        -525.336          32.000  
> 2019  6 16  0 45 26.0000000  0  8                     
G 2  21532370.111   113153320.644        -525.297          43.000  
G 3  21532367.042   113153301.159        -525.303          44.000  
G 1  21532374.725   113153338.700        -525.167          38.000  
G 4  21532366.627   113153296.397        -525.494          45.000  
G 5  21532137.773   113152097.037        -525.426          44.000  
G 6  21532142.331   113152166.230        -525.370          45.000  
G 7  21509258.568   113031910.711        -525.635          31.000  
G30  21538527.275   113185659.620        -525.221          32.000  
> 2019  6 16  0 45 27.0000000  0  8                     
G 2  21532470.208   113153846.068        -525.511          43.000  
G 3  21532467.200   113153826.571        -525.524          44.000  
G 1  21532475.042   113153864.116        -525.323          38.000  
G 4  21532466.766   113153821.815        -525.657          45.000  
G 5  21532237.901   113152622.461        -525.576          44.000  
G 6  21532242.489   113152691.647        -525.508          45.000  
G 7  21509358.722   113032436.107        -525.195          31.000  
G30  21538627.348   113186185.063        -525.219          32.000  
> 2019  6 16  0 45 28.0000000  0  8                     
G 2  21532570.383   113154371.548        -525.492          43.000  
G 3  21532567.226   113154352.054        -525.498          45.000  
G 1  21532575.141   113154389.596        -525.522          38.000  
G 4  21532566.805   113154347.293        -525.596          45.000  
G 5  21532338.009   113153147.932        -525.487          44.000  
G 6  21532342.536   113153217.130        -525.525          45.000  
G 7  21509458.913   113032961.588        -525.724          32.000  
G30  21538727.572   113186710.551        -525.811          31.000  
> 2019  6 16  0 45 29.0000000  0  8                     
G 2  21532670.464   113154897.020        -525.515          43.000  
G 3  21532667.309   113154877.528        -525.408          44.000  
G 1  21532675.152   113154915.078        -525.619          38.000  
G 4  21532666.804   113154872.763        -525.538          45.000  
G 5  21532438.107   113153673.407        -525.481          44.000  
G 6  21532442.687   113153742.600        -525.497          45.000  
G 7  21509559.111   113033487.097        -525.824          31.000  
G30  21538827.591   113187235.993        -525.460          32.000  
> 2019  6 16  0 45 30.0000000  0  8                     
G 2  21532770.563   113155422.570        -525.732          43.000  
G 3  21532767.445   113155403.068        -525.581          44.000  
G 1  21532775.435   113155440.621        -525.702          38.000  
G 4  21532766.867   113155398.310        -525.748          45.000  
G 5  21532538.134   113154198.947        -525.682          45.000  
G 6  21532542.852   113154268.144        -525.675          45.000  
G 7  21509659.151   113034012.644        -526.593          32.000  
G30  21538927.823   113187761.571        -525.808          32.000  
> 2019  6 16  0 45 31.0000000  0  8                     
G 2  21532870.640   113155948.061        -525.427          43.000  
G 3  21532867.520   113155928.575        -525.653          44.000  
G 1  21532875.540   113155966.115        -525.524          38.000  
G 4  21532866.942   113155923.815        -525.699          45.000  
G 5  21532638.272   113154724.454        -525.604          45.000  
G 6  21532642.911   113154793.652        -525.768          45.000  
G 7  21509759.250   113034538.164        -526.459          31.000  
G30  21539027.822   113188287.037        -525.127          31.000  
> 2019  6 16  0 45 32.0000000  0  8                     
G 2  21532970.713   113156473.548        -525.323          43.000  
G 3  21532967.647   113156454.052        -525.358          44.000  
G 1  21532975.482   113156491.596        -525.328          38.000  
G 4  21532967.045   113156449.292        -525.386          45.000  
G 5  21532738.298   113155249.933        -525.342          44.000  
G 6  21532742.988   113155319.124        -525.377          45.000  
G 7  21509859.373   113035063.605        -525.994          32.000  
G30  21539127.923   113188812.515        -525.477          31.000  
> 2019  6 16  0 45 33.0000000  0  8                     
G 2  21533070.763   113156998.982        -525.448          43.000  
G 3  21533067.702   113156979.482        -525.304          44.000  
G 1  21533075.623   113157017.037        -525.637          37.000  
G 4  21533067.164   113156974.717        -525.316          45.000  
G 5  21532838.342   113155775.363        -525.304          44.000  
G 6  21532842.947   113155844.554        -525.355          45.000  
G 7  21509959.414   113035589.025        -525.366          31.000  
G30  21539227.921   113189337.914        -524.821          31.000  
> 2019  6 16  0 45 34.0000000  0  8                     
G 2  21533170.895   113157524.345        -525.433          43.000  
G 3  21533167.802   113157504.839        -525.282          44.000  
G 1  21533175.705   113157542.387        -525.438          37.000  
G 4  21533167.236   113157500.076        -525.308          45.000  
G 5  21532938.495   113156300.723        -525.378          44.000  
G 6  21532943.119   113156369.916        -525.408          45.000  
G 7  21510059.522   113036114.455        -526.858          31.000  
G30  21539328.023   113189863.309        -525.035          30.000  
> 2019  6 16  0 45 35.0000000  0  8                     
G 2  21533270.979   113158049.793        -525.402          43.000  
G 3  21533267.879   113158030.297        -525.342          44.000  
G 1  21533275.658   113158067.852        -525.496          37.000  
G 4  21533267.239   113158025.534        -525.355          44.000  
G 5  21533038.652   113156826.178        -525.361          44.000  
G 6  21533043.109   113156895.371        -525.278          45.000  
G 7  21510159.487   113036639.877        -526.033          31.000  
G30  21539428.266   113190388.830        -525.291          30.000  
> 2019  6 16  0 45 36.0000000  0  8                     
G 2  21533371.142   113158575.223        -525.674          43.000  
G 3  21533367.971   113158555.717        -525.565          45.000  
G 1  21533375.869   113158593.275        -525.945          37.000  
G 4  21533367.252   113158550.953        -525.587          45.000  
G 5  21533138.703   113157351.604        -525.623          44.000  
G 6  21533143.274   113157420.794        -525.603          45.000  
G 7  21510259.663   113037165.316        -526.862          31.000  
G30  21539528.375   113190914.200        -525.406          30.000  
> 2019  6 16  0 45 37.0000000  0  8                     
G 2  21533471.196   113159100.609        -525.278          43.000  
G 3  21533467.984   113159081.106        -525.195          44.000  
G 1  21533475.893   113159118.658        -525.394          38.000  
G 4  21533467.248   113159076.341        -525.221          44.000  
G 5  21533238.822   113157876.991        -525.267          44.000  
G 6  21533243.347   113157946.182        -525.291          45.000  
G 7  21510359.875   113037690.695        -525.511          31.000  
G30  21539628.360   113191439.585        -525.060          31.000  
> 2019  6 16  0 45 38.0000000  0  8                     
G 2  21533571.254   113159625.929        -525.194          43.000  
G 3  21533568.018   113159606.439        -525.320          44.000  
G 1  21533575.972   113159643.989        -525.428          38.000  
G 4  21533567.308   113159601.666        -525.248          45.000  
G 5  21533338.834   113158402.317        -525.365          44.000  
G 6  21533343.439   113158471.513        -525.363          45.000  
G 7  21510459.905   113038216.075        -527.085          31.000  
G30  21539728.456   113191964.936        -525.570          32.000  
> 2019  6 16  0 45 39.0000000  0  8                     
G 2  21533671.326   113160151.265        -525.238          43.000  
G 3  21533668.086   113160131.775        -525.341          45.000  
G 1  21533675.865   113160169.334        -525.613          38.000  
G 4  21533667.482   113160127.012        -525.276          44.000  
G 5  21533438.842   113158927.654        -525.433          44.000  
G 6  21533443.555   113158996.848        -525.448          45.000  
G 7  21510559.867   113038741.323        -525.321          32.000  
G30  21539828.477   113192490.266        -525.472          31.000  
> 2019  6 16  0 45 40.0000000  0  8                     
G 2  21533771.426   113160676.694        -525.339          43.000  
G 3  21533768.125   113160657.215        -525.526          45.000  
G 1  21533775.938   113160694.752        -525.701          38.000  
G 4  21533767.737   113160652.441        -525.364          45.000  
G 5  21533538.888   113159453.093        -525.566          45.000  
G 6  21533543.587   113159522.277        -525.554          45.000  
G 7  21510659.928   113039266.763        -525.785          32.000  
G30  21539928.471   113193015.715        -526.682          31.000  
> 2019  6 16  0 45 41.0000000  0  8                     
G 2  21533871.389   113161202.176        -525.444          43.000  
G 3  21533868.224   113161182.675        -525.525          45.000  
G 1  21533875.875   113161220.230        -525.562          38.000  
G 4  21533867.824   113161177.908        -525.381          45.000  
G 5  21533638.969   113159978.564        -525.566          44.000  
G 6  21533643.573   113160047.746        -525.552          45.000  
G 7  21510759.965   113039792.196        -525.231          32.000  
G30  21540028.495   113193541.113        -525.027          31.000  
> 2019  6 16  0 45 42.0000000  0  8                     
G 2  21533971.458   113161727.648        -525.460          43.000  
G 3  21533968.295   113161708.150        -525.483          44.000  
G 1  21533975.990   113161745.687        -525.455          38.000  
G 4  21533968.008   113161703.381        -525.281          45.000  
G 5  21533738.990   113160504.035        -525.592          45.000  
G 6  21533743.630   113160573.218        -525.426          45.000  
G 7  21510859.887   113040317.726        -526.365          31.000  
G30  21540128.681   113194066.592        -524.722          31.000  
> 2019  6 16  0 45 43.0000000  0  8                     
G 2  21534071.562   113162253.171        -525.717          43.000  
G 3  21534068.333   113162233.697        -525.703          44.000  
G 1  21534075.794   113162271.201        -525.297          38.000  
G 4  21534068.108   113162228.907        -525.428          45.000  
G 5  21533839.110   113161029.558        -525.601          44.000  
G 6  21533843.705   113161098.747        -525.576          45.000  
G 7  21510960.051   113040843.200        -524.814          31.000  
G30  21540228.789   113194592.135        -525.027          31.000  
> 2019  6 16  0 45 44.0000000  0  8                     
G 2  21534171.686   113162778.667        -525.282          43.000  
G 3  21534168.438   113162759.184        -525.490          45.000  
G 1  21534175.933   113162796.711        -525.078          38.000  
G 4  21534168.122   113162754.402        -525.321          45.000  
G 5  21533939.313   113161555.050        -525.325          44.000  
G 6  21533943.726   113161624.242        -525.411          45.000  
G 7  21511060.184   113041368.702        -524.341          31.000  
G30  21540328.910   113195117.622        -524.773          32.000  
> 2019  6 16  0 45 45.0000000  0  8                     
G 2  21534271.776   113163304.131        -525.457          43.000  
G 3  21534268.517   113163284.641        -525.649          44.000  
G 1  21534275.969   113163322.186        -525.425          38.000  
G 4  21534268.255   113163279.861        -525.348          44.000  
G 5  21534039.387   113162080.508        -525.461          44.000  
G 6  21534043.900   113162149.701        -525.465          45.000  
G 7  21511160.334   113041894.158        -524.958          32.000  
G30  21540429.039   113195643.105        -525.460          32.000  
> 2019  6 16  0 45 46.0000000  0  8                     
G 2  21534371.906   113163829.619        -525.385          43.000  
G 3  21534368.554   113163810.131        -525.519          44.000  
G 1  21534376.104   113163847.662        -525.519          38.000  
G 4  21534368.295   113163805.347        -525.303          45.000  
G 5  21534139.477   113162606.000        -525.387          44.000  
G 6  21534143.992   113162675.189        -525.391          45.000  
G 7  21511260.444   113042419.661        -524.807          31.000  
G30  21540529.053   113196168.587        -525.106          32.000  
> 2019  6 16  0 45 47.0000000  0  8                     
G 2  21534471.994   113164355.103        -525.494          43.000  
G 3  21534468.650   113164335.614        -525.533          44.000  
G 1  21534476.212   113164373.152        -525.490          38.000  
G 4  21534468.342   113164330.839        -525.454          45.000  
G 5  21534239.615   113163131.489        -525.507          44.000  
G 6  21534244.072   113163200.674        -525.438          45.000  
G 7  21511360.517   113042945.113        -524.531          31.000  
G30  21540629.109   113196694.063        -525.492          32.000  
> 2019  6 16  0 45 48.0000000  0  8                     
G 2  21534572.016   113164880.551        -525.447          43.000  
G 3  21534568.790   113164861.063        -525.446          44.000  
G 1  21534576.263   113164898.597        -525.348          38.000  
G 4  21534568.496   113164856.289        -525.376          45.000  
G 5  21534339.650   113163656.943        -525.436          44.000  
G 6  21534344.245   113163726.127        -525.425          45.000  
G 7  21511460.664   113043470.582        -524.537          31.000  
G30  21540729.168   113197219.531        -525.227          31.000  
> 2019  6 16  0 45 49.0000000  0  8                     
G 2  21534672.071   113165405.978        -525.425          43.000  
G 3  21534668.860   113165386.479        -525.366          44.000  
G 1  21534676.366   113165424.021        -525.288          38.000  
G 4  21534668.494   113165381.713        -525.200          45.000  
G 5  21534439.669   113164182.360        -525.251          44.000  
G 6  21534444.272   113164251.548        -525.305          45.000  
G 7  21511560.807   113043995.998        -524.835          31.000  
G30  21540829.150   113197744.941        -525.374          30.000  
> 2019  6 16  0 45 50.0000000  0  8                     
G 2  21534772.129   113165931.284        -525.355          43.000  
G 3  21534768.888   113165911.780        -525.251          44.000  
G 1  21534776.420   113165949.330        -525.283          38.000  
G 4  21534768.567   113165907.011        -525.303          45.000  
G 5  21534539.687   113164707.656        -525.144          44.000  
G 6  21534544.419   113164776.849        -525.326          45.000  
G 7  21511660.926   113044521.338        -525.392          31.000  
G30  21540929.168   113198270.241        -525.791          31.000  
> 2019  6 16  0 45 51.0000000  0  8                     
G 2  21534872.188   113166456.632        -525.559          43.000  
G 3  21534869.016   113166437.141        -525.525          44.000  
G 1  21534876.673   113166474.694        -525.565          38.000  
G 4  21534868.629   113166432.371        -525.516          45.000  
G 5  21534639.820   113165233.008        -525.476          45.000  
G 6  21534644.490   113165302.203        -525.551          45.000  
G 7  21511760.981   113045046.689        -525.962          31.000  
G30  21541029.303   113198795.619        -525.242          31.000  
> 2019  6 16  0 45 52.0000000  0  8                     
G 2  21534972.284   113166982.045        -525.747          43.000  
G 3  21534969.100   113166962.556        -525.576          44.000  
G 1  21534976.926   113167000.107        -525.646          38.000  
G 4  21534968.667   113167023.2853       -525.549          45.000  
G 5  21534739.849   113165758.431        -525.468          44.000  
G 6  21534744.428   113165827.613        -525.585          45.000  
G 7  21511860.986   113045572.096        -525.907          31.000  
G30  21541129.312   113199321.039        -525.522          31.000  
> 2019  6 16  0 45 53.0000000  0  8                     
G 2  21535072.328   113167507.402        -525.543          43.000  
G 3  21535069.136   113167487.911        -525.358          44.000  
G 1  21535077.139   113167525.455        -525.117          38.000  
G 4  21535068.742   113167549.6402       -525.359          45.000  
G 5  21534839.964   113166283.784        -525.261          44.000  
G 6  21534844.502   113166352.972        -525.355          45.000  
G 7  21511960.908   113046097.466        -525.890          31.000  
G30  21541229.499   113199846.414        -525.657          32.000  
> 2019  6 16  0 45 54.0000000  0  8                     
G 2  21535172.292   113168032.796        -525.542          43.000  
G 3  21535169.261   113168013.295        -525.447          44.000  
G 1  21535177.294   113168050.823        -525.110          38.000  
G 4  21535168.768   113168075.0272       -525.503          45.000  
G 5  21534940.152   113166809.165        -525.353          45.000  
G 6  21534944.558   113166878.361        -525.420          46.000  
G 7  21512060.985                        -522.070          31.000  
G30  21541329.552   113200371.763        -525.088          32.000  
> 2019  6 16  0 45 55.0000000  0  8                     
G 2  21535272.372   113168558.131        -525.507          43.000  
G 3  21535269.333   113168538.650        -525.596          44.000  
G 1  21535277.151   113168576.179        -525.399          38.000  
G 4  21535268.828   113168599.8801       -525.570          46.000  
G 5  21535040.190   113167334.511        -525.428          44.000  
G 6  21535044.606   113167403.711        -525.410          46.000  
G 7  21512161.120                        -520.459          31.000  
G30  21541429.566   113200897.132        -525.280          32.000  
> 2019  6 16  0 45 56.0000000  0  8                     
G 2  21535372.385   113169083.487        -525.354          43.000  
G 3  21535369.388   113169063.992        -525.258          45.000  
G 1  21535377.056   113169101.527        -525.354          37.000  
G 4  21535368.984   113169125.224        -525.265          46.000  
G 5  21535140.265   113167859.865        -525.223          44.000  
G 6  21535144.684   113167929.059        -525.270          46.000  
G 7  21512261.423   113047694.5923       -525.735          31.000  
G30  21541529.556   113201422.450        -524.923          32.000  
> 2019  6 16  0 45 57.0000000  0  8                     
G 2  21535472.376   113169608.717        -525.326          43.000  
G 3  21535469.467   113169589.243        -525.330          44.000  
G 1  21535477.014   113169626.774        -525.459          38.000  
G 4  21535469.129   113169650.464        -525.272          45.000  
G 5  21535240.395   113168385.102        -525.281          44.000  
G 6  21535244.822   113168454.300        -525.292          45.000  
G 7  21512361.494   113048219.8022       -525.593          32.000  
G30  21541629.614   113201947.717        -525.438          31.000  
> 2019  6 16  0 45 58.0000000  0  8                     
G 2  21535572.360   113170134.042        -525.483          43.000  
G 3  21535569.460   113170114.559        -525.448          45.000  
G 1  21535577.010   113170152.095        -525.585          38.000  
G 4  21535569.191   113170175.784        -525.363          45.000  
G 5  21535340.413   113168910.427        -525.356          45.000  
G 6  21535344.935   113168979.619        -525.363          46.000  
G 7  21512461.691   113048745.1222       -525.977          31.000  
G30  21541729.601   113202473.035        -525.670          31.000  
> 2019  6 16  0 45 59.0000000  0  8                     
G 2  21535672.392   113170659.454        -525.604          43.000  
G 3  21535669.491   113170639.973        -525.480          44.000  
G 1  21535677.020   113170677.503        -525.579          38.000  
G 4  21535669.200   113170701.190        -525.546          46.000  
G 5  21535440.466   113169435.820        -525.400          45.000  
G 6  21535444.956   113169505.020        -525.536          45.000  
G 7  21512561.772   113049270.4982       -525.790          31.000  
G30  21541829.590   113202998.406        -526.255          31.000  
> 2019  6 16  0 46  0.0000000  0  8                     
G 2  21535772.484   113171184.862        -525.504          43.000  
G 3  21535769.569   113171165.382        -525.454          45.000  
G 1  21535777.136   113171202.922        -525.546          38.000  
G 4  21535769.200   113171226.604        -525.343          46.000  
G 5  21535540.622   113169961.251        -525.391          45.000  
G 6  21535544.990   113170030.440        -525.385          45.000  
G 7  21512661.690   113049795.9472       -525.599          32.000  
G30  21541929.557   113203523.852        -525.609          30.000  
> 2019  6 16  0 46  1.0000000  0  8                     
G 2  21535872.589   113171710.236        -525.532          43.000  
G 3  21535869.682   113171690.768        -525.526          45.000  
G 1  21535877.134   113171728.306        -525.364          38.000  
G 4  21535869.254   113171751.982        -525.281          46.000  
G 5  21535640.599   113170486.624        -525.396          45.000  
G 6  21535645.075   113170555.821        -525.364          46.000  
G 7  21512761.720   113050321.316        -525.518          31.000  
G30  21542029.682   113204049.238        -525.792          30.000  
> 2019  6 16  0 46  2.0000000  0  8                     
G 2  21535972.714   113172235.575        -525.221          43.000  
G 3  21535969.794   113172216.100        -525.364          45.000  
G 1  21535977.282   113172253.636        -525.153          38.000  
G 4  21535969.336   113172277.322        -525.382          46.000  
G 5  21535740.595   113171011.962        -525.251          45.000  
G 6  21535745.059   113171081.153        -525.245          46.000  
G 7  21512861.866   113050846.642        -525.127          31.000  
G30  21542129.779   113204574.551        -525.447          31.000  
> 2019  6 16  0 46  3.0000000  0  8                     
G 2  21536072.807   113172760.922        -525.481          43.000  
G 3  21536069.878   113172741.454        -525.687          45.000  
G 1  21536077.442   113172778.999        -525.656          38.000  
G 4  21536069.346   113172802.671        -525.496          46.000  
G 5  21535840.768   113171537.313        -525.524          45.000  
G 6  21535845.101   113171606.502        -525.450          46.000  
G 7  21512961.983   113051371.996        -525.621          31.000  
G30  21542229.846   113205099.905        -525.778          31.000  
> 2019  6 16  0 46  4.0000000  0  8                     
G 2  21536172.858   113173286.289        -525.254          43.000  
G 3  21536169.891   113173266.805        -525.294          44.000  
G 1  21536177.654   113173304.350        -525.277          38.000  
G 4  21536169.451   113173328.034        -525.278          45.000  
G 5  21535940.731   113172062.674        -525.345          44.000  
G 6  21535945.184   113172131.862        -525.164          45.000  
G 7  21513062.000   113051897.337        -525.079          33.000  
G30  21542329.895   113205625.288        -525.519          31.000  
> 2019  6 16  0 46  5.0000000  0  8                     
G 2  21536272.995   113173811.485        -525.126          43.000  
G 3  21536269.932   113173792.008        -525.266          45.000  
G 1  21536277.800   113173829.538        -525.040          38.000  
G 4  21536269.429   113173853.235        -525.314          46.000  
G 5  21536040.709   113172587.879        -525.265          45.000  
G 6  21536045.265   113172657.062        -525.155          46.000  
G 7  21513162.149   113052422.542        -524.977          30.000  
G30  21542429.891   113206150.450        -525.344          31.000  
> 2019  6 16  0 46  6.0000000  0  8                     
G 2  21536373.090   113174336.799        -525.284          43.000  
G 3  21536370.077   113174317.322        -525.394          44.000  
G 1  21536377.758   113174354.838        -525.017          38.000  
G 4  21536369.354   113174378.546        -525.381          46.000  
G 5  21536140.786   113173113.186        -525.436          44.000  
G 6  21536145.366   113173182.374        -525.276          46.000  
G 7  21513262.068   113052947.854        -525.312          32.000  
G30  21542529.867   113206675.802        -525.818          31.000  
> 2019  6 16  0 46  7.0000000  0  8                     
G 2  21536473.139   113174862.065        -525.209          42.000  
G 3  21536470.135   113174842.580        -525.238          44.000  
G 1  21536477.641   113174880.118        -525.183          38.000  
G 4  21536469.461   113174903.812        -525.298          46.000  
G 5  21536240.906   113173638.466        -525.516          45.000  
G 6  21536245.412   113173707.647        -525.245          46.000  
G 7  21513362.203   113053473.115        -524.478          31.000  
G30  21542629.759   113207201.078        -525.681          31.000  
> 2019  6 16  0 46  8.0000000  0  8                     
G 2  21536573.147   113175387.441        -525.293          42.000  
G 3  21536570.219   113175367.967        -525.204          45.000  
G 1  21536577.752   113175405.492        -524.971          38.000  
G 4  21536569.495   113175429.191        -525.338          45.000  
G 5  21536340.928   113174163.847        -525.380          45.000  
G 6  21536345.552   113174233.030        -525.314          46.000  
G 7  21513462.261   113053998.505        -524.874          32.000  
G30  21542729.793   113207726.412        -525.050          31.000  
> 2019  6 16  0 46  9.0000000  0  8                     
G 2  21536673.092   113175912.881        -525.596          42.000  
G 3  21536670.305   113175893.394        -525.481          45.000  
G 1  21536677.779   113175930.910        -525.204          38.000  
G 4  21536669.457   113175954.618        -525.649          45.000  
G 5  21536441.021   113174689.265        -525.452          45.000  
G 6  21536445.628   113174758.454        -525.444          46.000  
G 7  21513562.402   113054523.933        -525.441          32.000  
G30  21542830.031   113208251.857        -525.382          31.000  
> 2019  6 16  0 46 10.0000000  0  8                     
G 2  21536773.151   113176438.328        -525.463          44.000  
G 3  21536770.361   113176418.839        -525.500          45.000  
G 1  21536777.802   113176456.353        -525.189          38.000  
G 4  21536769.450   113176480.062        -525.369          46.000  
G 5  21536541.096   113175214.706        -525.394          45.000  
G 6  21536545.606   113175283.896        -525.391          46.000  
G 7  21513662.274   113055049.342        -524.595          32.000  
G30  21542930.054   113208777.299        -525.065          31.000  
> 2019  6 16  0 46 11.0000000  0  8                     
G 2  21536873.267   113176963.734        -525.403          43.000  
G 3  21536870.428   113176944.241        -525.408          45.000  
G 1  21536877.912   113176981.765        -525.332          38.000  
G 4  21536869.721   113177005.473        -525.482          46.000  
G 5  21536641.100   113175740.117        -525.334          44.000  
G 6  21536645.686   113175809.314        -525.464          46.000  
G 7  21513762.202   113055574.789        -525.530          32.000  
G30  21543030.111   113209302.702        -525.449          32.000  
> 2019  6 16  0 46 12.0000000  0  8                     
G 2  21536973.432   113177489.130        -525.255          43.000  
G 3  21536970.470   113177469.640        -525.156          45.000  
G 1  21536977.982   113177507.151        -524.994          38.000  
G 4  21536969.739   113177530.860        -525.244          46.000  
G 5  21536741.162   113176265.512        -525.104          44.000  
G 6  21536745.738   113176334.696        -525.184          46.000  
G 7  21513862.369   113056100.203        -525.249          32.000  
G30  21543130.089   113209828.106        -525.145          32.000  
> 2019  6 16  0 46 13.0000000  0  8                     
G 2  21537073.615   113178014.504        -525.391          42.000  
G 3  21537070.630   113177995.007        -525.262          45.000  
G 1  21537077.956   113178032.548        -525.295          38.000  
G 4  21537069.877   113178056.232        -525.328          45.000  
G 5  21536841.211   113176790.881        -525.259          44.000  
G 6  21536845.656   113176860.070        -525.255          46.000  
G 7  21513962.430   113056625.592        -526.003          32.000  
G30  21543230.267   113210353.510        -525.637          32.000  
> 2019  6 16  0 46 14.0000000  0  8                     
G 2  21537173.577   113178539.719        -525.332          42.000  
G 3  21537170.680   113178520.220        -525.182          45.000  
G 1  21537178.014   113178557.746        -525.151          38.000  
G 4  21537169.933   113178581.445        -525.269          45.000  
G 5  21536941.214   113177316.096        -525.239          44.000  
G 6  21536945.869   113177385.290        -525.275          46.000  
G 7  21514062.608   113057150.806        -525.583          31.000  
G30  21543330.389   113210878.705        -525.210          31.000  
> 2019  6 16  0 46 15.0000000  0  8                     
G 2  21537273.554   113179065.062        -525.360          42.000  
G 3  21537270.666   113179045.570        -525.369          45.000  
G 1  21537278.069   113179083.095        -525.089          38.000  
G 4  21537269.857   113179106.790        -525.356          45.000  
G 5  21537041.244   113177841.447        -525.365          44.000  
G 6  21537045.967   113177910.643        -525.447          46.000  
G 7  21514162.812   113057676.136        -525.667          31.000  
G30  21543430.488   113211404.033        -524.946          31.000  
> 2019  6 16  0 46 16.0000000  0  8                     
G 2  21537373.662   113179590.496        -525.790          42.000  
G 3  21537370.756   113179570.998        -525.736          44.000  
G 1  21537378.214   113179608.530        -525.706          38.000  
G 4  21537370.032   113179632.229        -525.835          45.000  
G 5  21537141.341   113178366.872        -525.784          44.000  
G 6  21537146.073   113178436.067        -525.773          46.000  
G 7  21514263.058   113058201.556        -525.763          31.000  
G30  21543530.537   113211929.459        -525.238          31.000  
> 2019  6 16  0 46 17.0000000  0  8                     
G 2  21537473.749   113180115.880        -525.278          43.000  
G 3  21537470.784   113180096.378        -525.233          44.000  
G 1  21537478.198   113180133.918        -525.288          38.000  
G 4  21537470.112   113180157.612        -525.366          45.000  
G 5  21537241.310   113178892.257        -525.394          44.000  
G 6  21537246.129   113178961.447        -525.366          46.000  
G 7  21514363.317   113058726.930        -525.354          31.000  
G30  21543630.604   113212454.864        -525.481          31.000  
> 2019  6 16  0 46 18.0000000  0  8                     
G 2  21537573.802   113180641.188        -525.376          43.000  
G 3  21537570.855   113180621.690        -525.283          45.000  
G 1  21537578.417   113180659.223        -525.236          38.000  
G 4  21537570.267   113180682.924        -525.497          46.000  
G 5  21537341.280   113179417.571        -525.402          45.000  
G 6  21537346.238   113179486.762        -525.428          47.000  
G 7  21514463.444   113059252.234        -525.234          32.000  
G30  21543730.764   113212980.166        -525.311          32.000  
> 2019  6 16  0 46 19.0000000  0  8                     
G 2  21537673.773   113181166.431        -525.093          43.000  
G 3  21537670.894   113181146.934        -525.067          45.000  
G 1  21537678.458   113181184.472        -525.006          38.000  
G 4  21537670.210   113181208.170        -525.264          45.000  
G 5  21537441.282   113179942.815        -525.131          45.000  
G 6  21537446.229   113180012.012        -525.305          46.000  
G 7  21514563.392   113059777.461        -524.760          32.000  
G30  21543830.838   113213505.437        -524.971          31.000  
> 2019  6 16  0 46 20.0000000  0  7                     
G 2  21537773.799   113181764.7343       -525.178          43.000  
G 3  21537770.853   113181672.241        -525.071          46.000  
G 1  21537778.490   113181709.784        -525.275          38.000  
G 4  21537770.270   113181733.476        -525.283          46.000  
G 5  21537541.303   113180468.125        -525.216          45.000  
G 6  21537546.385   113180537.316        -525.330          47.000  
G 7  21514663.467   113060302.779        -524.989          32.000  
> 2019  6 16  0 46 21.0000000  0  8                     
G 2  21537873.850   113182290.0352       -525.199          43.000  
G 3  21537870.870   113182197.543        -525.151          45.000  
G 1  21537878.641   113182235.086        -525.181          38.000  
G 4  21537870.261   113182258.777        -525.249          45.000  
G 5  21537641.319   113180993.423        -525.170          44.000  
G 6  21537646.457   113181062.618        -525.271          46.000  
G 7  21514763.730   113060828.054        -524.681          31.000  
G30  21544031.395   113214649.0811       -525.215          30.000  
> 2019  6 16  0 46 22.0000000  0  8                     
G 2  21537973.849   113182815.2462       -525.060          43.000  
G 3  21537970.882   113182722.753        -525.070          45.000  
G 1  21537978.835   113182760.297        -525.023          38.000  
G 4  21537970.277   113182783.986        -525.112          45.000  
G 5  21537741.339   113181518.631        -525.092          44.000  
G 6  21537746.544   113181587.826        -525.187          46.000  
G 7  21514863.716   113061353.241        -523.970          31.000  
G30  21544131.495   113215174.260        -525.194          31.000  
> 2019  6 16  0 46 23.0000000  0  8                     
G 2  21538073.902   113183340.5132       -525.356          43.000  
G 3  21538071.051   113183248.009        -525.244          45.000  
G 1  21538079.030   113183285.564        -525.361          38.000  
G 4  21538070.237   113183309.242        -525.260          45.000  
G 5  21537841.402   113182043.891        -525.295          44.000  
G 6  21537846.565   113182113.078        -525.283          46.000  
G 7  21514963.699   113061878.574        -525.554          31.000  
G30  21544231.610   113215699.513        -525.520          30.000  
> 2019  6 16  0 46 24.0000000  0  8                     
G 2  21538173.914   113183865.7062       -525.104          42.000  
G 3  21538171.060   113183773.204        -525.051          45.000  
G 1  21538179.120   113183810.750        -525.315          38.000  
G 4  21538170.209   113183834.442        -525.222          45.000  
G 5  21537941.399   113182569.086        -525.142          44.000  
G 6  21537946.648   113182638.282        -525.133          46.000  
G 7  21515063.872   113062403.765        -525.168          31.000  
G30  21544331.765   113216224.693        -525.321          31.000  
> 2019  6 16  0 46 25.0000000  0  8                     
G 2  21538273.925   113184390.833        -524.875          43.000  
G 3  21538271.087   113184298.342        -525.043          45.000  
G 1  21538279.042   113184335.885        -525.229          38.000  
G 4  21538270.149   113184359.577        -525.051          45.000  
G 5  21538041.364   113183094.224        -525.106          44.000  
G 6  21538046.472   113183163.410        -524.893          46.000  
G 7  21515163.795   113062928.918        -525.618          31.000  
G30  21544431.849   113216749.840        -525.152          30.000  
> 2019  6 16  0 46 26.0000000  0  8                     
G 2  21538374.049   113184916.007        -525.181          42.000  
G 3  21538371.177   113184823.512        -525.266          45.000  
G 1  21538378.983   113184861.063        -525.391          38.000  
G 4  21538370.235   113184884.744        -525.308          46.000  
G 5  21538141.439   113183619.395        -525.332          44.000  
G 6  21538146.460   113183688.583        -525.211          46.000  
G 7  21515263.771   113063454.011        -524.611          31.000  
G30  21544531.999   113217275.001        -525.414          30.000  
> 2019  6 16  0 46 27.0000000  0  8                     
G 2  21538474.154   113185441.206        -525.168          43.000  
G 3  21538471.277   113185348.725        -525.312          45.000  
G 1  21538479.125   113185386.265        -525.377          38.000  
G 4  21538470.264   113185409.956        -525.382          45.000  
G 5  21538241.493   113184144.600        -525.413          44.000  
G 6  21538246.544   113184213.785        -525.315          46.000  
G 7  21515363.774   113063979.203        -524.188          32.000  
G30  21544631.955   113217800.199        -525.536          30.000  
> 2019  6 16  0 46 28.0000000  0  8                     
G 2  21538574.208   113185966.314        -525.032          43.000  
G 3  21538571.305   113185873.826        -525.083          45.000  
G 1  21538579.020   113185911.369        -525.275          38.000  
G 4  21538570.318   113185935.066        -525.212          46.000  
G 5  21538341.538   113184669.708        -525.208          45.000  
G 6  21538346.514   113184738.887        -525.001          46.000  
G 7  21515463.574   113064504.288        -524.012          32.000  
G30  21544731.935   113218325.327        -525.387          31.000  
> 2019  6 16  0 46 29.0000000  0  8                     
G 2  21538674.290   113186491.491        -525.262          43.000  
G 3  21538671.273   113186399.002        -525.140          45.000  
G 1  21538678.771   113186436.538        -525.271          37.000  
G 4  21538670.492   113186460.239        -525.231          45.000  
G 5  21538441.495   113185194.881        -525.208          44.000  
G 6  21538446.560   113185264.061        -525.090          46.000  
G 7  21515563.514   113065029.520        -524.663          31.000  
G30  21544831.944   113218850.476        -525.195          30.000  
> 2019  6 16  0 46 30.0000000  0  8                     
G 2  21538774.405   113187016.633        -525.215          43.000  
G 3  21538771.348   113186924.155        -525.145          45.000  
G 1  21538778.742   113186961.688        -525.066          37.000  
G 4  21538770.500   113186985.385        -525.237          44.000  
G 5  21538541.507   113185720.031        -525.190          44.000  
G 6  21538546.582   113185789.216        -525.168          46.000  
G 7  21515663.473   113065554.651        -524.688          32.000  
G30  21544931.922   113219375.639        -525.208          30.000  
> 2019  6 16  0 46 31.0000000  0  8                     
G 2  21538874.354   113187541.960        -525.254          43.000  
G 3  21538871.388   113187449.471        -525.314          45.000  
G 1  21538878.840   113187487.002        -525.203          38.000  
G 4  21538870.535   113187510.701        -525.173          45.000  
G 5  21538641.557   113186245.360        -525.259          44.000  
G 6  21538646.653   113186314.547        -525.244          46.000  
G 7  21515763.698   113066100.5013       -525.577          31.000  
G30  21545031.918   113219900.987        -525.416          31.000  
> 2019  6 16  0 46 32.0000000  0  8                     
G 2  21538974.410   113188067.289        -525.403          43.000  
G 3  21538971.396   113187974.835        -525.618          44.000  
G 1  21538978.839   113188012.347        -525.410          38.000  
G 4  21538970.561   113188036.042        -525.457          46.000  
G 5  21538741.701   113186770.709        -525.575          44.000  
G 6  21538746.747   113186839.891        -525.497          46.000  
G 7  21515863.847   113066625.8482       -525.116          31.000  
G30  21545132.020   113220426.304        -525.312          31.000  
> 2019  6 16  0 46 33.0000000  0  8                     
G 2  21539074.466   113188592.694        -525.387          42.000  
G 3  21539071.437   113188500.223        -525.226          44.000  
G 1  21539078.954   113188537.747        -525.288          39.000  
G 4  21539070.588   113188561.435        -525.143          46.000  
G 5  21538841.794   113187296.099        -525.250          44.000  
G 6  21538846.838   113187365.280        -525.198          46.000  
G 7  21515964.116   113067151.2592       -524.830          31.000  
G30  21545232.078   113220951.683        -525.133          32.000  
> 2019  6 16  0 46 34.0000000  0  8                     
G 2  21539174.416   113189117.952        -525.508          42.000  
G 3  21539171.488   113189025.481        -525.380          45.000  
G 1  21539178.987   113189063.007        -525.596          38.000  
G 4  21539170.693   113189086.698        -525.325          46.000  
G 5  21538941.809   113187821.356        -525.413          44.000  
G 6  21538946.910   113187890.539        -525.385          46.000  
G 7  21516064.419   113067676.5092       -525.082          31.000  
G30  21545332.135   113221476.963        -525.981          32.000  
> 2019  6 16  0 46 35.0000000  0  8                     
G 2  21539274.485   113189643.297        -525.203          42.000  
G 3  21539271.505   113189550.834        -525.485          44.000  
G 1  21539279.025   113189588.350        -525.138          38.000  
G 4  21539270.685   113189612.041        -525.261          45.000  
G 5  21539041.899   113188346.703        -525.270          45.000  
G 6  21539046.914   113188415.885        -525.275          46.000  
G 7  21516164.523   113068201.8522       -524.821          32.000  
G30  21545432.207   113222002.302        -525.289          31.000  
> 2019  6 16  0 46 36.0000000  0  8                     
G 2  21539374.521   113190168.526        -525.149          42.000  
G 3  21539371.578   113190076.051        -525.111          45.000  
G 1  21539379.115   113190113.568        -525.048          38.000  
G 4  21539370.680   113190137.260        -524.845          45.000  
G 5  21539141.986   113188871.923        -525.107          45.000  
G 6  21539146.843   113188941.107        -525.107          46.000  
G 7  21516264.615   113068727.0662       -524.644          31.000  
G30  21545532.282   113222527.513        -524.868          32.000  
> 2019  6 16  0 46 37.0000000  0  8                     
G 2  21539474.498   113190693.679        -525.210          42.000  
G 3  21539471.549   113190601.207        -525.145          45.000  
G 1  21539479.133   113190638.726        -525.231          38.000  
G 4  21539470.621   113190662.414        -524.954          45.000  
G 5  21539242.018   113189397.082        -525.170          44.000  
G 6  21539246.961   113189466.266        -525.159          46.000  
G 7  21516364.661   113069251.7211       -524.734          31.000  
G30  21545632.344   113223052.667        -525.104          31.000  
> 2019  6 16  0 46 38.0000000  0  8                     
G 2  21539574.570   113191218.869        -525.165          42.000  
G 3  21539571.586   113191126.407        -525.255          45.000  
G 1  21539579.109   113191163.929        -525.004          38.000  
G 4  21539570.652   113191187.610        -525.009          46.000  
G 5  21539342.064   113189922.269        -525.103          44.000  
G 6  21539346.956   113189991.456        -525.172          46.000  
G 7  21516464.943   113069776.917        -524.822          32.000  
G30  21545732.406   113223577.873        -525.004          31.000  
> 2019  6 16  0 46 39.0000000  0  8                     
G 2  21539674.551   113191743.948        -524.962          42.000  
G 3  21539671.586   113191651.465        -525.132          44.000  
G 1  21539679.096   113191688.985        -524.895          38.000  
G 4  21539670.725   113191712.676        -524.917          45.000  
G 5  21539442.116   113190447.338        -525.056          44.000  
G 6  21539447.042   113190516.531        -525.123          46.000  
G 7  21516565.033   113070302.002        -524.589          32.000  
G30  21545832.472   113224102.937        -525.092          32.000  
> 2019  6 16  0 46 40.0000000  0  8                     
G 2  21539774.500   113192269.051        -525.198          43.000  
G 3  21539771.672   113192176.571        -525.220          45.000  
G 1  21539779.214   113192214.087        -525.110          38.000  
G 4  21539770.832   113192237.781        -525.083          46.000  
G 5  21539542.117   113190972.432        -525.157          44.000  
G 6  21539547.055   113191041.624        -525.226          46.000  
G 7  21516665.130   113070827.075        -524.813          32.000  
G30  21545932.459   113224628.037        -525.198          32.000  
> 2019  6 16  0 46 41.0000000  0  8                     
G 2  21539874.551   113192794.120        -525.122          42.000  
G 3  21539871.705   113192701.636        -525.063          45.000  
G 1  21539879.158   113192739.154        -525.107          38.000  
G 4  21539870.837   113192762.846        -524.987          46.000  
G 5  21539642.196   113191497.497        -525.042          44.000  
G 6  21539646.943   113191566.691        -525.103          46.000  
G 7  21516765.087   113071352.144        -524.696          32.000  
G30  21546032.385   113225153.101        -524.971          32.000  
> 2019  6 16  0 46 42.0000000  0  8                     
G 2  21539974.530   113193319.231        -525.234          43.000  
G 3  21539971.755   113193226.743        -525.216          45.000  
G 1  21539979.054   113193264.272        -525.281          38.000  
G 4  21539970.822   113193287.957        -525.211          46.000  
G 5  21539742.137   113192022.606        -525.210          45.000  
G 6  21539747.020   113192091.806        -525.240          46.000  
G 7  21516864.962   113071877.250        -525.002          32.000  
G30  21546132.233   113225678.199        -525.001          31.000  
> 2019  6 16  0 46 43.0000000  0  8                     
G 2  21540074.554   113193844.429        -525.485          43.000  
G 3  21540071.784   113193751.924        -525.227          45.000  
G 1  21540079.210   113193789.481        -525.635          38.000  
G 4  21540070.917   113193813.150        -525.397          46.000  
G 5  21539842.130   113192547.803        -525.399          45.000  
G 6  21539847.054   113192616.993        -525.339          46.000  
G 7  21516964.966   113072402.482        -525.900          32.000  
G30  21546232.142   113226203.393        -525.179          31.000  
> 2019  6 16  0 46 44.0000000  0  8                     
G 2  21540174.570   113194369.451        -525.120          42.000  
G 3  21540171.745   113194276.955        -524.995          45.000  
G 1  21540179.391   113194314.505        -525.382          38.000  
G 4  21540170.978   113194338.178        -525.083          46.000  
G 5  21539942.159   113193072.832        -525.139          45.000  
G 6  21539947.039   113193142.017        -524.973          46.000  
G 7  21517065.043   113072927.470        -525.011          32.000  
G30  21546332.114   113226728.422        -524.818          31.000  
> 2019  6 16  0 46 45.0000000  0  8                     
G 2  21540274.596   113194894.505        -525.480          42.000  
G 3  21540271.768   113194802.006        -525.352          44.000  
G 1  21540279.360   113194839.541        -525.421          38.000  
G 4  21540271.099   113194863.227        -525.392          46.000  
G 5  21540042.141   113193597.873        -525.355          45.000  
G 6  21540047.053   113193667.061        -525.271          46.000  
G 7  21517165.152   113073452.520        -525.292          32.000  
G30  21546432.040   113227253.449        -524.937          32.000  
> 2019  6 16  0 46 46.0000000  0  8                     
G 2  21540374.538   113195419.547        -525.043          43.000  
G 3  21540371.731   113195327.063        -525.016          44.000  
G 1  21540379.475   113195364.585        -525.031          38.000  
G 4  21540371.134   113195388.273        -524.991          46.000  
G 5  21540142.148   113194122.916        -524.908          45.000  
G 6  21540147.011   113194192.113        -524.862          46.000  
G 7  21517265.052   113073977.575        -525.018          32.000  
G30  21546532.052   113227778.522        -524.839          31.000  
> 2019  6 16  0 46 47.0000000  0  8                     
G 2  21540474.538   113195944.556        -525.304          43.000  
G 3  21540471.624   113195852.059        -525.148          45.000  
G 1  21540479.530   113195889.608        -525.322          38.000  
G 4  21540471.181   113195913.285        -525.260          46.000  
G 5  21540242.194   113194647.929        -525.162          45.000  
G 6  21540247.124   113194717.122        -525.055          47.000  
G 7  21517364.988   113074502.599        -524.985          32.000  
G30  21546632.061   113228303.537        -525.127          31.000  
> 2019  6 16  0 46 48.0000000  0  8                     
G 2  21540574.529   113196469.519        -525.173          43.000  
G 3  21540571.619   113196377.031        -525.138          45.000  
G 1  21540579.411   113196414.557        -525.095          38.000  
G 4  21540571.069   113196438.244        -525.194          46.000  
G 5  21540342.233   113195172.891        -524.996          45.000  
G 6  21540346.990   113195242.077        -524.880          46.000  
G 7  21517465.085   113075027.556        -525.094          33.000  
G30  21546732.030   113228828.472        -524.957          30.000  
> 2019  6 16  0 46 49.0000000  0  8                     
G 2  21540674.551   113196994.556        -524.957          42.000  
G 3  21540671.687   113196902.069        -525.044          44.000  
G 1  21540679.274   113196939.598        -525.183          38.000  
G 4  21540671.154   113196963.297        -525.134          46.000  
G 5  21540442.108   113195697.938        -524.916          45.000  
G 6  21540447.059   113195767.123        -524.938          46.000  
G 7  21517570.610   113075596.1043       -525.514          32.000  
G30  21546832.036   113229353.531        -525.455          31.000  
> 2019  6 16  0 46 50.0000000  0  8                     
G 2  21540774.621   113197519.558        -525.078          43.000  
G 3  21540771.694   113197427.057        -524.989          45.000  
G 1  21540779.382   113197464.602        -525.219          38.000  
G 4  21540771.112   113197488.294        -525.208          46.000  
G 5  21540542.104   113196222.928        -524.955          45.000  
G 6  21540547.117   113196292.117        -524.996          46.000  
G 7  21517668.801   113076112.1303       -526.122          32.000  
G30  21546932.032   113229878.544        -525.598          32.000  
> 2019  6 16  0 46 51.0000000  0  8                     
G 2  21540874.666   113198044.586        -524.993          43.000  
G 3  21540871.732   113197952.084        -524.949          45.000  
G 1  21540879.303   113197989.632        -525.198          38.000  
G 4  21540871.092   113198013.323        -525.092          46.000  
G 5  21540642.128   113196747.954        -524.814          45.000  
G 6  21540647.068   113196817.150        -524.962          46.000  
G 7  21517767.476   113076637.1412       -525.500          32.000  
G30  21547032.038   113230403.557        -525.237          32.000  
> 2019  6 16  0 46 52.0000000  0  8                     
G 2  21540974.754   113198569.533        -525.308          43.000  
G 3  21540971.862   113198477.029        -525.164          45.000  
G 1  21540979.384   113198514.583        -525.494          38.000  
G 4  21540971.082   113198538.261        -525.190          45.000  
G 5  21540742.112   113197272.884        -524.895          44.000  
G 6  21540747.039   113197342.084        -524.988          46.000  
G 7  21517863.457   113077162.1252       -526.821          33.000  
G30  21547132.093   113230928.498        -525.308          31.000  
> 2019  6 16  0 46 53.0000000  0  8                     
G 2  21541074.828   113199094.483        -525.079          43.000  
G 3  21541071.896   113199001.991        -525.135          46.000  
G 1  21541079.628   113199039.535        -525.157          38.000  
G 4  21541070.968   113199063.222        -525.187          46.000  
G 5  21540842.189   113197797.855        -524.946          45.000  
G 6  21540847.019   113197867.049        -525.081          46.000  
G 7  21517965.701   113077687.0272       -525.459          32.000  
G30  21547232.001   113231453.439        -525.225          31.000  
> 2019  6 16  0 46 54.0000000  0  8                     
G 2  21541174.865   113199619.484        -525.095          43.000  
G 3  21541171.927   113199526.990        -525.194          46.000  
G 1  21541179.709   113199564.523        -525.045          38.000  
G 4  21541170.980   113199588.222        -525.214          46.000  
G 5  21540942.319   113198322.855        -525.142          45.000  
G 6  21540947.033   113198392.056        -525.198          46.000  
G 7  21518065.763   113078212.0592       -525.721          32.000  
G30  21547331.893   113231978.443        -525.131          32.000  
> 2019  6 16  0 46 55.0000000  0  8                     
G 2  21541274.900   113200144.441        -524.739          43.000  
G 3  21541271.955   113200051.946        -524.896          45.000  
G 1  21541279.450   113200089.484        -524.951          38.000  
G 4  21541271.008   113200113.180        -524.899          46.000  
G 5  21541042.370   113198847.817        -524.904          45.000  
G 6  21541047.049   113198917.015        -524.929          46.000  
G 7  21518165.284   113078736.4901       -525.090          32.000  
G30  21547431.919   113232503.428        -525.188          31.000  
> 2019  6 16  0 46 56.0000000  0  8                     
G 2  21541374.913   113200669.416        -524.941          43.000  
G 3  21541371.980   113200576.930        -525.049          45.000  
G 1  21541379.407   113200614.453        -525.016          38.000  
G 4  21541371.077   113200638.151        -524.950          46.000  
G 5  21541142.376   113199372.802        -525.037          45.000  
G 6  21541147.114   113199441.995        -525.005          46.000  
G 7  21518265.487   113079247.9893       -525.449          32.000  
G30  21547532.001   113233028.386        -524.952          32.000  
> 2019  6 16  0 46 57.0000000  0  8                     
G 2  21541474.762   113201194.464        -525.029          42.000  
G 3  21541472.029   113201101.978        -525.150          45.000  
G 1  21541479.270   113201139.500        -524.961          38.000  
G 4  21541471.050   113201163.196        -525.042          46.000  
G 5  21541242.343   113199897.849        -525.131          45.000  
G 6  21541247.083   113199967.043        -525.110          46.000  
G 7  21518365.664   113079773.0192       -525.360          32.000  
G30  21547632.043   113233553.442        -524.836          32.000  
> 2019  6 16  0 46 58.0000000  0  8                     
G 2  21541574.621   113201719.459        -524.998          42.000  
G 3  21541571.991   113201626.968        -525.012          45.000  
G 1  21541579.138   113201664.499        -525.016          38.000  
G 4  21541571.075   113201688.192        -524.966          46.000  
G 5  21541342.394   113200422.836        -524.996          45.000  
G 6  21541347.069   113200492.036        -525.048          46.000  
G 7  21518465.522   113080298.0212       -525.524          32.000  
G30  21547732.094   113234078.441        -525.117          31.000  
> 2019  6 16  0 46 59.0000000  0  8                     
G 2  21541674.598   113202244.554        -525.033          42.000  
G 3  21541672.033   113202152.069        -525.106          45.000  
G 1  21541679.202   113202189.599        -525.087          38.000  
G 4  21541671.039   113202213.292        -525.071          46.000  
G 5  21541442.344   113200947.937        -524.977          44.000  
G 6  21541447.123   113201017.133        -525.103          46.000  
G 7  21518565.605   113080823.1152       -525.269          32.000  
G30  21547832.064   113234603.527        -524.972          31.000  
> 2019  6 16  0 47  0.0000000  0  8                     
G 2  21541774.456   113202769.489        -524.739          42.000  
G 3  21541771.995   113202677.007        -524.778          45.000  
G 1  21541779.341   113202714.543        -524.828          38.000  
G 4  21541771.027   113202738.231        -524.797          46.000  
G 5  21541542.449   113201472.882        -524.849          44.000  
G 6  21541547.078   113201542.075        -524.857          46.000  
G 7  21518665.552   113081348.0782       -525.470          32.000  
G30  21547932.024   113235128.471        -524.736          31.000  
> 2019  6 16  0 47  1.0000000  0  8                     
G 2  21541874.436   113203294.369        -524.742          42.000  
G 3  21541872.012   113203201.890        -524.763          45.000  
G 1  21541879.083   113203239.427        -525.033          38.000  
G 4  21541871.008   113203263.112        -524.745          46.000  
G 5  21541642.376   113201997.762        -524.878          44.000  
G 6  21541647.080   113202066.957        -524.889          45.000  
G 7  21518765.399   113081872.4441       -525.145          32.000  
G30  21548032.135   113235653.415        -525.350          31.000  
> 2019  6 16  0 47  2.0000000  0  8                     
G 2  21541974.458   113203819.372        -524.785          42.000  
G 3  21541971.970   113203726.877        -524.799          45.000  
G 1  21541979.071   113203764.424        -525.082          38.000  
G 4  21541970.990   113203788.101        -524.723          46.000  
G 5  21541742.269   113202522.748        -524.833          45.000  
G 6  21541747.052   113202591.944        -524.825          45.000  
G 7  21518865.365   113082397.470        -525.339          32.000  
G30  21548132.146   113236178.394        -525.520          31.000  
> 2019  6 16  0 47  3.0000000  0  8                     
G 2  21542074.371   113204344.318        -524.948          43.000  
G 3  21542071.895   113204251.820        -524.974          45.000  
G 1  21542079.151   113204289.376        -525.343          38.000  
G 4  21542071.032   113204313.041        -524.822          45.000  
G 5  21541842.165   113203047.698        -524.988          45.000  
G 6  21541847.068   113203116.895        -524.973          46.000  
G 7  21518965.353   113082922.389        -525.325          32.000  
G30  21548232.019   113236703.301        -525.022          31.000  
> 2019  6 16  0 47  4.0000000  0  8                     
G 2  21542174.445   113204869.353        -525.128          43.000  
G 3  21542171.853   113204776.860        -525.153          45.000  
G 1  21542179.127   113204814.405        -525.358          38.000  
G 4  21542170.995   113204838.077        -525.049          46.000  
G 5  21541942.099   113203572.729        -525.239          44.000  
G 6  21541947.095   113203641.935        -525.216          45.000  
G 7  21519065.378   113083447.412        -524.969          32.000  
G30  21548332.060   113237228.353        -525.469          31.000  
> 2019  6 16  0 47  5.0000000  0  8                     
G 2  21542274.362   113205394.434        -524.951          43.000  
G 3  21542271.816   113205301.940        -524.948          44.000  
G 1  21542279.019   113205339.494        -525.343          38.000  
G 4  21542270.935   113205363.162        -524.799          45.000  
G 5  21542042.048   113204097.808        -525.060          44.000  
G 6  21542047.132   113204167.015        -525.031          45.000  
G 7  21519165.510   113083972.518        -525.608          32.000  
G30  21548432.104   113237753.428        -525.181          31.000  
> 2019  6 16  0 47  6.0000000  0  8                     
G 2  21542374.396   113205919.496        -525.187          43.000  
G 3  21542371.745   113205826.998        -525.181          45.000  
G 1  21542379.055   113205864.556        -525.508          38.000  
G 4  21542370.929   113205888.223        -525.149          45.000  
G 5  21542141.984   113204622.873        -525.284          44.000  
G 6  21542147.085   113204692.075        -525.266          45.000  
G 7  21519265.208   113084497.550        -525.273          32.000  
G30  21548532.116   113238278.500        -525.654          31.000  
> 2019  6 16  0 47  7.0000000  0  8                     
G 2  21542474.358   113206444.535        -525.184          43.000  
G 3  21542471.772   113206352.042        -525.123          45.000  
G 1  21542478.903   113206389.588        -525.472          38.000  
G 4  21542470.900   113206413.264        -525.126          45.000  
G 5  21542241.993   113205147.911        -525.151          45.000  
G 6  21542246.985   113205217.110        -525.179          45.000  
G 7  21519365.190   113085022.595        -525.502          32.000  
G30  21548632.098   113238803.523        -525.541          31.000  
> 2019  6 16  0 47  8.0000000  0  8                     
G 2  21542574.341   113206969.564        -525.193          43.000  
G 3  21542571.813   113206877.065        -525.184          45.000  
G 1  21542578.939   113206914.608        -525.343          38.000  
G 4  21542570.923   113206938.298        -525.267          45.000  
G 5  21542342.018   113205672.941        -525.266          44.000  
G 6  21542347.011   113205742.140        -525.255          45.000  
G 7  21519464.979   113085547.600        -525.116          32.000  
G30  21548732.082   113239328.574        -525.560          31.000  
> 2019  6 16  0 47  9.0000000  0  8                     
G 2  21542674.304   113207494.566        -525.070          42.000  
G 3  21542671.820   113207402.065        -524.994          44.000  
G 1  21542678.785   113207439.611        -525.277          38.000  
G 4  21542670.880   113207463.297        -525.016          46.000  
G 5  21542442.027   113206197.941        -525.013          45.000  
G 6  21542446.966   113206267.142        -525.089          45.000  
G 7  21519564.948   113086072.660        -525.375          31.000  
G30  21548832.112   113239853.577        -525.262          32.000  
> 2019  6 16  0 47 10.0000000  0  8                     
G 2  21542774.378   113208019.644        -524.911          42.000  
G 3  21542771.839   113207927.148        -524.897          44.000  
G 1  21542778.817   113207964.697        -525.116          38.000  
G 4  21542770.872   113207988.378        -524.984          45.000  
G 5  21542542.013   113206723.026        -524.978          44.000  
G 6  21542546.984   113206792.219        -524.956          45.000  
G 7  21519664.966   113086597.705        -525.205          31.000  
G30  21548932.155   113240378.646        -525.026          32.000  
> 2019  6 16  0 47 11.0000000  0  8                     
G 2  21542874.296   113208544.637        -524.836          42.000  
G 3  21542871.890   113208452.138        -524.830          44.000  
G 1  21542878.669   113208489.685        -525.048          38.000  
G 4  21542870.834   113208513.364        -524.919          46.000  
G 5  21542642.062   113207248.016        -525.005          44.000  
G 6  21542646.970   113207317.213        -525.001          45.000  
G 7  21519764.876   113087122.725        -525.277          32.000  
G30  21549032.150   113240903.629        -525.278          32.000  
> 2019  6 16  0 47 12.0000000  0  8                     
G 2  21542974.227   113209069.600        -524.973          42.000  
G 3  21542971.917   113208977.102        -524.965          44.000  
G 1  21542978.773   113209014.645        -525.067          38.000  
G 4  21542970.865   113209038.331        -525.079          45.000  
G 5  21542742.052   113207772.977        -525.071          44.000  
G 6  21542746.990   113207842.172        -524.989          45.000  
G 7  21519864.856   113087647.676        -525.280          32.000  
G30  21549132.076   113241428.601        -525.275          31.000  
> 2019  6 16  0 47 13.0000000  0  8                     
G 2  21543074.219   113209594.502        -524.625          42.000  
G 3  21543071.838   113209502.012        -524.725          44.000  
G 1  21543078.685   113209539.546        -524.805          38.000  
G 4  21543070.926   113209563.241        -524.846          45.000  
G 5  21542842.060   113208297.879        -524.746          44.000  
G 6  21542846.951   113208367.083        -524.734          45.000  
G 7  21519964.777   113088172.561        -524.596          32.000  
G30  21549232.003   113241953.509        -525.126          31.000  
> 2019  6 16  0 47 14.0000000  0  8                     
G 2  21543174.281   113210119.447        -524.740          42.000  
G 3  21543171.943   113210026.949        -524.827          44.000  
G 1  21543178.508   113210064.485        -524.800          38.000  
G 4  21543170.963   113210088.181        -524.907          45.000  
G 5  21542942.056   113208822.817        -524.788          45.000  
G 6  21542946.996   113208892.028        -524.890          45.000  
G 7  21520064.731   113088697.522        -524.771          32.000  
G30  21549332.125   113242478.466        -525.343          32.000  
