     2.10           OBSERVATION DATA    M (MIXED)           RINEX VERSION / TYPE
RTKCONV 2.4.2                           20200423 100928 UTC PGM / RUN BY / DATE 
log: G:\54\GPS\0422\gps-1                                   COMMENT             
format: u-blox                                              COMMENT             
                                                            MARKER NAME         
                                                            MARKER NUMBER       
                                                            OBSERVER / AGENCY   
                                                            REC # / TYPE / VERS 
                                                            ANT # / TYPE        
        0.0000        0.0000        0.0000                  APPROX POSITION XYZ 
        0.0000        0.0000        0.0000                  ANTENNA: DELTA H/E/N
     1     1                                                WAVELENGTH FACT L1/2
     4    C1    L1    D1    S1                              # / TYPES OF OBSERV 
  2025     8    12     8    44   26.2000000     GPS         TIME OF FIRST OBS   
  2025     8    12     8    45   48.2000000     GPS         TIME OF LAST OBS    
                                                            END OF HEADER       
 25  8 12  8 44 26.2000000  0 28G 5G 1G 2G 3G 4G18G28G31G 7G30G17G 6
                                G25G27G10G21G16G 8G13G15G32G20G29G 9
                                G24G19G12G23
  21554192.553   113267999.154       -1229.994          49.000  
  21554167.112   113267911.011       -1230.007          49.000  
  21554217.953   113268175.267       -1230.021          47.000  
  21554213.223   113268112.362       -1230.045          49.000  
  21554162.105   113267933.474       -1230.021          49.000  
  21588758.596   113449719.420       -1230.158          33.000  
  21460982.829   112778264.278       -1229.950          37.000  
  21440471.325   112670431.385       -1229.988          38.000  
  21554277.420   113268424.457       -1230.012          47.000  
  21542162.917   113204834.971       -1229.988          40.000  
  21632713.384   113680701.786       -1229.797          35.000  
  21554226.475   113268154.899       -1230.048          49.000  
  21438420.280   112659677.437       -1230.073          41.000  
  21454542.099   112744385.058       -1229.915          35.000  
  21629489.811   113663727.513       -1229.960          36.000  
  21689273.373   113977897.956       -1229.954          39.000  
  21593154.818   113472781.874       -1230.012          35.000  
  21554174.749   113267953.512       -1230.020          49.000  
  21508460.298   113027751.409       -1229.885          39.000  
  21602233.916   113520540.390       -1229.948          39.000  
  21499083.126   112978414.986       -1229.916          40.000  
  21668760.672   113870107.955       -1230.090          41.000  
  21602242.171   113520567.772       -1230.143          34.000  
  21495858.135   112961480.920       -1229.995          40.000  
  21581434.034   113411213.057       -1229.736          36.000  
  21616595.977   113596006.958       -1230.161          40.000  
  21517542.550   113075492.875       -1229.800          38.000  
  21560625.629   113301883.396       -1229.919          39.000  
 25  8 12  8 44 26.4000000  0 28G 5G 1G 2G 3G 4G18G28G31G 7G30G17G 6
                                G25G27G10G21G16G 8G13G15G32G20G29G 9
                                G24G19G12G23
  21554239.747   113268245.146       -1229.924          49.000  
  21554213.871   113268156.998       -1229.913          49.000  
  21554264.843   113268421.255       -1229.913          47.000  
  21554260.040   113268358.350       -1229.988          49.000  
  21554208.906   113268179.461       -1229.900          49.000  
  21588805.373   113449965.397       -1229.902          33.000  
  21461029.627   112778510.265       -1229.866          37.000  
  21440518.139   112670677.369       -1229.888          38.000  
  21554324.262   113268670.443       -1229.905          47.000  
  21542209.686   113205080.952       -1229.850          40.000  
  21632760.185   113680947.797       -1229.939          35.000  
  21554273.292   113268400.886       -1229.954          49.000  
  21438467.073   112659923.410       -1229.845          41.000  
  21454588.915   112744631.062       -1229.952          35.000  
  21629536.657   113663973.504       -1229.941          36.000  
  21689320.198   113978143.951       -1229.978          39.000  
  21593201.615   113473027.877       -1230.014          35.000  
  21554221.564   113268199.502       -1229.912          49.000  
  21508507.154   113027997.406       -1229.962          39.000  
  21602280.697   113520786.384       -1229.880          39.000  
  21499129.934   112978660.977       -1229.900          40.000  
  21668807.465   113870353.938       -1229.875          41.000  
  21602288.944   113520813.761       -1229.909          34.000  
  21495904.935   112961726.914       -1229.956          40.000  
  21581480.793   113411459.070       -1229.972          36.000  
  21616642.771   113596252.936       -1229.861          39.000  
  21517589.343   113075738.872       -1229.951          38.000  
  21560672.451   113302129.384       -1229.906          39.000  
 25  8 12  8 44 26.6000000  0 28G 5G 1G 2G 3G 4G18G28G31G 7G30G17G 6
                                G25G27G10G21G16G 8G13G15G32G20G29G 9
                                G24G19G12G23
  21554286.799   113268491.128       -1230.009          49.000  
  21554260.669   113268402.985       -1229.958          49.000  
  21554311.595   113268667.243       -1230.039          47.000  
  21554306.844   113268604.332       -1229.976          49.000  
  21554255.723   113268425.447       -1229.987          49.000  
  21588852.212   113450211.384       -1230.061          33.000  
  21461076.409   112778756.253       -1229.919          37.000  
  21440564.949   112670923.363       -1230.034          38.000  
  21554371.088   113268916.430       -1230.012          47.000  
  21542256.511   113205326.950       -1230.042          40.000  
  21632806.991   113681193.770       -1230.102          35.000  
  21554320.091   113268646.870       -1229.980          49.000  
  21438513.867   112660169.406       -1229.928          41.000  
  21454635.705   112744877.034       -1230.004          35.000  
  21629583.460   113664219.487       -1229.892          36.000  
  21689367.049   113978389.933       -1229.979          39.000  
  21593248.471   113473273.846       -1230.040          35.000  
  21554268.382   113268445.485       -1229.996          49.000  
  21508553.934   113028243.385       -1230.024          39.000  
  21602327.536   113521032.365       -1229.937          39.000  
  21499176.701   112978906.963       -1229.958          40.000  
  21668854.274   113870599.930       -1230.056          41.000  
  21602335.713   113521059.745       -1230.135          34.000  
  21495951.779   112961972.896       -1230.049          40.000  
  21581527.591   113411705.037       -1230.042          36.000  
  21616689.581   113596498.925       -1229.953          39.000  
  21517636.115   113075984.858       -1230.018          38.000  
  21560719.227   113302375.374       -1230.011          39.000  
 25  8 12  8 44 26.8000000  0 28G 5G 1G 2G 3G 4G18G28G31G 7G30G17G 6
                                G25G27G10G21G16G 8G13G15G32G20G29G 9
                                G24G19G12G23
  21554333.903   113268737.113       -1230.004          49.000  
  21554307.444   113268648.973       -1230.034          49.000  
  21554358.372   113268913.229       -1230.042          47.000  
  21554353.670   113268850.321       -1230.027          49.000  
  21554302.544   113268671.435       -1230.054          49.000  
  21588899.033   113450457.369       -1229.929          33.000  
  21461123.233   112779002.241       -1230.027          37.000  
  21440611.721   112671169.345       -1230.054          38.000  
  21554417.943   113269162.417       -1230.049          47.000  
  21542303.240   113205572.933       -1230.043          40.000  
  21632853.756   113681439.748       -1229.954          35.000  
  21554366.904   113268892.857       -1230.031          49.000  
  21438560.657   112660415.396       -1230.062          41.000  
  21454682.491   112745123.015       -1229.850          34.000  
  21629630.272   113664465.480       -1230.061          36.000  
  21689413.841   113978635.921       -1230.074          39.000  
  21593295.319   113473519.829       -1229.933          35.000  
  21554315.195   113268691.472       -1230.023          49.000  
  21508600.784   113028489.370       -1230.006          39.000  
  21602374.316   113521278.354       -1229.990          39.000  
  21499223.531   112979152.950       -1230.035          40.000  
  21668901.075   113870845.914       -1230.025          41.000  
  21602382.438   113521305.723       -1229.967          34.000  
  21495998.558   112962218.880       -1229.983          40.000  
  21581574.371   113411951.019       -1229.924          36.000  
  21616736.371   113596744.912       -1230.045          39.000  
  21517682.947   113076230.844       -1230.032          38.000  
  21560766.079   113302621.361       -1230.034          39.000  
 25  8 12  8 44 27.0000000  0 28G 5G 1G 2G 3G 4G18G28G31G 7G30G17G 6
                                G25G27G10G21G16G 8G13G15G32G20G29G 9
                                G24G19G12G23
  21554380.535   113268983.123       -1230.200          49.000  
  21554354.245   113268894.975       -1230.140          49.000  
  21554405.144   113269159.237       -1230.145          47.000  
  21554400.494   113269096.333       -1230.201          49.000  
  21554349.363   113268917.444       -1230.186          49.000  
  21588945.820   113450703.364       -1230.115          33.000  
  21461170.053   112779248.234       -1230.011          37.000  
  21440658.542   112671415.369       -1230.059          38.000  
  21554464.785   113269408.426       -1230.178          47.000  
  21542350.095   113205818.943       -1230.056          40.000  
  21632900.626   113681685.797       -1230.499          35.000  
  21554413.721   113269138.874       -1230.186          49.000  
  21438607.478   112660661.386       -1229.855          41.000  
  21454729.258   112745369.025       -1230.219          34.000  
  21629677.091   113664711.488       -1230.028          36.000  
  21689460.666   113978881.922       -1230.248          39.000  
  21593342.141   113473765.902       -1230.715          35.000  
  21554362.034   113268937.485       -1230.283          49.000  
  21508647.540   113028735.381       -1230.253          39.000  
  21602421.169   113521524.345       -1230.176          39.000  
  21499270.367   112979398.945       -1230.197          40.000  
  21668947.905   113871091.919       -1230.010          41.000  
  21602429.226   113521551.775       -1230.233          34.000  
  21496045.388   112962464.877       -1230.087          40.000  
  21581621.169   113412197.001       -1230.265          33.000  
  21616783.164   113596990.915       -1230.119          39.000  
  21517729.740   113076476.799       -1230.034          38.000  
  21560812.850   113302867.359       -1230.000          39.000  
 25  8 12  8 44 27.2000000  0 28G 5G 1G 2G 3G 4G18G28G31G 7G30G17G 6
                                G25G27G10G21G16G 8G13G15G32G20G29G 9
                                G24G19G12G23
  21554426.927   113269229.110       -1230.096          48.000  
  21554401.032   113269140.969       -1230.116          49.000  
  21554451.877   113269405.226       -1230.106          47.000  
  21554447.312   113269342.322       -1230.123          49.000  
  21554396.183   113269163.435       -1230.137          49.000  
  21588992.643   113450949.357       -1230.112          33.000  
  21461216.837   112779494.233       -1230.023          37.000  
  21440705.344   112671661.368       -1230.175          38.000  
  21554511.641   113269654.417       -1230.139          47.000  
  21542396.871   113206064.938       -1230.090          40.000  
  21632947.488   113681931.765       -1230.229          35.000  
  21554460.543   113269384.862       -1230.137          49.000  
  21438654.299   112660907.394       -1230.070          41.000  
  21454776.075   112745615.006       -1230.024          34.000  
  21629723.908   113664957.494       -1230.184          36.000  
  21689507.475   113979127.912       -1230.198          39.000  
  21593388.938   113474011.852       -1230.287          35.000  
  21554408.855   113269183.472       -1230.187          49.000  
  21508694.353   113028981.366       -1230.143          39.000  
  21602467.982   113521770.336       -1230.011          39.000  
  21499317.164   112979644.935       -1230.112          40.000  
  21668994.678   113871337.919       -1230.145          41.000  
  21602475.973   113521797.756       -1230.232          34.000  
  21496092.195   112962710.870       -1230.059          40.000  
  21581668.023   113412442.992       -1230.182          34.000  
  21616829.964   113597236.911       -1230.194          39.000  
  21517776.524   113076722.804       -1230.007          38.000  
  21560859.704   113303113.358       -1230.078          39.000  
 25  8 12  8 44 27.4000000  0 28G 5G 1G 2G 3G 4G18G28G31G 7G30G17G 6
                                G25G27G10G21G16G 8G13G15G32G20G29G 9
                                G24G19G12G23
  21554473.374   113269475.104       -1229.915          48.000  
  21554447.816   113269386.962       -1230.015          49.000  
  21554498.753   113269651.219       -1229.962          47.000  
  21554494.128   113269588.314       -1230.017          49.000  
  21554442.995   113269409.427       -1229.990          49.000  
  21589039.447   113451195.357       -1230.013          33.000  
  21461263.660   112779740.230       -1230.002          37.000  
  21440752.162   112671907.361       -1230.109          39.000  
  21554558.470   113269900.409       -1229.983          47.000  
  21542443.767   113206310.933       -1230.066          41.000  
  21632994.291   113682177.745       -1229.701          35.000  
  21554507.358   113269630.852       -1229.984          49.000  
  21438701.131   112661153.390       -1230.085          41.000  
  21454822.928   112745861.003       -1229.912          34.000  
  21629770.705   113665203.484       -1230.171          36.000  
  21689554.303   113979373.901       -1229.938          38.000  
  21593435.742   113474257.831       -1229.604          35.000  
  21554455.667   113269429.461       -1229.938          49.000  
  21508741.118   113029227.356       -1229.833          39.000  
  21602514.804   113522016.333       -1229.990          38.000  
  21499363.937   112979890.923       -1229.945          40.000  
  21669041.531   113871583.916       -1230.151          41.000  
  21602522.728   113522043.741       -1229.864          33.000  
  21496139.024   112962956.865       -1229.943          40.000  
  21581714.846   113412688.984       -1229.890          34.000  
  21616876.753   113597482.904       -1230.041          39.000  
  21517823.313   113076968.801       -1230.099          38.000  
  21560906.451   113303359.354       -1230.054          39.000  
 25  8 12  8 44 27.6000000  0 28G 5G 1G 2G 3G 4G18G28G31G 7G30G17G 6
                                G25G27G10G21G16G 8G13G15G32G20G29G 9
                                G24G19G12G23
  21554519.789   113269721.099       -1229.984          48.000  
  21554494.609   113269632.948       -1229.893          49.000  
  21554545.610   113269897.211       -1229.945          46.000  
  21554540.954   113269834.303       -1229.974          49.000  
  21554489.791   113269655.409       -1229.868          49.000  
  21589086.253   113451441.341       -1229.996          33.000  
  21461310.440   112779986.211       -1229.806          37.000  
  21440798.949   112672153.339       -1229.849          39.000  
  21554605.356   113270146.397       -1229.934          47.000  
  21542490.538   113206556.914       -1229.906          41.000  
  21633041.074   113682423.752       -1229.918          35.000  
  21554554.175   113269876.842       -1229.946          49.000  
  21438747.894   112661399.356       -1229.730          41.000  
  21454869.748   112746106.984       -1229.735          34.000  
  21629817.484   113665449.461       -1229.908          36.000  
  21689601.140   113979619.893       -1229.966          38.000  
  21593482.523   113474503.851       -1230.116          35.000  
  21554502.510   113269675.457       -1229.991          49.000  
  21508787.965   113029473.351       -1229.945          39.000  
  21602561.619   113522262.329       -1230.010          38.000  
  21499410.775   112980136.914       -1229.952          40.000  
  21669088.340   113871829.892       -1229.882          41.000  
  21602569.497   113522289.735       -1229.701          33.000  
  21496185.832   112963202.853       -1229.935          40.000  
  21581761.656   113412934.978       -1229.935          34.000  
  21616923.571   113597728.888       -1229.901          39.000  
  21517870.171   113077214.781       -1229.888          38.000  
  21560953.295   113303605.333       -1229.888          39.000  
 25  8 12  8 44 27.8000000  0 28G 5G 1G 2G 3G 4G18G28G31G 7G30G17G 6
                                G25G27G10G21G16G 8G13G15G32G20G29G 9
                                G24G19G12G23
  21554566.333   113269967.095       -1229.958          48.000  
  21554541.397   113269878.953       -1230.034          49.000  
  21554592.420   113270143.209       -1229.940          46.000  
  21554587.753   113270080.301       -1229.913          49.000  
  21554536.597   113269901.413       -1229.957          49.000  
  21589132.979   113451687.354       -1230.236          34.000  
  21461357.207   112780232.206       -1229.802          37.000  
  21440845.812   112672399.316       -1229.449          39.000  
  21554652.187   113270392.393       -1230.001          47.000  
  21542537.408   113206802.908       -1229.922          41.000  
  21633087.863   113682669.742       -1229.646          35.000  
  21554600.984   113270122.838       -1229.840          49.000  
  21438794.720   112661645.353       -1229.871          41.000  
  21454916.557   112746352.985       -1230.076          33.000  
  21629864.332   113665695.447       -1229.550          36.000  
  21689647.978   113979865.902       -1230.089          38.000  
  21593529.256   113474749.826       -1229.490          35.000  
  21554549.331   113269921.458       -1230.018          49.000  
  21508834.751   113029719.363       -1230.176          39.000  
  21602608.433   113522508.335       -1230.023          38.000  
  21499457.588   112980382.924       -1230.123          41.000  
  21669135.126   113872075.891       -1229.969          41.000  
  21602616.296   113522535.712       -1229.319          33.000  
  21496232.639   112963448.862       -1230.133          40.000  
  21581808.540   113413181.002       -1230.275          34.000  
  21616970.371   113597974.895       -1230.034          39.000  
  21517916.976   113077460.808       -1230.465          38.000  
  21561000.053   113303851.333       -1230.028          39.000  
 25  8 12  8 44 28.0000000  0 28G 5G 1G 2G 3G 4G18G28G31G 7G30G17G 6
                                G25G27G10G21G16G 8G13G15G32G20G29G 9
                                G24G19G12G23
  21554613.337   113270213.076       -1230.155          48.000  
  21554588.177   113270124.937       -1230.020          49.000  
  21554639.200   113270389.189       -1230.001          47.000  
  21554634.576   113270326.286       -1230.049          49.000  
  21554583.424   113270147.395       -1230.056          49.000  
  21589179.779   113451933.342       -1229.682          34.000  
  21461404.000   112780478.184       -1230.089          37.000  
  21440892.619   112672645.297       -1230.344          38.000  
  21554698.991   113270638.369       -1229.871          47.000  
  21542584.150   113207048.891       -1230.067          41.000  
  21633134.599   113682915.720       -1230.235          35.000  
  21554647.801   113270368.821       -1230.009          49.000  
  21438841.512   112661891.339       -1230.094          41.000  
  21454963.329   112746598.971       -1230.093          34.000  
  21629911.195   113665941.434       -1230.194          36.000  
  21689694.787   113980111.884       -1229.988          39.000  
  21593575.963   113474995.806       -1230.256          34.000  
  21554596.145   113270167.441       -1230.042          49.000  
  21508881.585   113029965.343       -1230.099          39.000  
  21602655.220   113522754.316       -1230.022          38.000  
  21499504.412   112980628.911       -1230.049          40.000  
  21669181.949   113872321.874       -1230.015          41.000  
  21602663.131   113522781.695       -1230.505          34.000  
  21496279.398   112963694.840       -1229.919          40.000  
  21581855.389   113413426.989       -1229.977          34.000  
  21617017.215   113598220.880       -1230.021          40.000  
  21517963.761   113077706.791       -1229.855          38.000  
  21561046.866   113304097.316       -1230.093          39.000  
 25  8 12  8 44 28.2000000  0 28G 5G 1G 2G 3G 4G18G28G31G 7G30G17G 6
                                G25G27G10G21G16G 8G13G15G32G20G29G 9
                                G24G19G12G23
  21554660.206   113270459.083       -1230.259          48.000  
  21554634.975   113270370.948       -1230.236          49.000  
  21554685.981   113270635.202       -1230.261          47.000  
  21554681.386   113270572.301       -1230.226          49.000  
  21554630.249   113270393.410       -1230.206          49.000  
  21589226.647   113452179.377       -1230.282          34.000  
  21461450.843   112780724.209       -1230.295          37.000  
  21440939.452   112672891.301       -1230.217          38.000  
  21554745.821   113270884.395       -1230.261          47.000  
  21542631.013   113207294.907       -1230.260          41.000  
  21633181.338   113683161.716       -1230.091          35.000  
  21554694.609   113270614.839       -1230.216          49.000  
  21438888.328   112662137.364       -1230.323          41.000  
  21455010.180   112746844.979       -1230.150          34.000  
  21629958.064   113666187.441       -1230.248          36.000  
  21689741.628   113980357.893       -1230.187          39.000  
  21593622.712   113475241.804       -1230.092          34.000  
  21554642.974   113270413.453       -1230.247          49.000  
  21508928.327   113030211.352       -1230.133          39.000  
  21602702.032   113523000.329       -1230.246          38.000  
  21499551.215   112980874.924       -1230.234          40.000  
  21669228.791   113872567.896       -1230.275          41.000  
  21602709.955   113523027.693       -1230.115          34.000  
  21496326.201   112963940.864       -1230.216          40.000  
  21581902.229   113413672.993       -1230.205          35.000  
  21617064.046   113598466.900       -1230.261          40.000  
  21518010.585   113077952.811       -1230.129          38.000  
  21561093.653   113304343.330       -1230.212          39.000  
 25  8 12  8 44 28.4000000  0 28G 5G 1G 2G 3G 4G18G28G31G 7G30G17G 6
                                G25G27G10G21G16G 8G13G15G32G20G29G 9
                                G24G19G12G23
  21554707.088   113270705.074       -1229.965          49.000  
  21554681.776   113270616.933       -1230.018          49.000  
  21554732.741   113270881.188       -1229.977          47.000  
  21554728.203   113270818.285       -1229.938          49.000  
  21554677.078   113270639.388       -1229.941          49.000  
  21589273.472   113452425.350       -1229.977          34.000  
  21461497.662   112780970.190       -1229.918          37.000  
  21440986.251   112673137.282       -1229.902          38.000  
  21554792.653   113271130.379       -1230.039          47.000  
  21542677.768   113207540.891       -1230.015          41.000  
  21633228.111   113683407.709       -1229.938          35.000  
  21554741.417   113270860.820       -1229.987          49.000  
  21438935.120   112662383.339       -1229.908          41.000  
  21455057.011   112747090.963       -1229.911          34.000  
  21630004.904   113666433.424       -1229.974          37.000  
  21689788.442   113980603.882       -1230.038          39.000  
  21593669.490   113475487.798       -1230.002          34.000  
  21554689.780   113270659.437       -1230.006          49.000  
  21508975.128   113030457.338       -1230.016          39.000  
  21602748.858   113523246.314       -1230.046          39.000  
  21499598.035   112981120.907       -1230.067          40.000  
  21669275.573   113872813.876       -1229.994          41.000  
  21602756.740   113523273.680       -1229.860          34.000  
  21496373.020   112964186.843       -1229.988          40.000  
  21581949.050   113413918.984       -1230.112          35.000  
  21617110.892   113598712.882       -1230.005          40.000  
  21518057.430   113078198.798       -1230.040          38.000  
  21561140.481   113304589.308       -1229.923          39.000  
 25  8 12  8 44 28.6000000  0 28G 5G 1G 2G 3G 4G18G28G31G 7G30G17G 6
                                G25G27G10G21G16G 8G13G15G32G20G29G 9
                                G24G19G12G23
  21554754.003   113270951.057       -1229.888          49.000  
  21554728.521   113270862.922       -1229.858          49.000  
  21554779.509   113271127.173       -1229.994          47.000  
  21554775.014   113271064.272       -1229.761          49.000  
  21554723.867   113270885.383       -1229.861          49.000  
  21589320.261   113452671.339       -1229.806          34.000  
  21461544.472   112781216.181       -1229.961          37.000  
  21441033.067   112673383.279       -1229.927          38.000  
  21554839.469   113271376.358       -1229.891          47.000  
  21542724.602   113207786.879       -1229.863          42.000  
  21633274.844   113683653.699       -1229.818          36.000  
  21554788.232   113271106.813       -1229.835          49.000  
  21438981.943   112662629.330       -1229.929          41.000  
  21455103.831   112747336.962       -1229.930          34.000  
  21630051.752   113666679.417       -1229.883          37.000  
  21689835.308   113980849.874       -1229.849          39.000  
  21593716.259   113475733.786       -1229.772          34.000  
  21554736.606   113270905.430       -1229.862          49.000  
  21509021.899   113030703.328       -1229.771          39.000  
  21602795.679   113523492.303       -1229.793          39.000  
  21499644.807   112981366.898       -1229.828          40.000  
  21669322.367   113873059.863       -1229.846          41.000  
  21602803.579   113523519.677       -1229.977          35.000  
  21496419.817   112964432.835       -1229.897          40.000  
  21581995.919   113414164.973       -1229.774          35.000  
  21617157.742   113598958.868       -1229.813          40.000  
  21518104.225   113078444.784       -1229.778          38.000  
  21561187.237   113304835.302       -1229.841          39.000  
 25  8 12  8 44 28.8000000  0 28G 5G 1G 2G 3G 4G18G28G31G 7G30G17G 6
                                G25G27G10G21G16G 8G13G15G32G20G29G 9
                                G24G19G12G23
  21554800.981   113271197.039       -1230.039          49.000  
  21554775.317   113271108.892       -1229.991          49.000  
  21554826.270   113271373.144       -1229.872          47.000  
  21554821.829   113271310.244       -1229.824          49.000  
  21554770.711   113271131.354       -1229.957          49.000  
  21589367.171   113452917.312       -1230.245          34.000  
  21461591.283   112781462.168       -1230.219          37.000  
  21441079.864   112673629.268       -1230.129          38.000  
  21554886.328   113271622.341       -1230.159          47.000  
  21542771.335   113208032.858       -1230.192          42.000  
  21633321.552   113683899.679       -1229.747          35.000  
  21554835.040   113271352.785       -1229.937          49.000  
  21439028.757   112662875.341       -1230.378          41.000  
  21455150.643   112747582.946       -1230.112          34.000  
  21630098.613   113666925.407       -1230.193          37.000  
  21689882.070   113981095.854       -1229.972          39.000  
  21593762.987   113475979.773       -1229.850          33.000  
  21554783.420   113271151.401       -1229.923          49.000  
  21509068.732   113030949.296       -1229.921          39.000  
  21602842.474   113523738.276       -1229.902          39.000  
  21499691.635   112981612.863       -1230.099          40.000  
  21669369.156   113873305.844       -1230.161          41.000  
  21602850.414   113523765.661       -1230.228          35.000  
  21496466.593   112964678.810       -1230.023          40.000  
  21582042.741   113414410.934       -1229.728          35.000  
  21617204.618   113599204.854       -1230.183          40.000  
  21518151.035   113078690.737       -1230.055          38.000  
  21561234.059   113305081.271       -1230.123          39.000  
 25  8 12  8 44 29.0000000  0 28G 5G 1G 2G 3G 4G18G28G31G 7G30G17G 6
                                G25G27G10G21G16G 8G13G15G32G20G29G 9
                                G24G19G12G23
  21554847.691   113271442.998       -1229.951          49.000  
  21554822.109   113271354.846       -1229.901          49.000  
  21554872.984   113271619.106       -1230.148          47.000  
  21554868.626   113271556.197       -1229.814          49.000  
  21554817.507   113271377.306       -1229.702          49.000  
  21589413.967   113453163.253       -1229.722          34.000  
  21461638.074   112781708.110       -1229.695          37.000  
  21441126.660   112673875.216       -1229.745          38.000  
  21554933.161   113271868.287       -1229.921          47.000  
  21542818.197   113208278.806       -1229.790          41.000  
  21633368.341   113684145.621       -1230.142          35.000  
  21554881.840   113271598.735       -1229.883          49.000  
  21439075.576   112663121.279       -1229.769          41.000  
  21455197.410   112747828.889       -1229.976          35.000  
  21630145.407   113667171.358       -1229.734          37.000  
  21689928.902   113981341.802       -1229.967          39.000  
  21593809.790   113476225.717       -1230.221          34.000  
  21554830.237   113271397.343       -1229.895          49.000  
  21509115.509   113031195.246       -1229.862          39.000  
  21602889.310   113523984.226       -1230.010          38.000  
  21499738.398   112981858.815       -1229.882          40.000  
  21669415.965   113873551.790       -1229.852          41.000  
  21602897.171   113524011.602       -1229.776          35.000  
  21496513.436   112964924.762       -1229.856          40.000  
  21582089.540   113414656.877       -1229.996          36.000  
  21617251.383   113599450.798       -1229.871          40.000  
  21518197.822   113078936.693       -1229.729          38.000  
  21561280.760   113305327.224       -1229.729          39.000  
 25  8 12  8 44 29.2000000  0 28G 5G 1G 2G 3G 4G18G28G31G 7G30G17G 6
                                G25G27G10G21G16G 8G13G15G32G20G29G 9
                                G24G19G12G23
  21554894.815   113271688.935       -1229.623          49.000  
  21554868.852   113271600.789       -1229.607          49.000  
  21554919.682   113271865.042       -1229.543          47.000  
  21554915.446   113271802.149       -1229.755          49.000  
  21554864.314   113271623.254       -1229.624          49.000  
  21589460.791   113453409.198       -1229.492          33.000  
  21461684.878   112781954.070       -1229.607          37.000  
  21441173.453   112674121.162       -1229.647          38.000  
  21554979.979   113272114.222       -1229.399          47.000  
  21542864.991   113208524.754       -1229.594          41.000  
  21633415.103   113684391.559       -1229.577          35.000  
  21554928.644   113271844.679       -1229.622          49.000  
  21439122.358   112663367.227       -1229.514          41.000  
  21455244.216   112748074.834       -1229.554          35.000  
  21630192.122   113667417.308       -1229.619          37.000  
  21689975.689   113981587.743       -1229.603          39.000  
  21593856.638   113476471.657       -1229.650          34.000  
  21554877.048   113271643.285       -1229.530          49.000  
  21509162.343   113031441.189       -1229.622          38.000  
  21602936.089   113524230.165       -1229.483          38.000  
  21499785.156   112982104.760       -1229.586          40.000  
  21669462.743   113873797.734       -1229.517          41.000  
  21602943.948   113524257.551       -1229.565          35.000  
  21496560.231   112965170.705       -1229.575          40.000  
  21582136.349   113414902.820       -1229.575          36.000  
  21617298.180   113599696.742       -1229.544          40.000  
  21518244.655   113079182.643       -1229.585          38.000  
  21561327.603   113305573.166       -1229.554          39.000  
 25  8 12  8 44 29.4000000  0 28G 5G 1G 2G 3G 4G18G28G31G 7G30G17G 6
                                G25G27G10G21G16G 8G13G15G32G20G29G 9
                                G24G19G12G23
  21554941.484   113271934.873       -1229.857          49.000  
  21554915.623   113271846.730       -1229.808          49.000  
  21554966.395   113272110.962       -1229.618          48.000  
  21554962.233   113272048.083       -1229.642          49.000  
  21554911.118   113271869.196       -1229.683          49.000  
  21589507.590   113453655.137       -1229.709          33.000  
  21461731.679   112782200.007       -1229.802          37.000  
  21441220.241   112674367.105       -1229.745          38.000  
  21555026.806   113272360.173       -1229.873          47.000  
  21542911.821   113208770.692       -1229.769          41.000  
  21633461.900   113684637.502       -1229.729          35.000  
  21554975.450   113272090.610       -1229.758          49.000  
  21439169.218   112663613.169       -1229.800          41.000  
  21455291.004   112748320.767       -1229.745          35.000  
  21630238.853   113667663.244       -1229.722          37.000  
  21690022.513   113981833.687       -1229.830          39.000  
  21593903.440   113476717.585       -1229.573          34.000  
  21554923.859   113271889.236       -1229.830          49.000  
  21509209.091   113031687.127       -1229.768          38.000  
  21602982.918   113524476.101       -1229.675          38.000  
  21499831.945   112982350.695       -1229.777          40.000  
  21669509.572   113874043.672       -1229.788          41.000  
  21602990.738   113524503.493       -1229.772          35.000  
  21496607.050   112965416.645       -1229.714          40.000  
  21582183.126   113415148.762       -1229.713          36.000  
  21617344.982   113599942.676       -1229.692          40.000  
  21518291.427   113079428.585       -1229.758          38.000  
  21561374.419   113305819.109       -1229.746          39.000  
 25  8 12  8 44 29.6000000  0 28G 5G 1G 2G 3G 4G18G28G31G 7G30G17G 6
                                G25G27G10G21G16G 8G13G15G32G20G29G 9
                                G24G19G12G23
  21554988.609   113272180.783       -1229.575          49.000  
  21554962.406   113272092.660       -1229.656          49.000  
  21555013.237   113272356.902       -1229.719          48.000  
  21555009.039   113272294.009       -1229.698          49.000  
  21554957.913   113272115.120       -1229.667          49.000  
  21589554.396   113453901.064       -1229.634          33.000  
  21461778.533   112782445.927       -1229.750          37.000  
  21441267.034   112674613.024       -1229.747          38.000  
  21555073.648   113272606.089       -1229.503          47.000  
  21542958.570   113209016.620       -1229.725          41.000  
  21633508.667   113684883.418       -1229.720          35.000  
  21555022.260   113272336.537       -1229.854          49.000  
  21439215.984   112663859.093       -1229.755          41.000  
  21455337.832   112748566.699       -1229.663          35.000  
  21630285.632   113667909.179       -1229.857          37.000  
  21690069.290   113982079.611       -1229.741          39.000  
  21593950.262   113476963.522       -1229.729          34.000  
  21554970.670   113272135.165       -1229.840          49.000  
  21509255.881   113031933.051       -1229.735          38.000  
  21603029.679   113524722.032       -1229.778          38.000  
  21499878.716   112982596.625       -1229.786          40.000  
  21669556.346   113874289.600       -1229.712          41.000  
  21603037.469   113524749.411       -1229.773          35.000  
  21496653.843   112965662.568       -1229.652          40.000  
  21582229.886   113415394.690       -1229.714          36.000  
  21617391.740   113600188.610       -1229.716          40.000  
  21518338.238   113079674.507       -1229.768          38.000  
  21561421.203   113306065.033       -1229.735          39.000  
 25  8 12  8 44 29.8000000  0 28G 5G 1G 2G 3G 4G18G28G31G 7G30G17G 6
                                G25G27G10G21G16G 8G13G15G32G20G29G 9
                                G24G19G12G23
  21555035.391   113272426.756       -1229.460          49.000  
  21555009.146   113272338.624       -1229.862          49.000  
  21555059.975   113272602.887       -1230.116          48.000  
  21555055.836   113272539.967       -1229.769          49.000  
  21555004.405   113272361.089       -1230.007          49.000  
  21589601.241   113454147.048       -1230.013          36.000  
  21461825.395   112782691.904       -1230.247          37.000  
  21441313.868   112674858.986       -1230.159          38.000  
  21555120.504   113272852.090       -1230.161          48.000  
  21543005.380   113209262.598       -1230.175          41.000  
  21633555.451   113685129.376       -1228.938          36.000  
  21555069.060   113272582.505       -1229.628          49.000  
  21439262.844   112664105.073       -1230.304          41.000  
  21455384.592   112748812.675       -1229.668          35.000  
  21630332.515   113668155.142       -1230.172          36.000  
  21690116.114   113982325.589       -1229.858          39.000  
  21593997.053   113477209.482       -1229.415          34.000  
  21555017.477   113272381.130       -1229.587          49.000  
  21509302.671   113032179.025       -1229.713          38.000  
  21603076.528   113524968.015       -1229.868          38.000  
  21499925.520   112982842.595       -1229.851          40.000  
  21669603.201   113874535.575       -1230.021          41.000  
  21603084.275   113524995.361       -1229.962          35.000  
  21496700.657   112965908.544       -1230.062          40.000  
  21582276.721   113415640.659       -1229.064          36.000  
  21617438.535   113600434.586       -1230.080          40.000  
  21518385.067   113079920.477       -1230.084          38.000  
  21561468.002   113306311.010       -1230.157          39.000  
 25  8 12  8 44 30.0000000  0 28G 5G 1G 2G 3G 4G18G28G31G 7G30G17G 6
                                G25G27G10G21G16G 8G13G15G32G20G29G 9
                                G24G19G12G23
  21555082.044   113272672.734       -1230.101          47.000  
  21555055.912   113272584.590       -1229.980          49.000  
  21555106.791   113272848.838       -1229.723          47.000  
  21555102.647   113272785.921       -1229.861          49.000  
  21555051.034   113272607.034       -1229.857          49.000  
  21589647.978   113454393.001       -1229.786          35.000  
  21461872.256   112782937.837       -1229.545          37.000  
  21441360.652   112675104.938       -1229.703          38.000  
  21555167.494   113273098.043       -1229.823          48.000  
  21543052.172   113209508.533       -1229.753          41.000  
  21633602.311   113685375.387       -1230.309          35.000  
  21555115.878   113272828.469       -1229.885          49.000  
  21439309.606   112664351.006       -1229.655          41.000  
  21455431.416   112749058.640       -1230.199          35.000  
  21630379.281   113668401.078       -1229.712          36.000  
  21690162.958   113982571.550       -1229.942          39.000  
  21594043.868   113477455.476       -1230.301          34.000  
  21555064.301   113272627.099       -1229.977          49.000  
  21509349.511   113032424.994       -1230.040          38.000  
  21603123.337   113525213.968       -1229.920          38.000  
  21499972.350   112983088.550       -1229.911          40.000  
  21669649.972   113874781.520       -1229.805          41.000  
  21603131.122   113525241.307       -1229.664          35.000  
  21496747.483   112966154.492       -1229.824          40.000  
  21582323.547   113415886.640       -1230.321          36.000  
  21617485.363   113600680.526       -1229.813          40.000  
  21518431.900   113080166.415       -1229.689          38.000  
  21561514.827   113306556.959       -1229.786          39.000  
 25  8 12  8 44 30.2000000  0 28G 5G 1G 2G 3G 4G18G28G31G 7G30G17G 6
                                G25G27G10G21G16G 8G13G15G32G20G29G 9
                                G24G19G12G23
  21555128.566   113272918.688       -1229.932          47.000  
  21555102.652   113272830.581       -1229.736          49.000  
  21555153.483   113273094.827       -1229.786          47.000  
  21555149.463   113273031.890       -1229.843          49.000  
  21555097.837   113272853.015       -1230.040          49.000  
  21589694.756   113454638.993       -1229.841          35.000  
  21461919.078   112783183.830       -1229.739          37.000  
  21441407.469   112675350.925       -1229.827          38.000  
  21555214.283   113273344.034       -1229.844          48.000  
  21543099.017   113209754.520       -1229.686          41.000  
  21633649.077   113685621.336       -1230.146          35.000  
  21555162.686   113273074.450       -1229.893          49.000  
  21439356.453   112664596.995       -1229.688          41.000  
  21455478.148   112749304.608       -1230.000          35.000  
  21630426.043   113668647.069       -1229.686          36.000  
  21690209.806   113982817.525       -1229.761          39.000  
  21594090.666   113477701.427       -1229.955          34.000  
  21555111.108   113272873.078       -1229.781          49.000  
  21509396.241   113032670.965       -1229.949          38.000  
  21603170.146   113525459.944       -1229.776          38.000  
  21500019.134   112983334.532       -1229.833          40.000  
  21669696.779   113875027.508       -1229.793          41.000  
  21603177.939   113525487.304       -1229.936          35.000  
  21496794.285   112966400.480       -1229.808          40.000  
  21582370.346   113416132.600       -1229.983          36.000  
  21617532.175   113600926.513       -1229.772          40.000  
  21518478.697   113080412.404       -1229.757          38.000  
  21561561.576   113306802.949       -1229.844          39.000  
 25  8 12  8 44 30.4000000  0 28G 5G 1G 2G 3G 4G18G28G31G 7G30G17G 6
                                G25G27G10G21G16G 8G13G15G32G20G29G 9
                                G24G19G12G23
  21555175.405   113273164.660       -1229.966          49.000  
  21555149.435   113273076.530       -1229.828          49.000  
  21555200.177   113273340.796       -1230.038          48.000  
  21555196.292   113273277.865       -1229.891          49.000  
  21555144.637   113273098.976       -1229.790          49.000  
  21589741.589   113454884.944       -1229.753          34.000  
  21461965.912   112783429.809       -1229.912          37.000  
  21441454.252   112675596.883       -1229.924          38.000  
  21555261.036   113273589.985       -1229.807          47.000  
  21543145.793   113210000.501       -1229.984          41.000  
  21633695.896   113685867.279       -1229.888          35.000  
  21555209.506   113273320.418       -1229.847          49.000  
  21439403.236   112664842.973       -1229.879          41.000  
  21455524.937   112749550.570       -1229.844          35.000  
  21630472.797   113668893.043       -1229.996          36.000  
  21690256.622   113983063.479       -1229.836          39.000  
  21594137.474   113477947.376       -1229.869          34.000  
  21555157.922   113273119.037       -1229.779          49.000  
  21509443.072   113032916.919       -1229.930          38.000  
  21603216.977   113525705.906       -1229.970          39.000  
  21500065.930   112983580.494       -1229.902          40.000  
  21669743.601   113875273.476       -1229.938          41.000  
  21603224.735   113525733.286       -1230.035          35.000  
  21496841.056   112966646.443       -1229.921          40.000  
  21582417.137   113416378.572       -1229.891          36.000  
  21617579.007   113601172.486       -1230.041          40.000  
  21518525.546   113080658.374       -1229.972          38.000  
  21561608.370   113307048.907       -1229.869          39.000  
 25  8 12  8 44 30.6000000  0 28G 5G 1G 2G 3G 4G18G28G31G 7G30G17G 6
                                G25G27G10G21G16G 8G13G15G32G20G29G 9
                                G24G19G12G23
  21555222.369   113273410.638       -1229.668          49.000  
  21555196.261   113273322.499       -1229.772          49.000  
  21555246.898   113273586.751       -1229.740          48.000  
  21555243.100   113273523.839       -1229.727          49.000  
  21555191.454   113273344.967       -1229.988          49.000  
  21589788.422   113455130.929       -1229.613          34.000  
  21462012.730   112783675.750       -1229.441          37.000  
  21441501.060   112675842.847       -1229.734          38.000  
  21555307.859   113273835.946       -1229.546          47.000  
  21543192.645   113210246.460       -1229.470          41.000  
  21633742.692   113686113.272       -1230.115          36.000  
  21555256.309   113273566.400       -1229.672          49.000  
  21439450.084   112665088.907       -1229.434          41.000  
  21455571.737   112749796.536       -1229.785          35.000  
  21630519.529   113669138.994       -1229.667          36.000  
  21690303.459   113983309.448       -1229.923          39.000  
  21594184.354   113478193.354       -1229.900          34.000  
  21555204.743   113273365.011       -1229.674          49.000  
  21509489.875   113033162.914       -1229.871          38.000  
  21603263.819   113525951.878       -1229.760          39.000  
  21500112.771   112983826.479       -1229.773          40.000  
  21669790.378   113875519.443       -1229.545          41.000  
  21603271.511   113525979.237       -1229.750          36.000  
  21496887.881   112966892.421       -1229.847          40.000  
  21582463.939   113416624.566       -1230.029          36.000  
  21617625.797   113601418.447       -1229.587          40.000  
  21518572.362   113080904.374       -1229.878          38.000  
  21561655.124   113307294.890       -1229.773          39.000  
 25  8 12  8 44 30.8000000  0 28G 5G 1G 2G 3G 4G18G28G31G 7G30G17G 6
                                G25G27G10G21G16G 8G13G15G32G20G29G 9
                                G24G19G12G23
  21555269.618   113273656.566       -1229.695          49.000  
  21555243.046   113273568.436       -1229.664          49.000  
  21555293.582   113273832.678       -1229.531          48.000  
  21555289.910   113273769.785       -1229.778          49.000  
  21555238.260   113273590.886       -1229.543          49.000  
  21589835.240   113455376.857       -1229.724          34.000  
  21462059.598   112783921.701       -1229.742          37.000  
  21441547.826   112676088.785       -1229.696          38.000  
  21555354.718   113274081.872       -1229.749          47.000  
  21543239.393   113210492.400       -1229.803          41.000  
  21633789.429   113686359.186       -1229.492          36.000  
  21555303.113   113273812.321       -1229.540          49.000  
  21439496.846   112665334.851       -1229.670          41.000  
  21455618.498   112750042.457       -1229.484          35.000  
  21630566.323   113669384.930       -1229.588          36.000  
  21690350.261   113983555.369       -1229.492          39.000  
  21594231.163   113478439.281       -1229.589          34.000  
  21555251.551   113273610.937       -1229.635          49.000  
  21509536.690   113033408.830       -1229.623          38.000  
  21603310.614   113526197.800       -1229.576          39.000  
  21500159.569   112984072.403       -1229.602          40.000  
  21669837.149   113875765.380       -1229.733          41.000  
  21603318.279   113526225.178       -1229.633          35.000  
  21496934.668   112967138.341       -1229.600          40.000  
  21582510.747   113416870.462       -1229.429          36.000  
  21617672.569   113601664.382       -1229.734          40.000  
  21518619.148   113081150.293       -1229.701          38.000  
  21561701.910   113307540.813       -1229.694          39.000  
 25  8 12  8 44 31.0000000  0 28G 5G 1G 2G 3G 4G18G28G31G 7G30G17G 6
                                G25G27G10G21G16G 8G13G15G32G20G29G 9
                                G24G19G12G23
  21555316.472   113273902.509       -1229.751          49.000  
  21555289.790   113273814.367       -1229.700          49.000  
  21555340.364   113274078.617       -1229.921          48.000  
  21555336.717   113274015.720       -1229.801          49.000  
  21555285.079   113273836.813       -1229.661          49.000  
  21589882.010   113455622.788       -1229.722          34.000  
  21462106.382   112784167.622       -1229.840          37.000  
  21441594.652   112676334.714       -1229.731          38.000  
  21555401.559   113274327.820       -1229.851          47.000  
  21543286.248   113210738.322       -1229.849          41.000  
  21633836.227   113686605.154       -1229.857          36.000  
  21555349.915   113274058.255       -1229.749          49.000  
  21439543.682   112665580.772       -1229.904          41.000  
  21455665.298   112750288.398       -1229.664          35.000  
  21630613.160   113669630.859       -1229.780          36.000  
  21690397.091   113983801.316       -1229.660          39.000  
  21594277.918   113478685.241       -1229.753          34.000  
  21555298.364   113273856.881       -1229.902          49.000  
  21509583.462   113033654.774       -1229.707          39.000  
  21603357.404   113526443.750       -1229.810          39.000  
  21500206.413   112984318.337       -1229.708          39.000  
  21669884.010   113876011.308       -1229.809          41.000  
  21603365.074   113526471.115       -1229.859          35.000  
  21496981.507   112967384.279       -1229.764          40.000  
  21582557.596   113417116.433       -1229.729          36.000  
  21617719.360   113601910.314       -1229.843          40.000  
  21518665.954   113081396.235       -1229.789          38.000  
  21561748.660   113307786.744       -1229.789          39.000  
 25  8 12  8 44 31.2000000  0 28G 5G 1G 2G 3G 4G18G28G31G 7G30G17G 6
                                G25G27G10G21G16G 8G13G15G32G20G29G 9
                                G24G19G12G23
  21555362.996   113274148.455       -1229.983          49.000  
  21555336.563   113274060.306       -1229.607          49.000  
  21555387.136   113274324.551       -1229.565          48.000  
  21555383.528   113274261.661       -1229.655          49.000  
  21555331.893   113274082.769       -1229.554          49.000  
  21589928.785   113455868.724       -1229.591          34.000  
  21462153.186   112784413.557       -1229.279          37.000  
  21441641.454   112676580.658       -1229.421          38.000  
  21555448.394   113274573.753       -1229.617          47.000  
  21543333.003   113210984.261       -1229.481          41.000  
  21633883.009   113686851.099       -1230.182          36.000  
  21555396.720   113274304.193       -1229.667          49.000  
  21439590.421   112665826.702       -1229.235          41.000  
  21455712.076   112750534.355       -1229.863          35.000  
  21630659.989   113669876.800       -1229.557          37.000  
  21690443.880   113984047.261       -1229.849          39.000  
  21594324.736   113478931.193       -1230.180          34.000  
  21555345.175   113274102.809       -1229.745          49.000  
  21509630.254   113033900.721       -1229.790          39.000  
  21603404.203   113526689.689       -1229.846          39.000  
  21500253.197   112984564.282       -1229.757          39.000  
  21669930.838   113876257.246       -1229.491          41.000  
  21603411.881   113526717.054       -1229.554          35.000  
  21497028.307   112967630.223       -1229.598          40.000  
  21582604.360   113417362.386       -1230.358          36.000  
  21617766.148   113602156.251       -1229.573          40.000  
  21518712.744   113081642.178       -1229.667          38.000  
  21561795.467   113308032.683       -1229.430          39.000  
 25  8 12  8 44 31.4000000  0 28G 5G 1G 2G 3G 4G18G28G31G 7G30G17G 6
                                G25G27G10G21G16G 8G13G15G32G20G29G 9
                                G24G19G12G23
  21555409.763   113274394.410       -1229.960          49.000  
  21555383.342   113274306.266       -1229.906          49.000  
  21555433.841   113274570.517       -1229.882          48.000  
  21555430.343   113274507.618       -1229.833          49.000  
  21555378.739   113274328.732       -1230.189          49.000  
  21589975.588   113456114.683       -1229.723          34.000  
  21462199.992   112784659.533       -1229.869          37.000  
  21441688.272   112676826.642       -1230.261          38.000  
  21555495.243   113274819.705       -1229.857          47.000  
  21543379.832   113211230.225       -1229.899          41.000  
  21633929.760   113687097.029       -1229.663          35.000  
  21555443.533   113274550.155       -1230.010          49.000  
  21439637.236   112666072.689       -1230.109          41.000  
  21455758.864   112750780.303       -1230.056          35.000  
  21630706.806   113670122.771       -1230.195          37.000  
  21690490.686   113984293.209       -1229.922          39.000  
  21594371.502   113479177.139       -1230.163          34.000  
  21555391.991   113274348.763       -1229.803          49.000  
  21509677.010   113034146.675       -1230.095          39.000  
  21603451.032   113526935.648       -1230.075          39.000  
  21500300.009   112984810.240       -1230.056          39.000  
  21669977.664   113876503.215       -1230.042          41.000  
  21603458.676   113526963.034       -1230.124          35.000  
  21497075.153   112967876.176       -1229.894          40.000  
  21582651.128   113417608.314       -1229.979          36.000  
  21617812.975   113602402.207       -1229.795          40.000  
  21518759.534   113081888.134       -1230.028          38.000  
  21561842.254   113308278.650       -1229.990          39.000  
 25  8 12  8 44 31.6000000  0 28G 5G 1G 2G 3G 4G18G28G31G 7G30G17G 6
                                G25G27G10G21G16G 8G13G15G32G20G29G 9
                                G24G19G12G23
  21555456.771   113274640.360       -1229.668          49.000  
  21555430.112   113274552.226       -1229.771          49.000  
  21555480.582   113274816.485       -1229.937          48.000  
  21555477.147   113274753.581       -1229.786          49.000  
  21555425.516   113274574.686       -1229.706          49.000  
  21590022.365   113456360.652       -1229.917          33.000  
  21462246.767   112784905.491       -1229.841          37.000  
  21441735.055   112677072.604       -1229.708          38.000  
  21555542.069   113275065.667       -1229.702          47.000  
  21543426.608   113211476.192       -1229.923          41.000  
  21633976.525   113687342.969       -1229.592          35.000  
  21555490.350   113274796.112       -1229.688          49.000  
  21439683.989   112666318.659       -1229.866          41.000  
  21455805.656   112751026.254       -1229.669          35.000  
  21630753.603   113670368.736       -1229.723          37.000  
  21690537.449   113984539.166       -1229.731          39.000  
  21594418.309   113479423.089       -1229.607          35.000  
  21555438.794   113274594.723       -1229.772          49.000  
  21509723.860   113034392.633       -1229.568          38.000  
  21603497.838   113527181.600       -1229.509          39.000  
  21500346.809   112985056.196       -1229.753          39.000  
  21670024.420   113876749.178       -1229.814          41.000  
  21603505.456   113527208.984       -1229.726          35.000  
  21497121.958   112968122.136       -1229.738          40.000  
  21582697.912   113417854.263       -1229.385          36.000  
  21617859.823   113602648.171       -1229.826          40.000  
  21518806.315   113082134.093       -1229.702          38.000  
  21561889.053   113308524.610       -1229.783          39.000  
 25  8 12  8 44 31.8000000  0 28G 5G 1G 2G 3G 4G18G28G31G 7G30G17G 6
                                G25G27G10G21G16G 8G13G15G32G20G29G 9
                                G24G19G12G23
  21555504.061   113274886.319       -1229.568          49.000  
  21555476.864   113274798.185       -1229.836          49.000  
  21555527.368   113275062.431       -1229.789          48.000  
  21555523.957   113274999.539       -1229.792          49.000  
  21555472.327   113274820.640       -1229.707          49.000  
  21590069.158   113456606.605       -1230.117          33.000  
  21462293.574   112785151.450       -1230.029          37.000  
  21441781.836   112677318.565       -1229.982          38.000  
  21555588.886   113275311.620       -1229.794          47.000  
  21543473.444   113211722.145       -1230.032          41.000  
  21634023.300   113687588.933       -1229.481          35.000  
  21555537.159   113275042.078       -1229.882          49.000  
  21439730.855   112666564.615       -1230.122          41.000  
  21455852.433   112751272.218       -1229.614          35.000  
  21630800.459   113670614.696       -1229.954          37.000  
  21690584.235   113984785.117       -1229.693          39.000  
  21594465.075   113479669.048       -1229.526          35.000  
  21555485.599   113274840.679       -1229.713          49.000  
  21509770.634   113034638.596       -1229.672          38.000  
  21603544.675   113527427.565       -1229.667          39.000  
  21500393.592   112985302.155       -1229.834          39.000  
  21670071.300   113876995.137       -1229.990          41.000  
  21603552.248   113527454.954       -1230.044          35.000  
  21497168.793   112968368.096       -1229.873          40.000  
  21582744.771   113418100.226       -1229.240          36.000  
  21617906.634   113602894.130       -1229.977          40.000  
  21518853.120   113082380.052       -1229.871          38.000  
  21561935.820   113308770.570       -1229.937          39.000  
 25  8 12  8 44 32.0000000  0 28G 5G 1G 2G 3G 4G18G28G31G 7G30G17G 6
                                G25G27G10G21G16G 8G13G15G32G20G29G 9
                                G24G19G12G23
  21555551.241   113275132.258       -1229.735          49.000  
  21555523.662   113275044.124       -1229.655          49.000  
  21555574.151   113275308.376       -1229.729          48.000  
  21555570.770   113275245.476       -1229.604          49.000  
  21555519.122   113275066.581       -1229.735          49.000  
  21590115.894   113456852.536       -1229.662          33.000  
  21462340.358   112785397.384       -1229.716          37.000  
  21441828.640   112677564.498       -1229.656          38.000  
  21555635.732   113275557.556       -1229.709          47.000  
  21543520.223   113211968.081       -1229.690          41.000  
  21634070.072   113687834.878       -1229.771          35.000  
  21555583.953   113275288.010       -1229.602          49.000  
  21439777.621   112666810.551       -1229.751          41.000  
  21455899.237   112751518.156       -1229.697          35.000  
  21630847.272   113670860.634       -1229.713          37.000  
  21690631.027   113985031.062       -1229.721          39.000  
  21594511.881   113479914.995       -1229.729          35.000  
  21555532.409   113275086.617       -1229.686          49.000  
  21509817.463   113034884.534       -1229.666          38.000  
  21603591.509   113527673.504       -1229.612          39.000  
  21500440.412   112985548.098       -1229.725          39.000  
  21670118.118   113877241.071       -1229.658          40.000  
  21603599.029   113527700.883       -1229.763          35.000  
  21497215.600   112968614.032       -1229.709          40.000  
  21582791.538   113418346.167       -1229.640          36.000  
  21617953.427   113603140.065       -1229.671          39.000  
  21518899.903   113082625.983       -1229.565          38.000  
  21561982.608   113309016.502       -1229.656          39.000  
 25  8 12  8 44 32.2000000  0 28G 5G 1G 2G 3G 4G18G28G31G 7G30G17G 6
                                G25G27G10G21G16G 8G13G15G32G20G29G 9
                                G24G19G12G23
  21555598.284   113275378.179       -1229.670          49.000  
  21555570.417   113275290.059       -1229.769          49.000  
  21555620.894   113275554.306       -1229.821          48.000  
  21555617.563   113275491.404       -1229.725          49.000  
  21555565.910   113275312.511       -1229.674          49.000  
  21590162.664   113457098.462       -1229.626          33.000  
  21462387.192   112785643.308       -1229.695          37.000  
  21441875.472   112677810.428       -1229.695          38.000  
  21555682.541   113275803.487       -1229.739          47.000  
  21543567.066   113212214.008       -1229.761          41.000  
  21634116.844   113688080.797       -1229.580          35.000  
  21555630.745   113275533.945       -1229.719          49.000  
  21439824.430   112667056.474       -1229.750          41.000  
  21455946.055   112751764.086       -1229.675          35.000  
  21630894.040   113671106.566       -1229.751          37.000  
  21690677.825   113985276.993       -1229.725          39.000  
  21594558.732   113480160.920       -1229.695          35.000  
  21555579.214   113275332.547       -1229.723          49.000  
  21509864.228   113035130.463       -1229.640          38.000  
  21603638.296   113527919.436       -1229.686          39.000  
  21500487.223   112985794.026       -1229.647          40.000  
  21670164.961   113877486.999       -1229.729          41.000  
  21603645.750   113527946.807       -1229.667          35.000  
  21497262.418   112968859.959       -1229.701          40.000  
  21582838.311   113418592.100       -1229.666          36.000  
  21618000.185   113603385.991       -1229.701          39.000  
  21518946.673   113082871.913       -1229.619          38.000  
  21562029.386   113309262.430       -1229.681          39.000  
 25  8 12  8 44 32.4000000  0 28G 5G 1G 2G 3G 4G18G28G31G 7G30G17G 6
                                G25G27G10G21G16G 8G13G15G32G20G29G 9
                                G24G19G12G23
  21555645.400   113275624.156       -1230.056          49.000  
  21555617.206   113275536.007       -1229.871          49.000  
  21555667.763   113275800.247       -1229.788          48.000  
  21555664.370   113275737.357       -1229.968          49.000  
  21555612.705   113275558.464       -1229.889          49.000  
  21590209.419   113457344.406       -1229.890          33.000  
  21462433.977   112785889.264       -1229.835          37.000  
  21441922.261   112678056.384       -1229.911          38.000  
  21555729.383   113276049.447       -1229.915          47.000  
  21543613.848   113212459.965       -1229.896          42.000  
  21634163.641   113688326.794       -1230.043          35.000  
  21555677.552   113275779.899       -1229.852          49.000  
  21439871.227   112667302.431       -1229.810          41.000  
  21455992.840   112752010.073       -1229.918          36.000  
  21630940.866   113671352.524       -1230.063          37.000  
  21690724.607   113985522.940       -1229.937          39.000  
  21594605.553   113480406.913       -1230.052          35.000  
  21555626.012   113275578.499       -1229.857          49.000  
  21509911.043   113035376.401       -1229.907          38.000  
  21603685.107   113528165.397       -1229.921          39.000  
  21500534.020   112986039.981       -1229.938          40.000  
  21670211.738   113877732.947       -1229.862          41.000  
  21603692.517   113528192.769       -1229.772          35.000  
  21497309.199   112969105.903       -1229.882          40.000  
  21582885.098   113418838.037       -1229.926          36.000  
  21618046.969   113603631.968       -1229.885          39.000  
  21518993.489   113083117.854       -1229.951          38.000  
  21562076.175   113309508.370       -1229.855          39.000  
 25  8 12  8 44 32.6000000  0 28G 5G 1G 2G 3G 4G18G28G31G 7G30G17G 6
                                G25G27G10G21G16G 8G13G15G32G20G29G 9
                                G24G19G12G23
  21555692.658   113275870.077       -1229.678          49.000  
  21555663.964   113275781.943       -1229.738          49.000  
  21555714.646   113276046.189       -1229.781          47.000  
  21555711.158   113275983.289       -1229.697          49.000  
  21555659.494   113275804.397       -1229.678          49.000  
  21590256.169   113457590.337       -1229.537          33.000  
  21462480.770   112786135.201       -1229.733          37.000  
  21441969.070   112678302.320       -1229.702          38.000  
  21555776.261   113276295.374       -1229.674          47.000  
  21543660.692   113212705.900       -1229.674          42.000  
  21634210.441   113688572.710       -1229.921          35.000  
  21555724.355   113276025.828       -1229.680          49.000  
  21439918.036   112667548.369       -1229.655          41.000  
  21456039.639   112752255.996       -1229.730          36.000  
  21630987.701   113671598.450       -1229.603          37.000  
  21690771.431   113985768.867       -1229.628          39.000  
  21594652.380   113480652.820       -1229.852          35.000  
  21555672.828   113275824.433       -1229.685          49.000  
  21509957.817   113035622.331       -1229.662          39.000  
  21603731.942   113528411.325       -1229.736          39.000  
  21500580.854   112986285.912       -1229.719          40.000  
  21670258.561   113877978.881       -1229.673          41.000  
  21603739.254   113528438.709       -1229.885          35.000  
  21497355.970   112969351.835       -1229.679          40.000  
  21582931.937   113419083.956       -1229.615          36.000  
  21618093.750   113603877.899       -1229.750          40.000  
  21519040.298   113083363.787       -1229.706          38.000  
  21562122.965   113309754.307       -1229.657          39.000  
 25  8 12  8 44 32.8000000  0 28G 5G 1G 2G 3G 4G18G28G31G 7G30G17G 6
                                G25G27G10G21G16G 8G13G15G32G20G29G 9
                                G24G19G12G23
  21555739.852   113276116.011       -1229.513          49.000  
  21555710.728   113276027.878       -1229.692          49.000  
  21555761.518   113276292.123       -1229.740          47.000  
  21555757.972   113276229.224       -1229.646          49.000  
  21555706.293   113276050.333       -1229.697          49.000  
  21590302.962   113457836.287       -1229.746          33.000  
  21462527.532   112786381.136       -1229.584          37.000  
  21442015.890   112678548.260       -1229.652          38.000  
  21555823.071   113276541.316       -1229.673          47.000  
  21543707.473   113212951.839       -1229.775          42.000  
  21634257.228   113688818.628       -1229.269          35.000  
  21555771.167   113276271.770       -1229.741          49.000  
  21439964.832   112667794.310       -1229.751          41.000  
  21456086.434   112752501.931       -1229.662          36.000  
  21631034.511   113671844.395       -1229.758          37.000  
  21690818.224   113986014.808       -1229.650          39.000  
  21594699.192   113480898.749       -1229.422          35.000  
  21555719.630   113276070.366       -1229.680          49.000  
  21510004.633   113035868.271       -1229.664          39.000  
  21603778.739   113528657.268       -1229.642          39.000  
  21500627.681   112986531.848       -1229.678          40.000  
  21670305.323   113878224.821       -1229.700          41.000  
  21603786.022   113528684.639       -1229.580          34.000  
  21497402.724   112969597.775       -1229.707          40.000  
  21582978.758   113419329.892       -1229.630          36.000  
  21618140.545   113604123.837       -1229.734          40.000  
  21519087.121   113083609.730       -1229.659          38.000  
  21562169.774   113310000.247       -1229.646          39.000  
 25  8 12  8 44 33.0000000  0 28G 5G 1G 2G 3G 4G18G28G31G 7G30G17G 6
                                G25G27G10G21G16G 8G13G15G32G20G29G 9
                                G24G19G12G23
  21555786.959   113276361.975       -1230.100          49.000  
  21555757.508   113276273.834       -1229.983          49.000  
  21555808.311   113276538.078       -1229.917          47.000  
  21555804.799   113276475.186       -1230.059          49.000  
  21555753.097   113276296.291       -1230.043          49.000  
  21590349.727   113458082.229       -1229.987          33.000  
  21462574.326   112786627.094       -1230.015          37.000  
  21442062.664   112678794.209       -1229.977          38.000  
  21555869.875   113276787.268       -1230.059          47.000  
  21543754.341   113213197.784       -1229.900          42.000  
  21634304.059   113689064.635       -1230.507          35.000  
  21555817.984   113276517.730       -1230.109          49.000  
  21440011.639   112668040.245       -1229.723          41.000  
  21456133.209   112752747.891       -1230.050          36.000  
  21631081.294   113672090.330       -1229.774          37.000  
  21690865.017   113986260.769       -1230.050          39.000  
  21594746.055   113481144.745       -1230.404          35.000  
  21555766.452   113276316.329       -1230.048          49.000  
  21510051.411   113036114.236       -1230.215          39.000  
  21603825.525   113528903.230       -1230.192          39.000  
  21500674.438   112986777.805       -1229.978          40.000  
  21670352.132   113878470.770       -1229.957          41.000  
  21603832.752   113528930.603       -1230.068          34.000  
  21497449.561   112969843.731       -1230.071          40.000  
  21583025.606   113419575.875       -1230.396          36.000  
  21618187.372   113604369.785       -1229.916          40.000  
  21519133.904   113083855.689       -1230.175          38.000  
  21562216.561   113310246.201       -1230.059          39.000  
 25  8 12  8 44 33.2000000  0 28G 5G 1G 2G 3G 4G18G28G31G 7G30G17G 6
                                G25G27G10G21G16G 8G13G15G32G20G29G 9
                                G24G19G12G23
  21555834.004   113276607.936       -1229.615          49.000  
  21555804.302   113276519.805       -1229.670          49.000  
  21555855.031   113276784.057       -1229.615          47.000  
  21555851.608   113276721.154       -1229.802          49.000  
  21555799.874   113276542.253       -1229.644          49.000  
  21590396.483   113458328.218       -1229.800          33.000  
  21462621.110   112786873.064       -1229.557          37.000  
  21442109.427   112679040.173       -1229.391          38.000  
  21555916.713   113277033.238       -1229.618          47.000  
  21543801.120   113213443.762       -1229.622          42.000  
  21634350.869   113689310.566       -1229.654          35.000  
  21555864.795   113276763.692       -1229.628          49.000  
  21440058.412   112668286.227       -1229.467          41.000  
  21456180.035   112752993.854       -1229.525          36.000  
  21631128.108   113672336.313       -1229.584          37.000  
  21690911.809   113986506.730       -1229.619          39.000  
  21594792.857   113481390.673       -1229.408          35.000  
  21555813.252   113276562.295       -1229.713          49.000  
  21510098.211   113036360.197       -1229.717          39.000  
  21603872.325   113529149.180       -1229.420          39.000  
  21500721.283   112987023.771       -1229.565          40.000  
  21670398.926   113878716.751       -1229.743          41.000  
  21603879.549   113529176.557       -1229.388          34.000  
  21497496.326   112970089.713       -1229.893          40.000  
  21583072.425   113419821.821       -1229.744          36.000  
  21618234.177   113604615.760       -1229.591          40.000  
  21519180.699   113084101.643       -1229.473          38.000  
  21562263.388   113310492.172       -1229.658          39.000  
 25  8 12  8 44 33.4000000  0 28G 5G 1G 2G 3G 4G18G28G31G 7G30G17G 6
                                G25G27G10G21G16G 8G13G15G32G20G29G 9
                                G24G19G12G23
  21555880.754   113276853.897       -1229.849          49.000  
  21555851.099   113276765.760       -1229.753          49.000  
  21555901.859   113277030.019       -1229.862          47.000  
  21555898.420   113276967.109       -1229.688          49.000  
  21555846.715   113276788.211       -1229.706          49.000  
  21590443.242   113458574.185       -1229.906          33.000  
  21462667.897   112787119.032       -1229.926          37.000  
  21442156.246   112679286.144       -1230.018          38.000  
  21555963.549   113277279.199       -1229.877          47.000  
  21543847.989   113213689.724       -1230.042          42.000  
  21634397.664   113689556.523       -1229.531          35.000  
  21555911.606   113277009.649       -1229.768          49.000  
  21440105.220   112668532.191       -1230.032          42.000  
  21456226.821   112753239.811       -1229.799          36.000  
  21631174.907   113672582.276       -1230.092          37.000  
  21690958.615   113986752.681       -1229.747          39.000  
  21594839.683   113481636.628       -1229.715          35.000  
  21555860.064   113276808.252       -1229.746          49.000  
  21510144.978   113036606.154       -1229.646          39.000  
  21603919.151   113529395.140       -1229.862          39.000  
  21500768.099   112987269.730       -1229.905          40.000  
  21670445.761   113878962.714       -1229.870          41.000  
  21603926.324   113529422.530       -1229.847          34.000  
  21497543.130   112970335.671       -1229.674          40.000  
  21583119.245   113420067.774       -1229.478          36.000  
  21618280.995   113604861.721       -1229.935          40.000  
  21519227.521   113084347.606       -1229.902          38.000  
  21562310.209   113310738.136       -1229.857          39.000  
 25  8 12  8 44 33.6000000  0 28G 5G 1G 2G 3G 4G18G28G31G 7G30G17G 6
                                G25G27G10G21G16G 8G13G15G32G20G29G 9
                                G24G19G12G23
  21555927.880   113277099.832       -1229.888          49.000  
  21555897.908   113277011.698       -1229.745          49.000  
  21555948.618   113277275.954       -1229.813          47.000  
  21555945.233   113277213.052       -1229.745          49.000  
  21555893.551   113277034.151       -1229.769          49.000  
  21590490.026   113458820.110       -1229.690          33.000  
  21462714.701   112787364.950       -1229.705          37.000  
  21442203.035   112679532.067       -1229.828          38.000  
  21556010.397   113277525.138       -1229.839          47.000  
  21543894.754   113213935.648       -1229.756          42.000  
  21634444.500   113689802.482       -1229.981          35.000  
  21555958.411   113277255.591       -1229.797          49.000  
  21440152.014   112668778.113       -1229.723          42.000  
  21456273.575   112753485.746       -1229.769          36.000  
  21631221.724   113672828.190       -1229.742          37.000  
  21691005.401   113986998.629       -1229.974          39.000  
  21594886.454   113481882.576       -1229.899          34.000  
  21555906.871   113277054.197       -1229.858          49.000  
  21510191.797   113036852.105       -1229.923          39.000  
  21603965.944   113529641.081       -1229.910          39.000  
  21500814.921   112987515.668       -1229.893          40.000  
  21670492.560   113879208.645       -1229.734          41.000  
  21603973.092   113529668.456       -1229.671          34.000  
  21497589.878   112970581.610       -1229.766          40.000  
  21583166.051   113420313.741       -1230.066          36.000  
  21618327.773   113605107.651       -1229.786          40.000  
  21519274.325   113084593.546       -1229.968          38.000  
  21562357.057   113310984.073       -1229.851          39.000  
 25  8 12  8 44 33.8000000  0 28G 5G 1G 2G 3G 4G18G28G31G 7G30G17G 6
                                G25G27G10G21G16G 8G13G15G32G20G29G 9
                                G24G19G12G23
  21555974.617   113277345.770       -1229.723          49.000  
  21555944.669   113277257.638       -1229.763          49.000  
  21555995.533   113277521.894       -1229.777          47.000  
  21555992.048   113277458.993       -1229.777          49.000  
  21555940.367   113277280.089       -1229.778          49.000  
  21590536.752   113459066.048       -1229.652          34.000  
  21462761.461   112787610.885       -1229.683          37.000  
  21442249.868   112679778.003       -1229.727          38.000  
  21556057.209   113277771.074       -1229.751          47.000  
  21543941.599   113214181.582       -1229.686          42.000  
  21634491.307   113690048.427       -1229.815          35.000  
  21556005.224   113277501.530       -1229.761          49.000  
  21440198.821   112669024.047       -1229.708          42.000  
  21456320.404   112753731.688       -1229.840          36.000  
  21631268.592   113673074.123       -1229.742          37.000  
  21691052.228   113987244.562       -1229.656          39.000  
  21594933.244   113482128.529       -1229.854          34.000  
  21555953.678   113277300.134       -1229.749          49.000  
  21510238.551   113037098.040       -1229.771          39.000  
  21604012.742   113529887.017       -1229.679          39.000  
  21500861.763   112987761.602       -1229.724          40.000  
  21670539.401   113879454.581       -1229.727          41.000  
  21604019.931   113529914.394       -1229.756          34.000  
  21497636.657   112970827.548       -1229.766          40.000  
  21583212.931   113420559.677       -1229.813          36.000  
  21618374.600   113605353.586       -1229.725          40.000  
  21519321.103   113084839.482       -1229.668          38.000  
  21562403.860   113311230.011       -1229.736          39.000  
 25  8 12  8 44 34.0000000  0 28G 5G 1G 2G 3G 4G18G28G31G 7G30G17G 6
                                G25G27G10G21G16G 8G13G15G32G20G29G 9
                                G24G19G12G23
  21556021.348   113277591.718       -1229.666          49.000  
  21555991.457   113277503.579       -1229.645          49.000  
  21556042.420   113277767.836       -1229.613          47.000  
  21556038.849   113277704.936       -1229.683          49.000  
  21555987.165   113277526.033       -1229.626          49.000  
  21590583.553   113459311.991       -1229.474          34.000  
  21462808.280   112787856.829       -1229.553          38.000  
  21442296.688   112680023.947       -1229.585          38.000  
  21556104.037   113278017.017       -1229.635          47.000  
  21543988.336   113214427.528       -1229.586          42.000  
  21634538.089   113690294.367       -1229.629          35.000  
  21556052.027   113277747.469       -1229.609          49.000  
  21440245.624   112669269.994       -1229.613          42.000  
  21456367.270   112753977.626       -1229.562          36.000  
  21631315.481   113673320.070       -1229.600          36.000  
  21691099.023   113987490.508       -1229.574          39.000  
  21594979.940   113482374.463       -1229.598          34.000  
  21556000.490   113277546.077       -1229.648          49.000  
  21510285.391   113037343.985       -1229.628          39.000  
  21604059.536   113530132.959       -1229.589          39.000  
  21500908.564   112988007.549       -1229.701          40.000  
  21670586.209   113879700.523       -1229.522          41.000  
  21604066.781   113530160.332       -1229.549          34.000  
  21497683.397   112971073.491       -1229.587          40.000  
  21583259.795   113420805.619       -1229.614          35.000  
  21618421.409   113605599.532       -1229.615          40.000  
  21519367.888   113085085.431       -1229.631          38.000  
  21562450.660   113311475.955       -1229.647          39.000  
 25  8 12  8 44 34.2000000  0 28G 5G 1G 2G 3G 4G18G28G31G 7G30G17G 6
                                G25G27G10G21G16G 8G13G15G32G20G29G 9
                                G24G19G12G23
  21556067.863   113277837.652       -1229.672          49.000  
  21556038.222   113277749.516       -1229.784          49.000  
  21556089.262   113278013.773       -1229.727          47.000  
  21556085.650   113277950.869       -1229.811          49.000  
  21556033.972   113277771.969       -1229.723          49.000  
  21590630.319   113459557.884       -1229.492          34.000  
  21462855.081   112788102.782       -1229.736          37.000  
  21442343.544   112680269.897       -1229.739          38.000  
  21556150.823   113278262.950       -1229.668          47.000  
  21544035.192   113214673.465       -1229.783          42.000  
  21634584.903   113690540.318       -1229.573          35.000  
  21556098.837   113277993.400       -1229.752          49.000  
  21440292.470   112669515.933       -1229.735          42.000  
  21456414.098   112754223.581       -1229.681          35.000  
  21631362.318   113673566.032       -1229.763          36.000  
  21691145.854   113987736.456       -1229.678          39.000  
  21595026.727   113482620.400       -1229.589          34.000  
  21556047.298   113277792.010       -1229.728          49.000  
  21510332.198   113037589.903       -1229.677          39.000  
  21604106.346   113530378.907       -1229.745          39.000  
  21500955.372   112988253.479       -1229.695          40.000  
  21670633.023   113879946.453       -1229.732          41.000  
  21604113.584   113530406.292       -1229.680          34.000  
  21497730.229   112971319.414       -1229.681          40.000  
  21583306.630   113421051.572       -1229.738          35.000  
  21618468.222   113605845.457       -1229.740          40.000  
  21519414.661   113085331.361       -1229.725          38.000  
  21562497.426   113311721.890       -1229.746          39.000  
 25  8 12  8 44 34.4000000  0 28G 5G 1G 2G 3G 4G18G28G31G 7G30G17G 6
                                G25G27G10G21G16G 8G13G15G32G20G29G 9
                                G24G19G12G23
  21556114.436   113278083.621       -1229.736          49.000  
  21556085.003   113277995.473       -1229.684          49.000  
  21556136.056   113278259.734       -1229.668          47.000  
  21556132.462   113278196.828       -1229.741          49.000  
  21556080.774   113278017.930       -1229.661          49.000  
  21590677.135   113459803.865       -1229.521          34.000  
  21462901.919   112788348.740       -1229.645          37.000  
  21442390.323   112680515.852       -1229.675          38.000  
  21556197.651   113278508.916       -1229.711          47.000  
  21544081.994   113214919.425       -1229.701          42.000  
  21634631.718   113690786.285       -1229.765          35.000  
  21556145.648   113278239.362       -1229.694          49.000  
  21440339.259   112669761.888       -1229.521          41.000  
  21456460.933   112754469.542       -1229.642          35.000  
  21631409.155   113673811.987       -1229.745          36.000  
  21691192.671   113987982.416       -1229.688          39.000  
  21595073.486   113482866.372       -1229.812          34.000  
  21556094.121   113278037.972       -1229.709          49.000  
  21510379.024   113037835.870       -1229.692          39.000  
  21604153.152   113530624.867       -1229.739          39.000  
  21501002.160   112988499.442       -1229.668          40.000  
  21670679.838   113880192.413       -1229.562          41.000  
  21604160.369   113530652.249       -1229.682          34.000  
  21497777.006   112971565.379       -1229.597          40.000  
  21583353.457   113421297.536       -1229.800          35.000  
  21618515.019   113606091.415       -1229.543          40.000  
  21519461.412   113085577.325       -1229.628          38.000  
  21562544.265   113311967.849       -1229.688          39.000  
 25  8 12  8 44 34.6000000  0 28G 5G 1G 2G 3G 4G18G28G31G 7G30G17G 6
                                G25G27G10G21G16G 8G13G15G32G20G29G 9
                                G24G19G12G23
  21556160.714   113278329.559       -1229.797          49.000  
  21556131.758   113278241.414       -1229.829          49.000  
  21556182.827   113278505.674       -1229.823          47.000  
  21556179.269   113278442.769       -1229.814          49.000  
  21556127.586   113278263.870       -1229.802          49.000  
  21590723.898   113460049.810       -1229.991          34.000  
  21462948.742   112788594.680       -1229.907          37.000  
  21442437.200   112680761.793       -1229.924          38.000  
  21556244.510   113278754.855       -1229.863          47.000  
  21544128.797   113215165.363       -1229.810          42.000  
  21634678.513   113691032.225       -1229.802          35.000  
  21556192.457   113278485.303       -1229.814          49.000  
  21440386.085   112670007.827       -1229.901          41.000  
  21456507.709   112754715.489       -1230.045          34.000  
  21631455.978   113674057.925       -1229.788          36.000  
  21691239.485   113988228.358       -1229.755          39.000  
  21595120.218   113483112.313       -1229.783          34.000  
  21556140.933   113278283.915       -1229.802          49.000  
  21510425.829   113038081.813       -1229.840          39.000  
  21604199.963   113530870.807       -1229.847          39.000  
  21501048.972   112988745.380       -1229.775          40.000  
  21670726.630   113880438.355       -1229.865          41.000  
  21604207.208   113530898.193       -1229.911          34.000  
  21497823.794   112971811.319       -1229.862          40.000  
  21583400.285   113421543.478       -1229.679          35.000  
  21618561.873   113606337.359       -1229.839          40.000  
  21519508.144   113085823.269       -1229.968          38.000  
  21562591.049   113312213.789       -1229.808          39.000  
 25  8 12  8 44 34.8000000  0 28G 5G 1G 2G 3G 4G18G28G31G 7G30G17G 6
                                G25G27G10G21G16G 8G13G15G32G20G29G 9
                                G24G19G12G23
  21556207.138   113278575.508       -1229.666          49.000  
  21556178.546   113278487.372       -1229.899          49.000  
  21556229.630   113278751.626       -1229.766          47.000  
  21556226.077   113278688.725       -1229.871          49.000  
  21556174.396   113278509.828       -1229.844          49.000  
  21590770.592   113460295.744       -1229.520          34.000  
  21462995.558   112788840.633       -1229.846          37.000  
  21442483.999   112681007.750       -1229.871          38.000  
  21556291.348   113279000.806       -1229.725          47.000  
  21544175.538   113215411.319       -1229.784          42.000  
  21634725.311   113691278.172       -1229.646          35.000  
  21556239.267   113278731.256       -1229.818          49.000  
  21440432.875   112670253.793       -1230.022          41.000  
  21456554.578   112754961.427       -1229.680          34.000  
  21631502.822   113674303.877       -1229.679          36.000  
  21691286.282   113988474.308       -1229.665          39.000  
  21595166.990   113483358.254       -1229.479          34.000  
  21556187.742   113278529.865       -1229.691          49.000  
  21510472.640   113038327.760       -1229.657          39.000  
  21604246.745   113531116.756       -1229.694          39.000  
  21501095.790   112988991.340       -1229.829          40.000  
  21670773.421   113880684.309       -1229.832          41.000  
  21604254.013   113531144.145       -1229.892          34.000  
  21497870.532   112972057.274       -1229.799          40.000  
  21583447.093   113421789.423       -1229.517          35.000  
  21618608.679   113606583.313       -1229.806          40.000  
  21519554.941   113086069.220       -1229.784          38.000  
  21562637.850   113312459.743       -1229.763          39.000  
 25  8 12  8 44 35.0000000  0 28G 5G 1G 2G 3G 4G18G28G31G 7G30G17G 6
                                G25G27G10G21G16G 8G13G15G32G20G29G 9
                                G24G19G12G23
  21556253.648   113278821.435       -1229.514          49.000  
  21556225.315   113278733.302       -1229.580          49.000  
  21556276.489   113278997.563       -1229.592          47.000  
  21556272.870   113278934.649       -1229.528          49.000  
  21556221.168   113278755.759       -1229.595          49.000  
  21590817.404   113460541.690       -1229.515          34.000  
  21463042.316   112789086.571       -1229.640          37.000  
  21442530.791   112681253.671       -1229.266          38.000  
  21556338.172   113279246.742       -1229.624          47.000  
  21544222.394   113215657.268       -1229.777          41.000  
  21634772.146   113691524.085       -1229.540          35.000  
  21556286.075   113278977.191       -1229.680          49.000  
  21440479.703   112670499.714       -1229.219          41.000  
  21456601.404   112755207.326       -1228.818          34.000  
  21631549.582   113674549.804       -1229.213          36.000  
  21691333.136   113988720.244       -1229.631          39.000  
  21595213.858   113483604.164       -1229.353          34.000  
  21556234.541   113278775.798       -1229.613          49.000  
  21510519.415   113038573.702       -1229.858          39.000  
  21604293.534   113531362.676       -1229.291          39.000  
  21501142.575   112989237.268       -1229.512          40.000  
  21670820.255   113880930.244       -1229.539          41.000  
  21604300.770   113531390.065       -1229.445          34.000  
  21497917.368   112972303.209       -1229.653          40.000  
  21583493.814   113422035.349       -1229.747          35.000  
  21618655.476   113606829.238       -1229.350          40.000  
  21519601.737   113086315.152       -1229.604          38.000  
  21562684.632   113312705.690       -1229.729          39.000  
 25  8 12  8 44 35.2000000  0 28G 5G 1G 2G 3G 4G18G28G31G 7G30G17G 6
                                G25G27G10G21G16G 8G13G15G32G20G29G 9
                                G24G19G12G23
  21556300.394   113279067.358       -1229.662          49.000  
  21556272.101   113278979.225       -1229.556          49.000  
  21556323.273   113279243.489       -1229.554          47.000  
  21556319.673   113279180.572       -1229.563          49.000  
  21556267.977   113279001.684       -1229.554          49.000  
  21590864.155   113460787.611       -1229.652          34.000  
  21463089.147   112789332.498       -1229.598          37.000  
  21442577.582   112681499.603       -1229.750          39.000  
  21556385.002   113279492.668       -1229.608          47.000  
  21544269.178   113215903.196       -1229.482          41.000  
  21634818.971   113691770.004       -1229.652          35.000  
  21556332.871   113279223.114       -1229.554          49.000  
  21440526.471   112670745.643       -1229.752          41.000  
  21456648.187   112755453.244       -1229.984          34.000  
  21631596.323   113674795.729       -1229.774          36.000  
  21691379.943   113988966.171       -1229.660          39.000  
  21595260.709   113483850.085       -1229.703          35.000  
  21556281.338   113279021.721       -1229.602          49.000  
  21510566.249   113038819.624       -1229.498          39.000  
  21604340.347   113531608.604       -1229.755          39.000  
  21501189.366   112989483.196       -1229.635          40.000  
  21670867.017   113881176.165       -1229.562          41.000  
  21604347.508   113531635.993       -1229.670          34.000  
  21497964.134   112972549.137       -1229.554          40.000  
  21583540.631   113422281.270       -1229.556          35.000  
  21618702.272   113607075.162       -1229.613          40.000  
  21519648.561   113086561.077       -1229.568          38.000  
  21562731.425   113312951.616       -1229.518          39.000  
 25  8 12  8 44 35.4000000  0 28G 5G 1G 2G 3G 4G18G28G31G 7G30G17G 6
                                G25G27G10G21G16G 8G13G15G32G20G29G 9
                                G24G19G12G23
  21556347.090   113279313.289       -1229.695          49.000  
  21556318.904   113279225.159       -1229.635          49.000  
  21556370.103   113279489.427       -1229.727          47.000  
  21556366.487   113279426.504       -1229.606          49.000  
  21556314.803   113279247.618       -1229.662          49.000  
  21590910.912   113461033.553       -1229.852          33.000  
  21463135.967   112789578.436       -1229.812          37.000  
  21442624.392   112681745.531       -1229.695          39.000  
  21556431.821   113279738.602       -1229.714          47.000  
  21544316.046   113216149.136       -1229.718          41.000  
  21634865.737   113692015.939       -1229.759          35.000  
  21556379.671   113279469.048       -1229.620          49.000  
  21440573.282   112670991.569       -1229.630          41.000  
  21456694.992   112755699.169       -1229.800          34.000  
  21631643.092   113675041.661       -1229.753          36.000  
  21691426.729   113989212.102       -1229.681          39.000  
  21595307.562   113484096.013       -1229.669          35.000  
  21556328.147   113279267.654       -1229.656          49.000  
  21510613.048   113039065.563       -1229.679          39.000  
  21604387.149   113531854.531       -1229.750          39.000  
  21501236.126   112989729.130       -1229.700          40.000  
  21670913.840   113881422.101       -1229.688          41.000  
  21604394.251   113531881.921       -1229.711          34.000  
  21498010.976   112972795.073       -1229.697          40.000  
  21583587.420   113422527.206       -1229.688          35.000  
  21618749.062   113607321.096       -1229.715          39.000  
  21519695.335   113086807.014       -1229.740          38.000  
  21562778.230   113313197.552       -1229.609          38.000  
 25  8 12  8 44 35.6000000  0 28G 5G 1G 2G 3G 4G18G28G31G 7G30G17G 6
                                G25G27G10G21G16G 8G13G15G32G20G29G 9
                                G24G19G12G23
  21556393.690   113279559.198       -1229.702          49.000  
  21556365.663   113279471.069       -1229.606          49.000  
  21556416.867   113279735.333       -1229.689          47.000  
  21556413.291   113279672.415       -1229.608          49.000  
  21556361.623   113279493.528       -1229.646          49.000  
  21590957.730   113461279.452       -1229.711          33.000  
  21463182.807   112789824.338       -1229.656          37.000  
  21442671.194   112681991.442       -1229.701          39.000  
  21556478.638   113279984.510       -1229.695          47.000  
  21544362.789   113216395.043       -1229.668          41.000  
  21634912.558   113692261.847       -1229.719          35.000  
  21556426.475   113279714.959       -1229.640          49.000  
  21440620.063   112671237.480       -1229.667          41.000  
  21456741.756   112755945.075       -1229.650          34.000  
  21631689.869   113675287.568       -1229.625          36.000  
  21691473.528   113989458.010       -1229.665          38.000  
  21595354.369   113484341.928       -1229.766          35.000  
  21556374.949   113279513.564       -1229.694          49.000  
  21510659.868   113039311.472       -1229.763          39.000  
  21604433.969   113532100.438       -1229.645          38.000  
  21501282.919   112989975.040       -1229.707          40.000  
  21670960.616   113881668.008       -1229.708          41.000  
  21604441.031   113532127.827       -1229.621          34.000  
  21498057.762   112973040.979       -1229.723          40.000  
  21583634.164   113422773.110       -1229.648          35.000  
  21618795.825   113607567.001       -1229.662          39.000  
  21519742.149   113087052.921       -1229.727          38.000  
  21562825.000   113313443.462       -1229.668          38.000  
 25  8 12  8 44 35.8000000  0 28G 5G 1G 2G 3G 4G18G28G31G 7G30G17G 6
                                G25G27G10G21G16G 8G13G15G32G20G29G 9
                                G24G19G12G23
  21556440.197   113279805.135       -1229.387          49.000  
  21556412.443   113279717.007       -1229.579          49.000  
  21556463.703   113279981.269       -1229.570          47.000  
  21556460.086   113279918.353       -1229.567          49.000  
  21556408.415   113279739.464       -1229.524          49.000  
  21591004.515   113461525.392       -1229.309          34.000  
  21463229.638   112790070.284       -1229.746          36.000  
  21442717.985   112682237.379       -1229.644          39.000  
  21556525.454   113280230.446       -1229.537          47.000  
  21544409.647   113216640.983       -1229.744          41.000  
  21634959.398   113692507.782       -1229.318          35.000  
  21556473.270   113279960.893       -1229.465          49.000  
  21440666.902   112671483.418       -1229.879          41.000  
  21456788.577   112756191.015       -1229.543          31.000  
  21631736.670   113675533.507       -1229.652          36.000  
  21691520.310   113989703.943       -1229.280          38.000  
  21595401.167   113484587.863       -1229.351          35.000  
  21556421.765   113279759.497       -1229.364          49.000  
  21510706.642   113039557.403       -1229.270          39.000  
  21604480.752   113532346.373       -1229.332          38.000  
  21501329.727   112990220.975       -1229.402          40.000  
  21671007.455   113881913.941       -1229.604          41.000  
  21604487.846   113532373.763       -1229.354          34.000  
  21498104.553   112973286.915       -1229.456          40.000  
  21583680.996   113423019.041       -1228.839          34.000  
  21618842.658   113607812.938       -1229.633          39.000  
  21519788.921   113087298.857       -1229.514          38.000  
  21562871.815   113313689.401       -1229.636          38.000  
 25  8 12  8 44 36.0000000  0 28G 5G 1G 2G 3G 4G18G28G31G 7G30G17G 6
                                G25G27G10G21G16G 8G13G15G32G20G29G 9
                                G24G19G12G23
  21556486.716   113280051.078       -1229.929          49.000  
  21556459.201   113279962.931       -1229.674          49.000  
  21556510.494   113280227.193       -1229.755          47.000  
  21556506.888   113280164.284       -1229.664          49.000  
  21556455.239   113279985.396       -1229.758          49.000  
  21591051.284   113461771.355       -1229.866          33.000  
  21463276.453   112790316.179       -1229.633          37.000  
  21442764.762   112682483.319       -1229.669          38.000  
  21556572.275   113280476.365       -1229.725          47.000  
  21544456.421   113216886.867       -1229.528          41.000  
  21635006.203   113692753.715       -1229.953          35.000  
  21556520.080   113280206.824       -1229.731          49.000  
  21440713.723   112671729.350       -1229.554          41.000  
  21456835.446   112756437.000       -1229.940          35.000  
  21631783.437   113675779.452       -1229.718          36.000  
  21691567.103   113989949.875       -1229.878          38.000  
  21595447.985   113484833.847       -1230.071          35.000  
  21556468.585   113280005.434       -1229.789          49.000  
  21510753.459   113039803.350       -1229.938          39.000  
  21604527.524   113532592.336       -1229.881          38.000  
  21501376.557   112990466.902       -1229.780          40.000  
  21671054.261   113882159.880       -1229.679          41.000  
  21604534.612   113532619.711       -1229.771          34.000  
  21498151.367   112973532.837       -1229.805          40.000  
  21583727.796   113423264.998       -1230.215          35.000  
  21618889.440   113608058.879       -1229.697          39.000  
  21519835.714   113087544.783       -1229.829          38.000  
  21562918.603   113313935.296       -1229.655          38.000  
 25  8 12  8 44 36.2000000  0 28G 5G 1G 2G 3G 4G18G28G31G 7G30G17G 6
                                G25G27G10G21G16G 8G13G15G32G20G29G 9
                                G24G19G12G23
  21556533.341   113280296.984       -1229.709          49.000  
  21556505.969   113280208.850       -1229.629          49.000  
  21556557.285   113280473.111       -1229.650          47.000  
  21556553.680   113280410.201       -1229.597          49.000  
  21556502.044   113280231.311       -1229.656          49.000  
  21591098.089   113462017.267       -1229.849          33.000  
  21463323.236   112790562.111       -1229.713          37.000  
  21442811.606   112682729.241       -1229.736          38.000  
  21556619.101   113280722.285       -1229.683          47.000  
  21544503.259   113217132.801       -1229.592          41.000  
  21635052.995   113692999.625       -1229.896          35.000  
  21556566.880   113280452.740       -1229.642          49.000  
  21440760.552   112671975.276       -1229.609          41.000  
  21456882.149   112756682.897       -1229.751          35.000  
  21631830.263   113676025.364       -1229.557          36.000  
  21691613.929   113990195.788       -1229.698          39.000  
  21595494.832   113485079.744       -1229.984          35.000  
  21556515.392   113280251.348       -1229.670          49.000  
  21510800.203   113040049.251       -1229.734          39.000  
  21604574.337   113532838.242       -1229.723          38.000  
  21501423.357   112990712.816       -1229.625          40.000  
  21671101.024   113882405.800       -1229.690          41.000  
  21604581.341   113532865.629       -1229.817          34.000  
  21498198.196   112973778.752       -1229.657          40.000  
  21583774.562   113423510.890       -1229.805          35.000  
  21618936.255   113608304.798       -1229.729          39.000  
  21519882.523   113087790.696       -1229.645          38.000  
  21562965.395   113314181.224       -1229.600          39.000  
 25  8 12  8 44 36.4000000  0 28G 5G 1G 2G 3G 4G18G28G31G 7G30G17G 6
                                G25G27G10G21G16G 8G13G15G32G20G29G 9
                                G24G19G12G23
  21556580.129   113280542.881       -1229.471          49.000  
  21556552.772   113280454.752       -1229.534          49.000  
  21556604.081   113280719.010       -1229.521          47.000  
  21556600.494   113280656.106       -1229.565          49.000  
  21556548.846   113280477.212       -1229.575          49.000  
  21591144.835   113462263.163       -1229.524          33.000  
  21463369.985   112790808.005       -1229.514          37.000  
  21442858.388   112682975.141       -1229.523          38.000  
  21556665.932   113280968.186       -1229.554          47.000  
  21544550.037   113217378.704       -1229.579          41.000  
  21635099.781   113693245.507       -1229.574          35.000  
  21556613.675   113280698.641       -1229.547          49.000  
  21440807.307   112672221.181       -1229.489          41.000  
  21456928.965   112756928.797       -1229.498          35.000  
  21631877.044   113676271.274       -1229.565          36.000  
  21691660.709   113990441.685       -1229.510          39.000  
  21595541.651   113485325.627       -1229.527          35.000  
  21556562.191   113280497.248       -1229.547          49.000  
  21510847.008   113040295.150       -1229.581          39.000  
  21604621.150   113533084.138       -1229.525          39.000  
  21501470.171   112990958.721       -1229.568          40.000  
  21671147.791   113882651.701       -1229.504          41.000  
  21604628.119   113533111.523       -1229.542          34.000  
  21498244.973   112974024.653       -1229.557          40.000  
  21583821.311   113423756.776       -1229.475          35.000  
  21618983.017   113608550.698       -1229.539          39.000  
  21519929.342   113088036.598       -1229.520          38.000  
  21563012.212   113314427.125       -1229.572          39.000  
 25  8 12  8 44 36.6000000  0 28G 5G 1G 2G 3G 4G18G28G31G 7G30G17G 6
                                G25G27G10G21G16G 8G13G15G32G20G29G 9
                                G24G19G12G23
  21556626.950   113280788.803       -1229.799          49.000  
  21556599.531   113280700.662       -1229.667          49.000  
  21556650.896   113280964.923       -1229.727          47.000  
  21556647.296   113280902.019       -1229.747          49.000  
  21556595.682   113280723.124       -1229.735          49.000  
  21591191.592   113462509.075       -1229.619          33.000  
  21463416.756   112791053.914       -1229.629          37.000  
  21442905.198   112683221.045       -1229.597          38.000  
  21556712.797   113281214.100       -1229.740          47.000  
  21544596.850   113217624.610       -1229.635          41.000  
  21635146.538   113693491.442       -1230.067          35.000  
  21556660.468   113280944.555       -1229.753          49.000  
  21440854.120   112672467.084       -1229.535          41.000  
  21456975.757   112757174.717       -1229.819          36.000  
  21631923.794   113676517.179       -1229.607          36.000  
  21691707.478   113990687.602       -1229.779          39.000  
  21595588.504   113485571.561       -1229.953          35.000  
  21556608.998   113280743.164       -1229.780          49.000  
  21510893.809   113040541.072       -1229.891          39.000  
  21604667.956   113533330.058       -1229.792          39.000  
  21501516.927   112991204.632       -1229.734          40.000  
  21671194.622   113882897.612       -1229.692          40.000  
  21604674.864   113533357.439       -1229.801          34.000  
  21498291.793   112974270.569       -1229.755          40.000  
  21583868.116   113424002.712       -1229.988          35.000  
  21619029.836   113608796.606       -1229.693          39.000  
  21519976.131   113088282.511       -1229.706          38.000  
  21563059.015   113314673.033       -1229.657          39.000  
 25  8 12  8 44 36.8000000  0 28G 5G 1G 2G 3G 4G18G28G31G 7G30G17G 6
                                G25G27G10G21G16G 8G13G15G32G20G29G 9
                                G24G19G12G23
  21556673.817   113281034.737       -1229.637          49.000  
  21556646.298   113280946.604       -1229.695          49.000  
  21556697.761   113281210.864       -1229.688          47.000  
  21556694.105   113281147.957       -1229.673          49.000  
  21556642.478   113280969.063       -1229.681          49.000  
  21591238.345   113462755.023       -1229.820          33.000  
  21463463.532   112791299.859       -1229.686          37.000  
  21442952.008   112683466.993       -1229.692          38.000  
  21556759.624   113281460.038       -1229.641          47.000  
  21544643.636   113217870.558       -1229.785          41.000  
  21635193.337   113693737.364       -1229.551          35.000  
  21556707.274   113281190.493       -1229.689          49.000  
  21440900.928   112672713.037       -1229.824          41.000  
  21457022.582   112757420.648       -1229.545          36.000  
  21631970.610   113676763.126       -1229.745          36.000  
  21691754.268   113990933.540       -1229.683          39.000  
  21595635.325   113485817.482       -1229.535          35.000  
  21556655.784   113280989.099       -1229.664          49.000  
  21510940.606   113040787.001       -1229.625          39.000  
  21604714.791   113533575.994       -1229.616          39.000  
  21501563.688   112991450.573       -1229.696          40.000  
  21671241.430   113883143.554       -1229.681          40.000  
  21604721.638   113533603.380       -1229.689          34.000  
  21498338.583   112974516.505       -1229.635          40.000  
  21583914.900   113424248.633       -1229.558          35.000  
  21619076.616   113609042.551       -1229.735          39.000  
  21520022.960   113088528.455       -1229.774          38.000  
  21563105.807   113314918.978       -1229.679          39.000  
 25  8 12  8 44 37.0000000  0 28G 5G 1G 2G 3G 4G18G28G31G 7G30G17G 6
                                G25G27G10G21G16G 8G13G15G32G20G29G 9
                                G24G19G12G23
  21556720.581   113281280.673       -1229.644          49.000  
  21556693.068   113281192.531       -1229.647          49.000  
  21556744.594   113281456.793       -1229.686          47.000  
  21556740.909   113281393.886       -1229.647          49.000  
  21556689.276   113281214.991       -1229.634          49.000  
  21591285.073   113463000.935       -1229.661          33.000  
  21463510.319   112791545.779       -1229.664          37.000  
  21442998.843   112683712.915       -1229.709          38.000  
  21556806.475   113281705.969       -1229.659          47.000  
  21544690.469   113218116.477       -1229.664          41.000  
  21635240.101   113693983.318       -1229.604          35.000  
  21556754.066   113281436.422       -1229.634          49.000  
  21440947.756   112672958.944       -1229.698          41.000  
  21457069.353   112757666.580       -1229.598          36.000  
  21632017.491   113677009.044       -1229.683          36.000  
  21691801.094   113991179.474       -1229.658          39.000  
  21595682.123   113486063.434       -1229.538          35.000  
  21556702.587   113281235.032       -1229.611          49.000  
  21510987.403   113041032.942       -1229.622          39.000  
  21604761.564   113533821.928       -1229.618          39.000  
  21501610.479   112991696.503       -1229.672          40.000  
  21671288.233   113883389.476       -1229.616          40.000  
  21604768.439   113533849.308       -1229.735          34.000  
  21498385.367   112974762.437       -1229.600          40.000  
  21583961.747   113424494.588       -1229.486          35.000  
  21619123.382   113609288.476       -1229.700          39.000  
  21520069.735   113088774.376       -1229.611          38.000  
  21563152.587   113315164.901       -1229.696          39.000  
 25  8 12  8 44 37.2000000  0 28G 5G 1G 2G 3G 4G18G28G31G 7G30G17G 6
                                G25G27G10G21G16G 8G13G15G32G20G29G 9
                                G24G19G12G23
  21556767.412   113281526.585       -1229.684          49.000  
  21556739.835   113281438.447       -1229.614          49.000  
  21556791.471   113281702.704       -1229.570          47.000  
  21556787.720   113281639.804       -1229.683          49.000  
  21556736.081   113281460.905       -1229.604          49.000  
  21591331.815   113463246.852       -1229.436          33.000  
  21463557.053   112791791.695       -1229.447          37.000  
  21443045.611   112683958.825       -1229.435          38.000  
  21556853.355   113281951.881       -1229.603          47.000  
  21544737.214   113218362.389       -1229.464          42.000  
  21635286.918   113694229.233       -1229.946          35.000  
  21556800.863   113281682.337       -1229.644          49.000  
  21440994.537   112673204.856       -1229.232          41.000  
  21457116.182   112757912.495       -1229.583          36.000  
  21632064.339   113677254.958       -1229.519          36.000  
  21691847.867   113991425.380       -1229.658          39.000  
  21595728.899   113486309.346       -1229.959          35.000  
  21556749.393   113281480.945       -1229.663          49.000  
  21511034.240   113041278.853       -1229.777          39.000  
  21604808.394   113534067.840       -1229.682          39.000  
  21501657.251   112991942.413       -1229.617          40.000  
  21671335.005   113883635.390       -1229.478          40.000  
  21604815.255   113534095.220       -1229.588          34.000  
  21498432.116   112975008.350       -1229.630          40.000  
  21584008.520   113424740.501       -1229.988          35.000  
  21619170.151   113609534.389       -1229.571          39.000  
  21520116.542   113089020.291       -1229.543          38.000  
  21563199.388   113315410.817       -1229.551          39.000  
 25  8 12  8 44 37.4000000  0 28G 5G 1G 2G 3G 4G18G28G31G 7G30G17G 6
                                G25G27G10G21G16G 8G13G15G32G20G29G 9
                                G24G19G12G23
  21556814.200   113281772.490       -1229.501          49.000  
  21556786.624   113281684.360       -1229.652          49.000  
  21556838.235   113281948.617       -1229.557          47.000  
  21556834.519   113281885.716       -1229.712          49.000  
  21556782.869   113281706.816       -1229.585          49.000  
  21591378.578   113463492.770       -1229.570          33.000  
  21463603.862   112792037.611       -1229.569          37.000  
  21443092.437   112684204.747       -1229.635          38.000  
  21556900.178   113282197.792       -1229.578          47.000  
  21544784.054   113218608.306       -1229.597          42.000  
  21635333.712   113694475.127       -1229.542          35.000  
  21556847.659   113281928.246       -1229.597          49.000  
  21441041.376   112673450.784       -1229.579          41.000  
  21457163.001   112758158.403       -1229.524          36.000  
  21632111.121   113677500.872       -1229.504          36.000  
  21691894.672   113991671.287       -1229.507          39.000  
  21595775.716   113486555.241       -1229.476          35.000  
  21556796.186   113281726.854       -1229.559          49.000  
  21511081.026   113041524.754       -1229.467          39.000  
  21604855.199   113534313.747       -1229.525          39.000  
  21501704.044   112992188.324       -1229.591          40.000  
  21671381.807   113883881.306       -1229.588          40.000  
  21604862.008   113534341.134       -1229.604          34.000  
  21498478.908   112975254.257       -1229.519          40.000  
  21584055.329   113424986.390       -1229.468          35.000  
  21619216.962   113609780.301       -1229.578          39.000  
  21520163.337   113089266.204       -1229.569          38.000  
  21563246.179   113315656.730       -1229.590          39.000  
 25  8 12  8 44 37.6000000  0 28G 5G 1G 2G 3G 4G18G28G31G 7G30G17G 6
                                G25G27G10G21G16G 8G13G15G32G20G29G 9
                                G24G19G12G23
  21556860.952   113282018.406       -1229.469          49.000  
  21556833.402   113281930.272       -1229.526          49.000  
  21556885.052   113282194.532       -1229.507          47.000  
  21556881.320   113282131.625       -1229.528          49.000  
  21556829.650   113281952.731       -1229.520          49.000  
  21591425.331   113463738.684       -1229.618          33.000  
  21463650.648   112792283.530       -1229.556          37.000  
  21443139.228   112684450.663       -1229.556          38.000  
  21556946.990   113282443.706       -1229.502          47.000  
  21544830.831   113218854.225       -1229.541          42.000  
  21635380.524   113694721.025       -1229.283          35.000  
  21556894.460   113282174.161       -1229.528          49.000  
  21441088.109   112673696.706       -1229.645          41.000  
  21457209.796   112758404.316       -1229.510          36.000  
  21632157.921   113677746.794       -1229.515          36.000  
  21691941.449   113991917.201       -1229.472          39.000  
  21595822.513   113486801.149       -1229.352          35.000  
  21556842.976   113281972.767       -1229.490          49.000  
  21511127.841   113041770.666       -1229.445          39.000  
  21604901.992   113534559.659       -1229.450          39.000  
  21501750.844   112992434.239       -1229.495          40.000  
  21671428.578   113884127.220       -1229.473          40.000  
  21604908.790   113534587.049       -1229.559          34.000  
  21498525.674   112975500.173       -1229.474          40.000  
  21584102.116   113425232.300       -1229.373          35.000  
  21619263.734   113610026.217       -1229.494          39.000  
  21520210.154   113089512.121       -1229.565          38.000  
  21563292.990   113315902.650       -1229.609          39.000  
 25  8 12  8 44 37.8000000  0 28G 5G 1G 2G 3G 4G18G28G31G 7G30G17G 6
                                G25G27G10G21G16G 8G13G15G32G20G29G 9
                                G24G19G12G23
  21556907.466   113282264.314       -1229.539          49.000  
  21556880.201   113282176.184       -1229.691          49.000  
  21556931.851   113282440.435       -1229.628          47.000  
  21556928.105   113282377.535       -1229.618          49.000  
  21556876.456   113282198.638       -1229.653          49.000  
  21591472.095   113463984.618       -1229.698          33.000  
  21463697.443   112792529.455       -1229.736          37.000  
  21443186.052   112684696.581       -1229.832          38.000  
  21556993.829   113282689.628       -1229.678          47.000  
  21544877.625   113219100.137       -1229.800          42.000  
  21635427.336   113694966.945       -1229.153          35.000  
  21556941.267   113282420.071       -1229.609          49.000  
  21441134.960   112673942.596       -1229.856          41.000  
  21457256.561   112758650.185       -1229.525          36.000  
  21632204.697   113677992.683       -1229.805          36.000  
  21691988.266   113992163.108       -1229.554          39.000  
  21595869.310   113487047.026       -1229.258          35.000  
  21556889.788   113282218.676       -1229.580          49.000  
  21511174.661   113042016.575       -1229.438          39.000  
  21604948.781   113534805.564       -1229.533          39.000  
  21501797.737   112992680.140       -1229.568          40.000  
  21671475.396   113884373.139       -1229.723          40.000  
  21604955.576   113534832.929       -1229.491          34.000  
  21498572.486   112975746.108       -1229.702          40.000  
  21584148.960   113425478.203       -1229.259          35.000  
  21619310.571   113610272.139       -1229.729          40.000  
  21520256.934   113089758.039       -1229.672          38.000  
  21563339.779   113316148.570       -1229.819          39.000  
 25  8 12  8 44 38.0000000  0 28G 5G 1G 2G 3G 4G18G28G31G 7G30G17G 6
                                G25G27G10G21G16G 8G13G15G32G20G29G 9
                                G24G19G12G23
  21556953.833   113282510.258       -1229.836          48.000  
  21556926.962   113282422.124       -1229.847          49.000  
  21556978.674   113282686.379       -1229.854          47.000  
  21556974.945   113282623.477       -1229.862          49.000  
  21556923.245   113282444.580       -1229.827          49.000  
  21591518.868   113464230.557       -1229.973          32.000  
  21463744.227   112792775.391       -1229.878          37.000  
  21443232.824   112684942.521       -1229.904          37.000  
  21557040.624   113282935.568       -1229.882          47.000  
  21544924.421   113219346.078       -1229.900          42.000  
  21635474.164   113695212.890       -1229.796          35.000  
  21556988.069   113282666.015       -1229.868          49.000  
  21441181.706   112674188.539       -1229.858          42.000  
  21457303.376   112758896.139       -1229.835          36.000  
  21632251.462   113678238.630       -1229.847          36.000  
  21692035.060   113992409.051       -1229.835          39.000  
  21595916.114   113487292.975       -1229.719          35.000  
  21556936.591   113282464.618       -1229.857          49.000  
  21511221.436   113042262.523       -1229.834          39.000  
  21604995.605   113535051.512       -1229.878          39.000  
  21501844.522   112992926.084       -1229.835          40.000  
  21671522.194   113884619.079       -1229.895          40.000  
  21605002.378   113535078.875       -1229.808          34.000  
  21498619.264   112975992.048       -1229.966          40.000  
  21584195.760   113425724.154       -1229.852          36.000  
  21619357.365   113610518.079       -1229.917          40.000  
  21520303.751   113090003.979       -1229.860          38.000  
  21563386.580   113316394.504       -1229.861          39.000  
 25  8 12  8 44 38.2000000  0 28G 5G 1G 2G 3G 4G18G28G31G 7G30G17G 6
                                G25G27G10G21G16G 8G13G15G32G20G29G 9
                                G24G19G12G23
  21557000.201   113282756.185       -1229.468          48.000  
  21556973.741   113282668.052       -1229.550          49.000  
  21557025.541   113282932.305       -1229.503          47.000  
  21557021.733   113282869.405       -1229.569          49.000  
  21556970.028   113282690.508       -1229.517          49.000  
  21591565.682   113464476.481       -1229.650          32.000  
  21463791.013   112793021.314       -1229.457          37.000  
  21443279.633   112685188.449       -1229.589          37.000  
  21557087.465   113283181.493       -1229.454          47.000  
  21544971.263   113219592.002       -1229.476          42.000  
  21635520.937   113695458.821       -1229.402          35.000  
  21557034.867   113282911.940       -1229.521          49.000  
  21441228.514   112674434.462       -1229.510          42.000  
  21457350.177   112759142.063       -1229.495          36.000  
  21632298.213   113678484.554       -1229.476          36.000  
  21692081.837   113992654.978       -1229.462          39.000  
  21595962.958   113487538.912       -1229.520          35.000  
  21556983.382   113282710.544       -1229.503          49.000  
  21511268.180   113042508.449       -1229.496          39.000  
  21605042.378   113535297.435       -1229.491          39.000  
  21501891.309   112993172.008       -1229.436          40.000  
  21671569.007   113884865.003       -1229.499          41.000  
  21605049.195   113535324.803       -1229.542          34.000  
  21498666.104   112976237.969       -1229.476          40.000  
  21584242.583   113425970.077       -1229.421          36.000  
  21619404.183   113610764.002       -1229.479          40.000  
  21520350.498   113090249.903       -1229.491          37.000  
  21563433.326   113316640.431       -1229.462          39.000  
 25  8 12  8 44 38.4000000  0 28G 5G 1G 2G 3G 4G18G28G31G 7G30G17G 6
                                G25G27G10G21G16G 8G13G15G32G20G29G 9
                                G24G19G12G23
  21557046.476   113283002.104       -1229.493          48.000  
  21557020.528   113282913.964       -1229.470          49.000  
  21557072.308   113283178.219       -1229.448          47.000  
  21557068.532   113283115.320       -1229.537          49.000  
  21557016.828   113282936.421       -1229.457          49.000  
  21591612.434   113464722.386       -1229.374          32.000  
  21463837.847   112793267.225       -1229.384          37.000  
  21443326.448   112685434.357       -1229.452          37.000  
  21557134.277   113283427.407       -1229.442          47.000  
  21545018.020   113219837.913       -1229.458          42.000  
  21635567.785   113695704.754       -1229.490          35.000  
  21557081.664   113283157.856       -1229.491          49.000  
  21441275.286   112674680.368       -1229.392          42.000  
  21457396.978   112759387.974       -1229.357          36.000  
  21632345.028   113678730.469       -1229.564          36.000  
  21692128.645   113992900.897       -1229.455          39.000  
  21596009.758   113487784.839       -1229.521          34.000  
  21557030.191   113282956.462       -1229.503          49.000  
  21511314.964   113042754.369       -1229.507          39.000  
  21605089.154   113535543.352       -1229.500          39.000  
  21501938.127   112993417.924       -1229.476          40.000  
  21671615.776   113885110.912       -1229.398          41.000  
  21605095.965   113535570.718       -1229.336          34.000  
  21498712.881   112976483.887       -1229.429          40.000  
  21584289.375   113426216.012       -1229.623          36.000  
  21619450.978   113611009.914       -1229.399          40.000  
  21520397.304   113090495.813       -1229.478          37.000  
  21563480.146   113316886.338       -1229.391          39.000  
 25  8 12  8 44 38.6000000  0 28G 5G 1G 2G 3G 4G18G28G31G 7G30G17G 6
                                G25G27G10G21G16G 8G13G15G32G20G29G 9
                                G24G19G12G23
  21557092.936   113283248.023       -1229.817          48.000  
  21557067.258   113283159.889       -1229.768          49.000  
  21557119.094   113283424.146       -1229.874          47.000  
  21557115.326   113283361.236       -1229.678          49.000  
  21557063.650   113283182.346       -1229.789          49.000  
  21591659.230   113464968.302       -1229.504          32.000  
  21463884.637   112793513.160       -1229.932          37.000  
  21443373.268   112685680.266       -1229.415          37.000  
  21557181.114   113283673.328       -1229.722          47.000  
  21545064.873   113220083.846       -1229.872          42.000  
  21635614.618   113695950.671       -1230.109          35.000  
  21557128.461   113283403.772       -1229.664          49.000  
  21441322.104   112674926.309       -1229.901          42.000  
  21457443.768   112759633.926       -1230.277          36.000  
  21632391.810   113678976.393       -1229.662          36.000  
  21692175.454   113993146.829       -1230.003          39.000  
  21596056.608   113488030.751       -1229.972          35.000  
  21557077.012   113283202.385       -1229.838          49.000  
  21511361.753   113043000.291       -1229.884          39.000  
  21605135.940   113535789.274       -1229.835          39.000  
  21501984.946   112993663.857       -1229.974          39.000  
  21671662.601   113885356.833       -1229.625          41.000  
  21605142.745   113535816.642       -1229.936          34.000  
  21498759.707   112976729.802       -1229.603          40.000  
  21584336.167   113426461.932       -1230.148          36.000  
  21619497.813   113611255.834       -1229.559          40.000  
  21520444.054   113090741.753       -1230.018          37.000  
  21563526.952   113317132.275       -1229.911          39.000  
 25  8 12  8 44 38.8000000  0 28G 5G 1G 2G 3G 4G18G28G31G 7G30G17G 6
                                G25G27G10G21G16G 8G13G15G32G20G29G 9
                                G24G19G12G23
  21557140.180   113283493.926       -1229.412          49.000  
  21557114.037   113283405.796       -1229.482          49.000  
  21557165.901   113283670.051       -1229.438          47.000  
  21557162.120   113283607.146       -1229.529          49.000  
  21557110.410   113283428.253       -1229.464          49.000  
  21591705.984   113465214.212       -1229.756          32.000  
  21463931.477   112793759.066       -1229.382          37.000  
  21443420.064   112685926.172       -1229.644          38.000  
  21557227.919   113283919.235       -1229.536          48.000  
  21545111.616   113220329.755       -1229.493          40.000  
  21635661.447   113696196.571       -1229.296          35.000  
  21557175.254   113283649.680       -1229.510          49.000  
  21441368.858   112675172.220       -1229.563          41.000  
  21457490.518   112759879.826       -1229.050          33.000  
  21632438.579   113679222.302       -1229.561          36.000  
  21692222.258   113993392.734       -1229.370          39.000  
  21596103.427   113488276.654       -1229.412          35.000  
  21557123.804   113283448.290       -1229.440          49.000  
  21511408.544   113043246.191       -1229.397          39.000  
  21605182.727   113536035.176       -1229.467          39.000  
  21502031.742   112993909.766       -1229.364          40.000  
  21671709.401   113885602.737       -1229.561          41.000  
  21605189.545   113536062.542       -1229.433          34.000  
  21498806.520   112976975.711       -1229.614          40.000  
  21584382.913   113426707.838       -1229.156          36.000  
  21619544.587   113611501.737       -1229.559          40.000  
  21520490.904   113090987.662       -1229.337          38.000  
  21563573.739   113317378.178       -1229.473          39.000  
 25  8 12  8 44 39.0000000  0 28G 5G 1G 2G 3G 4G18G28G31G 7G30G17G 6
                                G25G27G10G21G16G 8G13G15G32G20G29G 9
                                G24G19G12G23
  21557187.384   113283739.826       -1229.736          49.000  
  21557160.795   113283651.689       -1229.636          49.000  
  21557212.711   113283915.945       -1229.663          47.000  
  21557208.926   113283853.040       -1229.656          49.000  
  21557157.216   113283674.147       -1229.684          49.000  
  21591752.742   113465460.092       -1229.741          32.000  
  21463978.302   112794004.956       -1229.559          37.000  
  21443466.868   112686172.052       -1229.609          38.000  
  21557274.754   113284165.125       -1229.658          48.000  
  21545158.442   113220575.638       -1229.556          40.000  
  21635708.276   113696442.496       -1230.015          35.000  
  21557222.051   113283895.577       -1229.722          49.000  
  21441415.649   112675418.088       -1229.371          41.000  
  21457537.292   112760125.757       -1229.988          34.000  
  21632485.342   113679468.184       -1229.620          36.000  
  21692269.060   113993638.638       -1229.776          39.000  
  21596150.284   113488522.571       -1230.013          35.000  
  21557170.606   113283694.192       -1229.761          49.000  
  21511455.348   113043492.099       -1229.827          39.000  
  21605229.531   113536281.078       -1229.792          39.000  
  21502078.573   112994155.665       -1229.655          40.000  
  21671756.192   113885848.624       -1229.645          41.000  
  21605236.318   113536308.448       -1229.851          34.000  
  21498853.314   112977221.597       -1229.667          40.000  
  21584429.709   113426953.772       -1230.164          36.000  
  21619591.373   113611747.624       -1229.598          40.000  
  21520537.658   113091233.563       -1229.716          38.000  
  21563620.505   113317624.073       -1229.705          39.000  
 25  8 12  8 44 39.2000000  0 28G 5G 1G 2G 3G 4G18G28G31G 7G30G17G 6
                                G25G27G10G21G16G 8G13G15G32G20G29G 9
                                G24G19G12G23
  21557234.521   113283985.716       -1229.513          49.000  
  21557207.549   113283897.588       -1229.568          49.000  
  21557259.490   113284161.841       -1229.530          47.000  
  21557255.717   113284098.936       -1229.587          49.000  
  21557203.997   113283920.043       -1229.570          49.000  
  21591799.510   113465705.978       -1229.275          32.000  
  21464025.118   112794250.855       -1229.480          37.000  
  21443513.634   112686417.953       -1229.496          38.000  
  21557321.570   113284411.023       -1229.543          47.000  
  21545205.230   113220821.542       -1229.485          40.000  
  21635755.086   113696688.369       -1229.630          35.000  
  21557268.829   113284141.471       -1229.596          49.000  
  21441462.428   112675664.005       -1229.476          41.000  
  21457584.035   112760371.624       -1229.448          34.000  
  21632532.077   113679714.088       -1229.439          36.000  
  21692315.849   113993884.530       -1229.581          39.000  
  21596197.076   113488768.443       -1229.629          35.000  
  21557217.411   113283940.083       -1229.585          49.000  
  21511502.115   113043737.987       -1229.602          39.000  
  21605276.312   113536526.964       -1229.573          39.000  
  21502125.352   112994401.557       -1229.510          40.000  
  21671802.967   113886094.522       -1229.522          41.000  
  21605283.105   113536554.330       -1229.495          34.000  
  21498900.092   112977467.496       -1229.524          40.000  
  21584476.437   113427199.634       -1229.603          36.000  
  21619638.150   113611993.522       -1229.484          39.000  
  21520584.465   113091479.459       -1229.597          38.000  
  21563667.291   113317869.968       -1229.510          39.000  
 25  8 12  8 44 39.4000000  0 28G 5G 1G 2G 3G 4G18G28G31G 7G30G17G 6
                                G25G27G10G21G16G 8G13G15G32G20G29G 9
                                G24G19G12G23
  21557281.705   113284231.627       -1229.578          49.000  
  21557254.342   113284143.497       -1229.678          49.000  
  21557306.417   113284407.753       -1229.642          47.000  
  21557302.507   113284344.845       -1229.664          49.000  
  21557250.792   113284165.952       -1229.651          49.000  
  21591846.277   113465951.894       -1229.493          32.000  
  21464071.895   112794496.768       -1229.672          37.000  
  21443560.436   112686663.866       -1229.668          38.000  
  21557368.363   113284656.932       -1229.609          47.000  
  21545252.060   113221067.457       -1229.768          40.000  
  21635801.876   113696934.272       -1229.360          35.000  
  21557315.627   113284387.379       -1229.658          49.000  
  21441509.256   112675909.919       -1229.811          41.000  
  21457630.820   112760617.537       -1229.382          34.000  
  21632578.924   113679960.003       -1229.802          36.000  
  21692362.642   113994130.439       -1229.664          39.000  
  21596243.896   113489014.346       -1229.364          35.000  
  21557264.204   113284185.990       -1229.579          49.000  
  21511548.905   113043983.891       -1229.528          39.000  
  21605323.124   113536772.874       -1229.532          39.000  
  21502172.144   112994647.469       -1229.650          40.000  
  21671849.796   113886340.435       -1229.707          41.000  
  21605329.951   113536800.238       -1229.408          34.000  
  21498946.919   112977713.405       -1229.630          40.000  
  21584523.236   113427445.537       -1229.312          36.000  
  21619684.922   113612239.436       -1229.722          39.000  
  21520631.215   113091725.368       -1229.650          38.000  
  21563714.106   113318115.874       -1229.565          39.000  
 25  8 12  8 44 39.6000000  0 28G 5G 1G 2G 3G 4G18G28G31G 7G30G17G 6
                                G25G27G10G21G16G 8G13G15G32G20G29G 9
                                G24G19G12G23
  21557328.796   113284477.518       -1229.484          49.000  
  21557301.152   113284389.385       -1229.536          49.000  
  21557353.162   113284653.643       -1229.515          47.000  
  21557349.294   113284590.739       -1229.557          49.000  
  21557297.583   113284411.845       -1229.534          49.000  
  21591893.020   113466197.795       -1229.452          33.000  
  21464118.646   112794742.647       -1229.380          37.000  
  21443607.217   112686909.749       -1229.491          38.000  
  21557415.198   113284902.819       -1229.451          47.000  
  21545298.828   113221313.335       -1229.424          42.000  
  21635848.671   113697180.167       -1229.539          35.000  
  21557362.427   113284633.275       -1229.552          49.000  
  21441556.044   112676155.809       -1229.366          41.000  
  21457677.594   112760863.424       -1229.454          34.000  
  21632625.713   113680205.888       -1229.465          36.000  
  21692409.459   113994376.344       -1229.598          39.000  
  21596290.698   113489260.276       -1229.747          35.000  
  21557311.007   113284431.886       -1229.574          49.000  
  21511595.689   113044229.787       -1229.604          39.000  
  21605369.942   113537018.767       -1229.542          39.000  
  21502218.909   112994893.345       -1229.469          40.000  
  21671896.545   113886586.322       -1229.406          41.000  
  21605376.722   113537046.140       -1229.378          34.000  
  21498993.696   112977959.301       -1229.456          40.000  
  21584570.022   113427691.415       -1229.492          36.000  
  21619731.704   113612485.331       -1229.428          39.000  
  21520678.013   113091971.224       -1229.412          38.000  
  21563760.937   113318361.747       -1229.325          39.000  
 25  8 12  8 44 39.8000000  0 28G 5G 1G 2G 3G 4G18G28G31G 7G30G17G 6
                                G25G27G10G21G16G 8G13G15G32G20G29G 9
                                G24G19G12G23
  21557375.747   113284723.435       -1229.330          49.000  
  21557347.919   113284635.292       -1229.379          49.000  
  21557399.826   113284899.553       -1229.329          47.000  
  21557396.071   113284836.645       -1229.398          49.000  
  21557344.370   113284657.752       -1229.344          49.000  
  21591939.736   113466443.700       -1229.354          33.000  
  21464165.469   112794988.555       -1229.266          37.000  
  21443654.043   112687155.654       -1229.244          38.000  
  21557461.994   113285148.732       -1229.326          47.000  
  21545345.624   113221559.245       -1229.297          42.000  
  21635895.424   113697426.086       -1229.294          35.000  
  21557409.222   113284879.180       -1229.332          49.000  
  21441602.852   112676401.711       -1229.293          41.000  
  21457724.483   112761109.339       -1229.313          34.000  
  21632672.552   113680451.792       -1229.282          36.000  
  21692456.286   113994622.253       -1229.377          39.000  
  21596337.441   113489506.186       -1229.334          34.000  
  21557357.814   113284677.794       -1229.329          49.000  
  21511642.488   113044475.696       -1229.264          39.000  
  21605416.724   113537264.683       -1229.387          39.000  
  21502265.726   112995139.260       -1229.327          40.000  
  21671943.369   113886832.231       -1229.287          41.000  
  21605423.574   113537292.051       -1229.399          34.000  
  21499040.507   112978205.213       -1229.387          40.000  
  21584616.869   113427937.349       -1229.269          36.000  
  21619778.497   113612731.242       -1229.373          40.000  
  21520724.783   113092217.140       -1229.220          38.000  
  21563807.704   113318607.668       -1229.340          39.000  
 25  8 12  8 44 40.0000000  0 28G 5G 1G 2G 3G 4G18G28G31G 7G30G17G 6
                                G25G27G10G21G16G 8G13G15G32G20G29G 9
                                G24G19G12G23
  21557422.538   113284969.311       -1229.633          49.000  
  21557394.692   113284881.170       -1229.482          49.000  
  21557446.624   113285145.433       -1229.603          47.000  
  21557442.871   113285082.522       -1229.476          49.000  
  21557391.192   113284903.633       -1229.557          49.000  
  21591986.541   113466689.581       -1229.641          34.000  
  21464212.234   112795234.439       -1229.655          37.000  
  21443700.856   112687401.536       -1229.557          38.000  
  21557508.789   113285394.609       -1229.584          47.000  
  21545392.385   113221805.125       -1229.583          42.000  
  21635942.187   113697671.965       -1229.587          35.000  
  21557456.024   113285125.060       -1229.518          49.000  
  21441649.603   112676647.592       -1229.536          41.000  
  21457771.199   112761355.221       -1229.650          34.000  
  21632719.427   113680697.673       -1229.587          36.000  
  21692503.086   113994868.132       -1229.595          39.000  
  21596384.163   113489752.067       -1229.705          34.000  
  21557404.604   113284923.675       -1229.576          49.000  
  21511689.284   113044721.575       -1229.584          39.000  
  21605463.510   113537510.559       -1229.614          39.000  
  21502312.524   112995385.140       -1229.617          40.000  
  21671990.163   113887078.111       -1229.527          41.000  
  21605470.396   113537537.930       -1229.670          35.000  
  21499087.270   112978451.090       -1229.618          40.000  
  21584663.708   113428183.225       -1229.685          36.000  
  21619825.299   113612977.119       -1229.582          40.000  
  21520771.563   113092463.019       -1229.606          38.000  
  21563854.468   113318853.544       -1229.602          39.000  
 25  8 12  8 44 40.2000000  0 28G 5G 1G 2G 3G 4G18G28G31G 7G30G17G 6
                                G25G27G10G21G16G 8G13G15G32G20G29G 9
                                G24G19G12G23
  21557469.558   113285215.184       -1229.288          49.000  
  21557441.445   113285127.052       -1229.419          49.000  
  21557493.478   113285391.308       -1229.353          47.000  
  21557489.671   113285328.404       -1229.446          49.000  
  21557437.959   113285149.509       -1229.368          49.000  
  21592033.312   113466935.460       -1229.266          34.000  
  21464259.012   112795480.317       -1229.354          37.000  
  21443747.665   112687647.415       -1229.318          38.000  
  21557555.596   113285640.485       -1229.327          47.000  
  21545439.234   113222051.005       -1229.344          42.000  
  21635988.933   113697917.826       -1229.059          35.000  
  21557502.821   113285370.938       -1229.373          49.000  
  21441696.381   112676893.480       -1229.375          41.000  
  21457817.992   112761601.091       -1229.286          34.000  
  21632766.234   113680943.553       -1229.367          36.000  
  21692549.882   113995114.003       -1229.321          39.000  
  21596430.944   113489997.921       -1229.192          34.000  
  21557451.398   113285169.548       -1229.341          49.000  
  21511736.087   113044967.443       -1229.215          39.000  
  21605510.277   113537756.432       -1229.336          39.000  
  21502359.319   112995631.015       -1229.347          40.000  
  21672036.978   113887323.992       -1229.385          41.000  
  21605517.189   113537783.805       -1229.247          35.000  
  21499134.091   112978696.964       -1229.265          40.000  
  21584710.551   113428429.083       -1229.137          36.000  
  21619872.100   113613222.999       -1229.340          40.000  
  21520818.304   113092708.893       -1229.249          38.000  
  21563901.207   113319099.424       -1229.380          39.000  
 25  8 12  8 44 40.4000000  0 28G 5G 1G 2G 3G 4G18G28G31G 7G30G17G 6
                                G25G27G10G21G16G 8G13G15G32G20G29G 9
                                G24G19G12G23
  21557516.486   113285461.079       -1229.478          49.000  
  21557488.201   113285372.939       -1229.432          49.000  
  21557540.230   113285637.200       -1229.437          47.000  
  21557536.463   113285574.291       -1229.453          49.000  
  21557484.770   113285395.402       -1229.457          49.000  
  21592080.077   113467181.353       -1229.471          34.000  
  21464305.786   112795726.207       -1229.358          37.000  
  21443794.474   112687893.308       -1229.436          38.000  
  21557602.356   113285886.377       -1229.417          47.000  
  21545486.022   113222296.894       -1229.424          42.000  
  21636035.671   113698163.726       -1229.410          35.000  
  21557549.621   113285616.829       -1229.458          49.000  
  21441743.173   112677139.367       -1229.371          41.000  
  21457864.769   112761846.991       -1229.528          35.000  
  21632813.047   113681189.440       -1229.373          36.000  
  21692596.684   113995359.899       -1229.482          39.000  
  21596477.671   113490243.823       -1229.486          34.000  
  21557498.188   113285415.442       -1229.463          49.000  
  21511782.866   113045213.345       -1229.510          38.000  
  21605557.091   113538002.327       -1229.462          39.000  
  21502406.086   112995876.911       -1229.510          40.000  
  21672083.760   113887569.884       -1229.475          41.000  
  21605564.001   113538029.702       -1229.429          35.000  
  21499180.859   112978942.861       -1229.462          40.000  
  21584757.350   113428674.986       -1229.481          35.000  
  21619918.861   113613468.890       -1229.438          40.000  
  21520865.142   113092954.790       -1229.463          38.000  
  21563948.007   113319345.314       -1229.424          39.000  
 25  8 12  8 44 40.6000000  0 28G 5G 1G 2G 3G 4G18G28G31G 7G30G17G 6
                                G25G27G10G21G16G 8G13G15G32G20G29G 9
                                G24G19G12G23
  21557563.318   113285706.956       -1229.580          49.000  
  21557534.933   113285618.819       -1229.563          49.000  
  21557586.997   113285883.078       -1229.578          47.000  
  21557583.256   113285820.170       -1229.537          49.000  
  21557531.586   113285641.279       -1229.565          49.000  
  21592126.812   113467427.227       -1229.597          34.000  
  21464352.610   112795972.083       -1229.657          37.000  
  21443841.311   112688139.184       -1229.612          38.000  
  21557649.134   113286132.256       -1229.606          47.000  
  21545532.849   113222542.771       -1229.637          42.000  
  21636082.449   113698409.610       -1229.516          35.000  
  21557596.409   113285862.708       -1229.551          49.000  
  21441790.007   112677385.241       -1229.623          41.000  
  21457911.509   112762092.861       -1229.596          34.000  
  21632859.861   113681435.320       -1229.582          36.000  
  21692643.483   113995605.778       -1229.597          39.000  
  21596524.401   113490489.706       -1229.592          34.000  
  21557544.994   113285661.321       -1229.585          49.000  
  21511829.646   113045459.218       -1229.525          38.000  
  21605603.858   113538248.205       -1229.616          39.000  
  21502452.901   112996122.784       -1229.552          40.000  
  21672130.578   113887815.760       -1229.627          41.000  
  21605610.810   113538275.574       -1229.639          35.000  
  21499227.641   112979188.736       -1229.606          40.000  
  21584804.166   113428920.863       -1229.475          35.000  
  21619965.705   113613714.765       -1229.602          40.000  
  21520911.905   113093200.665       -1229.586          38.000  
  21563994.815   113319591.192       -1229.652          39.000  
 25  8 12  8 44 40.8000000  0 28G 5G 1G 2G 3G 4G18G28G31G 7G30G17G 6
                                G25G27G10G21G16G 8G13G15G32G20G29G 9
                                G24G19G12G23
  21557610.196   113285952.867       -1229.606          49.000  
  21557581.694   113285864.734       -1229.718          49.000  
  21557633.915   113286128.993       -1229.692          47.000  
  21557630.058   113286066.084       -1229.658          49.000  
  21557578.372   113285887.194       -1229.713          49.000  
  21592173.520   113467673.142       -1229.666          34.000  
  21464399.367   112796218.001       -1229.816          37.000  
  21443888.083   112688385.103       -1229.794          38.000  
  21557695.961   113286378.171       -1229.698          47.000  
  21545579.607   113222788.691       -1229.792          42.000  
  21636129.218   113698655.515       -1229.452          35.000  
  21557643.199   113286108.623       -1229.692          49.000  
  21441836.743   112677631.162       -1229.879          41.000  
  21457958.355   112762338.773       -1229.565          34.000  
  21632906.710   113681681.237       -1229.764          36.000  
  21692690.286   113995851.689       -1229.612          39.000  
  21596571.141   113490735.613       -1229.506          33.000  
  21557591.791   113285907.231       -1229.620          49.000  
  21511876.445   113045705.132       -1229.579          38.000  
  21605650.642   113538494.114       -1229.604          39.000  
  21502499.652   112996368.702       -1229.719          40.000  
  21672177.362   113888061.673       -1229.697          41.000  
  21605657.687   113538521.496       -1229.850          35.000  
  21499274.367   112979434.651       -1229.700          40.000  
  21584850.969   113429166.773       -1229.436          35.000  
  21620012.508   113613960.684       -1229.778          40.000  
  21520958.731   113093446.579       -1229.645          38.000  
  21564041.579   113319837.108       -1229.733          39.000  
 25  8 12  8 44 41.0000000  0 28G 5G 1G 2G 3G 4G18G28G31G 7G30G17G 6
                                G25G27G10G21G16G 8G13G15G32G20G29G 9
                                G24G19G12G23
  21557657.397   113286198.778       -1229.635          49.000  
  21557628.461   113286110.646       -1229.622          49.000  
  21557680.678   113286374.903       -1229.602          47.000  
  21557676.857   113286311.998       -1229.641          49.000  
  21557625.162   113286133.105       -1229.623          49.000  
  21592220.328   113467919.052       -1229.463          34.000  
  21464446.201   112796463.914       -1229.562          37.000  
  21443934.908   112688631.014       -1229.567          38.000  
  21557742.764   113286624.084       -1229.615          47.000  
  21545626.423   113223034.605       -1229.539          42.000  
  21636176.023   113698901.420       -1229.803          35.000  
  21557689.987   113286354.535       -1229.641          49.000  
  21441883.571   112677877.076       -1229.486          41.000  
  21458005.152   112762584.677       -1229.601          35.000  
  21632953.487   113681927.152       -1229.488          36.000  
  21692737.092   113996097.602       -1229.691          39.000  
  21596617.972   113490981.515       -1229.877          34.000  
  21557638.595   113286153.143       -1229.629          49.000  
  21511923.255   113045951.043       -1229.722          38.000  
  21605697.438   113538740.026       -1229.687          39.000  
  21502546.452   112996614.612       -1229.609          40.000  
  21672224.198   113888307.588       -1229.625          41.000  
  21605704.456   113538767.404       -1229.575          35.000  
  21499321.209   112979680.564       -1229.655          40.000  
  21584897.758   113429412.679       -1229.771          35.000  
  21620059.301   113614206.596       -1229.603          40.000  
  21521005.476   113093692.494       -1229.634          38.000  
  21564088.367   113320083.020       -1229.540          39.000  
 25  8 12  8 44 41.2000000  0 28G 5G 1G 2G 3G 4G18G28G31G 7G30G17G 6
                                G25G27G10G21G16G 8G13G15G32G20G29G 9
                                G24G19G12G23
  21557704.580   113286444.658       -1229.379          49.000  
  21557675.218   113286356.529       -1229.423          49.000  
  21557727.509   113286620.785       -1229.392          47.000  
  21557723.659   113286557.881       -1229.443          49.000  
  21557671.946   113286378.987       -1229.424          49.000  
  21592267.093   113468164.940       -1229.375          34.000  
  21464492.993   112796709.797       -1229.377          37.000  
  21443981.668   112688876.899       -1229.485          38.000  
  21557789.611   113286869.965       -1229.404          47.000  
  21545673.217   113223280.489       -1229.423          42.000  
  21636222.847   113699147.297       -1229.348          35.000  
  21557736.771   113286600.417       -1229.418          49.000  
  21441930.337   112678122.961       -1229.358          41.000  
  21458051.966   112762830.561       -1229.315          35.000  
  21633000.228   113682173.041       -1229.448          36.000  
  21692783.893   113996343.480       -1229.398          39.000  
  21596664.790   113491227.391       -1229.363          34.000  
  21557685.386   113286399.025       -1229.417          49.000  
  21511970.037   113046196.921       -1229.420          38.000  
  21605744.220   113538985.905       -1229.370          39.000  
  21502593.255   112996860.497       -1229.436          40.000  
  21672270.972   113888553.468       -1229.371          41.000  
  21605751.199   113539013.284       -1229.344          35.000  
  21499368.006   112979926.443       -1229.446          40.000  
  21584944.533   113429658.556       -1229.414          36.000  
  21620106.065   113614452.477       -1229.364          40.000  
  21521052.317   113093938.373       -1229.365          38.000  
  21564135.151   113320328.901       -1229.365          39.000  
 25  8 12  8 44 41.4000000  0 28G 5G 1G 2G 3G 4G18G28G31G 7G30G17G 6
                                G25G27G10G21G16G 8G13G15G32G20G29G 9
                                G24G19G12G23
  21557751.565   113286690.571       -1229.468          49.000  
  21557721.989   113286602.440       -1229.481          49.000  
  21557774.324   113286866.694       -1229.485          47.000  
  21557770.462   113286803.789       -1229.456          49.000  
  21557718.733   113286624.895       -1229.457          49.000  
  21592313.887   113468410.847       -1229.498          33.000  
  21464539.777   112796955.696       -1229.457          37.000  
  21444028.459   112689122.804       -1229.446          38.000  
  21557836.380   113287115.882       -1229.463          47.000  
  21545720.043   113223526.403       -1229.493          42.000  
  21636269.646   113699393.213       -1229.481          35.000  
  21557783.566   113286846.327       -1229.463          49.000  
  21441977.159   112678368.854       -1229.420          41.000  
  21458098.741   112763076.469       -1229.486          35.000  
  21633047.003   113682418.962       -1229.494          37.000  
  21692830.677   113996589.368       -1229.391          39.000  
  21596711.615   113491473.299       -1229.393          34.000  
  21557732.184   113286644.939       -1229.465          49.000  
  21512016.874   113046442.832       -1229.435          38.000  
  21605791.031   113539231.816       -1229.470          39.000  
  21502640.069   112997106.404       -1229.456          40.000  
  21672317.787   113888799.377       -1229.452          41.000  
  21605797.904   113539259.187       -1229.476          35.000  
  21499414.836   112980172.334       -1229.410          40.000  
  21584991.339   113429904.482       -1229.512          36.000  
  21620152.894   113614698.382       -1229.475          40.000  
  21521099.119   113094184.291       -1229.478          38.000  
  21564181.936   113320574.816       -1229.474          39.000  
 25  8 12  8 44 41.6000000  0 28G 5G 1G 2G 3G 4G18G28G31G 7G30G17G 6
                                G25G27G10G21G16G 8G13G15G32G20G29G 9
                                G24G19G12G23
  21557798.246   113286936.465       -1229.691          49.000  
  21557768.781   113286848.337       -1229.657          49.000  
  21557821.048   113287112.589       -1229.644          47.000  
  21557817.267   113287049.689       -1229.684          49.000  
  21557765.560   113286870.794       -1229.683          49.000  
  21592360.701   113468656.744       -1229.680          33.000  
  21464586.574   112797201.594       -1229.644          37.000  
  21444075.206   112689368.701       -1229.644          38.000  
  21557883.176   113287361.777       -1229.705          47.000  
  21545766.832   113223772.297       -1229.678          41.000  
  21636316.444   113699639.106       -1229.675          35.000  
  21557830.356   113287092.225       -1229.670          49.000  
  21442023.928   112678614.755       -1229.657          42.000  
  21458145.541   112763322.367       -1229.663          35.000  
  21633093.784   113682664.855       -1229.722          37.000  
  21692877.473   113996835.267       -1229.602          39.000  
  21596758.431   113491719.197       -1229.616          35.000  
  21557778.992   113286890.834       -1229.664          49.000  
  21512063.669   113046688.727       -1229.644          39.000  
  21605837.827   113539477.710       -1229.682          39.000  
  21502686.899   112997352.299       -1229.685          40.000  
  21672364.593   113889045.274       -1229.702          41.000  
  21605844.624   113539505.087       -1229.673          35.000  
  21499461.634   112980418.234       -1229.629          40.000  
  21585038.083   113430150.378       -1229.812          36.000  
  21620199.666   113614944.277       -1229.668          40.000  
  21521145.964   113094430.183       -1229.727          38.000  
  21564228.780   113320820.709       -1229.611          39.000  
 25  8 12  8 44 41.8000000  0 28G 5G 1G 2G 3G 4G18G28G31G 7G30G17G 6
                                G25G27G10G21G16G 8G13G15G32G20G29G 9
                                G24G19G12G23
  21557844.855   113287182.387       -1229.453          49.000  
  21557815.551   113287094.260       -1229.661          49.000  
  21557867.927   113287358.512       -1229.595          47.000  
  21557864.051   113287295.604       -1229.515          49.000  
  21557812.321   113287116.714       -1229.587          49.000  
  21592407.437   113468902.665       -1229.544          33.000  
  21464633.374   112797447.524       -1229.913          37.000  
  21444122.059   112689614.630       -1229.833          38.000  
  21557929.951   113287607.697       -1229.601          47.000  
  21545813.646   113224018.222       -1229.856          42.000  
  21636363.190   113699885.028       -1229.224          35.000  
  21557877.161   113287338.144       -1229.508          49.000  
  21442070.767   112678860.680       -1230.010          42.000  
  21458192.360   112763568.294       -1229.786          35.000  
  21633140.602   113682910.777       -1229.827          37.000  
  21692924.274   113997081.191       -1229.424          39.000  
  21596805.208   113491965.117       -1229.116          34.000  
  21557825.796   113287136.755       -1229.481          49.000  
  21512110.489   113046934.650       -1229.468          39.000  
  21605884.621   113539723.632       -1229.487          39.000  
  21502733.698   112997598.225       -1229.640          40.000  
  21672411.416   113889291.196       -1229.741          41.000  
  21605891.455   113539751.010       -1229.601          34.000  
  21499508.435   112980664.160       -1229.580          40.000  
  21585084.881   113430396.287       -1228.898          36.000  
  21620246.519   113615190.201       -1229.759          40.000  
  21521192.726   113094676.104       -1229.468          38.000  
  21564275.582   113321066.637       -1229.681          39.000  
 25  8 12  8 44 42.0000000  0 28G 5G 1G 2G 3G 4G18G28G31G 7G30G17G 6
                                G25G27G10G21G16G 8G13G15G32G20G29G 9
                                G24G19G12G23
  21557891.446   113287428.290       -1229.718          49.000  
  21557862.302   113287340.152       -1229.535          49.000  
  21557914.656   113287604.407       -1229.583          47.000  
  21557910.841   113287541.504       -1229.554          49.000  
  21557859.130   113287362.609       -1229.562          49.000  
  21592454.240   113469148.572       -1229.779          33.000  
  21464680.214   112797693.398       -1229.437          37.000  
  21444168.879   112689860.509       -1229.463          38.000  
  21557976.776   113287853.592       -1229.576          47.000  
  21545860.415   113224264.102       -1229.465          42.000  
  21636410.019   113700130.947       -1229.858          36.000  
  21557923.954   113287584.044       -1229.573          49.000  
  21442117.542   112679106.554       -1229.381          42.000  
  21458239.161   112763814.181       -1229.600          35.000  
  21633187.384   113683156.656       -1229.478          37.000  
  21692971.086   113997327.094       -1229.717          39.000  
  21596852.044   113492211.039       -1229.865          34.000  
  21557872.603   113287382.656       -1229.611          49.000  
  21512157.265   113047180.554       -1229.697          39.000  
  21605931.384   113539969.533       -1229.676          39.000  
  21502780.463   112997844.117       -1229.589          40.000  
  21672458.196   113889537.084       -1229.506          41.000  
  21605938.218   113539996.909       -1229.701          34.000  
  21499555.231   112980910.056       -1229.680          40.000  
  21585131.627   113430642.221       -1230.016          35.000  
  21620293.305   113615436.088       -1229.572          40.000  
  21521239.559   113094922.006       -1229.728          38.000  
  21564322.368   113321312.525       -1229.565          39.000  
 25  8 12  8 44 42.2000000  0 28G 5G 1G 2G 3G 4G18G28G31G 7G30G17G 6
                                G25G27G10G21G16G 8G13G15G32G20G29G 9
                                G24G19G12G23
  21557938.105   113287674.200       -1229.545          49.000  
  21557909.086   113287586.065       -1229.384          49.000  
  21557961.437   113287850.322       -1229.475          47.000  
  21557957.628   113287787.415       -1229.412          49.000  
  21557905.907   113287608.522       -1229.403          49.000  
  21592501.015   113469394.475       -1229.497          33.000  
  21464727.014   112797939.329       -1229.520          37.000  
  21444215.685   112690106.441       -1229.525          38.000  
  21558023.569   113288099.507       -1229.434          47.000  
  21545907.243   113224510.025       -1229.375          42.000  
  21636456.818   113700376.857       -1229.749          36.000  
  21557970.746   113287829.957       -1229.463          49.000  
  21442164.358   112679352.495       -1229.597          42.000  
  21458285.965   112764060.101       -1229.502          35.000  
  21633234.204   113683402.583       -1229.454          37.000  
  21693017.910   113997573.012       -1229.588          39.000  
  21596898.888   113492456.954       -1229.867          34.000  
  21557919.403   113287628.565       -1229.409          49.000  
  21512204.039   113047426.460       -1229.430          39.000  
  21605978.174   113540215.450       -1229.561          39.000  
  21502827.239   112998090.032       -1229.441          40.000  
  21672504.974   113889783.004       -1229.402          41.000  
  21605985.012   113540242.835       -1229.727          34.000  
  21499602.072   112981155.972       -1229.508          40.000  
  21585178.405   113430888.103       -1229.496          35.000  
  21620340.070   113615682.009       -1229.443          40.000  
  21521286.382   113095167.903       -1229.237          38.000  
  21564369.135   113321558.446       -1229.507          39.000  
 25  8 12  8 44 42.4000000  0 28G 5G 1G 2G 3G 4G18G28G31G 7G30G17G 6
                                G25G27G10G21G16G 8G13G15G32G20G29G 9
                                G24G19G12G23
  21557984.592   113287920.073       -1229.429          49.000  
  21557955.856   113287831.944       -1229.438          49.000  
  21558008.167   113288096.198       -1229.471          47.000  
  21558004.439   113288033.297       -1229.458          49.000  
  21557952.719   113287854.403       -1229.485          49.000  
  21592547.795   113469640.338       -1229.433          33.000  
  21464773.804   112798185.206       -1229.423          37.000  
  21444262.475   112690352.320       -1229.414          38.000  
  21558070.406   113288345.384       -1229.517          47.000  
  21545953.980   113224755.905       -1229.480          42.000  
  21636503.595   113700622.716       -1229.376          35.000  
  21558017.532   113288075.834       -1229.451          49.000  
  21442211.139   112679598.381       -1229.401          42.000  
  21458332.751   112764305.983       -1229.486          35.000  
  21633281.003   113683648.468       -1229.334          37.000  
  21693064.696   113997818.888       -1229.412          39.000  
  21596945.677   113492702.813       -1229.326          34.000  
  21557966.208   113287874.441       -1229.473          49.000  
  21512250.848   113047672.333       -1229.529          39.000  
  21606024.960   113540461.322       -1229.448          39.000  
  21502874.046   112998335.906       -1229.525          40.000  
  21672551.753   113890028.882       -1229.489          41.000  
  21606031.794   113540488.698       -1229.316          34.000  
  21499648.864   112981401.844       -1229.493          40.000  
  21585225.179   113431133.967       -1229.580          35.000  
  21620386.838   113615927.890       -1229.474          40.000  
  21521333.168   113095413.781       -1229.636          38.000  
  21564415.914   113321804.319       -1229.456          39.000  
 25  8 12  8 44 42.6000000  0 28G 5G 1G 2G 3G 4G18G28G31G 7G30G17G 6
                                G25G27G10G21G16G 8G13G15G32G20G29G 9
                                G24G19G12G23
  21558031.125   113288165.960       -1229.509          49.000  
  21558002.609   113288077.825       -1229.478          49.000  
  21558055.023   113288342.080       -1229.463          47.000  
  21558051.237   113288279.178       -1229.539          49.000  
  21557999.498   113288100.282       -1229.464          49.000  
  21592594.539   113469886.223       -1229.429          33.000  
  21464820.568   112798431.090       -1229.503          37.000  
  21444309.287   112690598.198       -1229.371          38.000  
  21558117.246   113288591.265       -1229.470          47.000  
  21546000.757   113225001.778       -1229.379          42.000  
  21636550.364   113700868.622       -1229.837          35.000  
  21558064.334   113288321.716       -1229.524          49.000  
  21442257.940   112679844.252       -1229.318          42.000  
  21458379.559   112764551.867       -1229.524          35.000  
  21633327.771   113683894.342       -1229.229          37.000  
  21693111.450   113998064.773       -1229.514          39.000  
  21596992.510   113492948.720       -1229.837          34.000  
  21558013.001   113288120.325       -1229.543          49.000  
  21512297.642   113047918.214       -1229.456          39.000  
  21606071.721   113540707.207       -1229.495          39.000  
  21502920.860   112998581.786       -1229.443          40.000  
  21672598.535   113890274.760       -1229.462          41.000  
  21606078.528   113540734.591       -1229.508          34.000  
  21499695.652   112981647.726       -1229.510          40.000  
  21585271.970   113431379.860       -1229.667          35.000  
  21620433.653   113616173.766       -1229.445          40.000  
  21521379.942   113095659.657       -1229.484          38.000  
  21564462.730   113322050.196       -1229.398          39.000  
 25  8 12  8 44 42.8000000  0 28G 5G 1G 2G 3G 4G18G28G31G 7G30G17G 6
                                G25G27G10G21G16G 8G13G15G32G20G29G 9
                                G24G19G12G23
  21558077.724   113288411.855       -1229.436          49.000  
  21558049.380   113288323.723       -1229.502          49.000  
  21558101.822   113288587.978       -1229.454          47.000  
  21558098.036   113288525.076       -1229.552          49.000  
  21558046.287   113288346.180       -1229.469          49.000  
  21592641.336   113470132.126       -1229.429          33.000  
  21464867.342   112798676.984       -1229.429          37.000  
  21444356.059   112690844.102       -1229.595          38.000  
  21558164.020   113288837.164       -1229.487          47.000  
  21546047.533   113225247.684       -1229.545          42.000  
  21636597.139   113701114.498       -1229.278          35.000  
  21558111.136   113288567.612       -1229.485          49.000  
  21442304.686   112680090.162       -1229.552          42.000  
  21458426.343   112764797.759       -1229.398          35.000  
  21633374.569   113684140.250       -1229.583          37.000  
  21693158.269   113998310.669       -1229.462          39.000  
  21597039.271   113493194.599       -1229.428          34.000  
  21558059.788   113288366.217       -1229.443          49.000  
  21512344.425   113048164.111       -1229.408          39.000  
  21606118.537   113540953.105       -1229.457          39.000  
  21502967.593   112998827.686       -1229.474          40.000  
  21672645.283   113890520.660       -1229.534          41.000  
  21606125.277   113540980.492       -1229.560          34.000  
  21499742.386   112981893.624       -1229.462          40.000  
  21585318.729   113431625.743       -1229.292          35.000  
  21620480.397   113616419.670       -1229.525          40.000  
  21521426.760   113095905.558       -1229.554          38.000  
  21564509.577   113322296.099       -1229.493          40.000  
 25  8 12  8 44 43.0000000  0 28G 5G 1G 2G 3G 4G18G28G31G 7G30G17G 6
                                G25G27G10G21G16G 8G13G15G32G20G29G 9
                                G24G19G12G23
  21558124.358   113288657.745       -1229.561          49.000  
  21558096.146   113288569.614       -1229.543          49.000  
  21558148.687   113288833.867       -1229.540          47.000  
  21558144.823   113288770.964       -1229.524          49.000  
  21558093.087   113288592.069       -1229.532          49.000  
  21592688.100   113470378.019       -1229.730          33.000  
  21464914.151   112798922.877       -1229.545          37.000  
  21444402.861   112691089.989       -1229.518          38.000  
  21558210.820   113289083.053       -1229.558          47.000  
  21546094.359   113225493.576       -1229.620          42.000  
  21636643.943   113701360.387       -1229.479          35.000  
  21558157.925   113288813.502       -1229.532          49.000  
  21442351.502   112680336.051       -1229.580          42.000  
  21458473.100   112765043.650       -1229.495          35.000  
  21633421.344   113684386.135       -1229.462          37.000  
  21693205.072   113998556.560       -1229.564          39.000  
  21597086.103   113493440.486       -1229.500          34.000  
  21558106.591   113288612.108       -1229.540          49.000  
  21512391.208   113048410.000       -1229.536          39.000  
  21606165.307   113541198.996       -1229.570          39.000  
  21503014.411   112999073.576       -1229.568          40.000  
  21672692.082   113890766.549       -1229.556          41.000  
  21606172.000   113541226.373       -1229.541          34.000  
  21499789.210   112982139.509       -1229.521          40.000  
  21585365.524   113431871.632       -1229.488          35.000  
  21620527.226   113616665.560       -1229.620          40.000  
  21521473.578   113096151.441       -1229.507          38.000  
  21564556.424   113322541.991       -1229.637          40.000  
 25  8 12  8 44 43.2000000  0 28G 5G 1G 2G 3G 4G18G28G31G 7G30G17G 6
                                G25G27G10G21G16G 8G13G15G32G20G29G 9
                                G24G19G12G23
  21558171.059   113288903.639       -1229.487          49.000  
  21558142.944   113288815.501       -1229.479          49.000  
  21558195.500   113289079.755       -1229.451          47.000  
  21558191.620   113289016.856       -1229.547          49.000  
  21558139.882   113288837.960       -1229.512          49.000  
  21592734.786   113470623.891       -1229.323          33.000  
  21464960.945   112799168.756       -1229.395          37.000  
  21444449.645   112691335.875       -1229.493          38.000  
  21558257.633   113289328.942       -1229.479          47.000  
  21546141.110   113225739.451       -1229.446          42.000  
  21636690.695   113701606.298       -1229.454          35.000  
  21558204.724   113289059.393       -1229.490          49.000  
  21442398.217   112680581.923       -1229.447          42.000  
  21458519.888   112765289.546       -1229.536          35.000  
  21633468.150   113684632.015       -1229.486          37.000  
  21693251.844   113998802.451       -1229.457          39.000  
  21597132.911   113493686.405       -1229.476          34.000  
  21558153.395   113288857.999       -1229.463          49.000  
  21512437.961   113048655.896       -1229.434          39.000  
  21606212.122   113541444.887       -1229.523          39.000  
  21503061.136   112999319.463       -1229.486          40.000  
  21672738.863   113891012.433       -1229.480          41.000  
  21606218.811   113541472.263       -1229.376          34.000  
  21499835.975   112982385.403       -1229.409          40.000  
  21585412.291   113432117.544       -1229.480          35.000  
  21620574.009   113616911.439       -1229.462          40.000  
  21521520.387   113096397.330       -1229.414          38.000  
  21564603.174   113322787.872       -1229.469          40.000  
 25  8 12  8 44 43.4000000  0 28G 5G 1G 2G 3G 4G18G28G31G 7G30G17G 6
                                G25G27G10G21G16G 8G13G15G32G20G29G 9
                                G24G19G12G23
  21558217.855   113289149.525       -1229.561          49.000  
  21558189.697   113289061.395       -1229.607          49.000  
  21558242.321   113289325.646       -1229.534          47.000  
  21558238.422   113289262.743       -1229.552          49.000  
  21558186.671   113289083.848       -1229.540          49.000  
  21592781.535   113470869.791       -1229.459          33.000  
  21465007.731   112799414.654       -1229.484          37.000  
  21444496.450   112691581.768       -1229.580          38.000  
  21558304.457   113289574.831       -1229.540          47.000  
  21546187.938   113225985.349       -1229.561          42.000  
  21636737.463   113701852.180       -1229.627          35.000  
  21558251.509   113289305.280       -1229.546          49.000  
  21442445.072   112680827.821       -1229.462          42.000  
  21458566.702   112765535.434       -1229.557          35.000  
  21633514.950   113684877.907       -1229.456          37.000  
  21693298.633   113999048.340       -1229.581          39.000  
  21597179.734   113493932.283       -1229.734          34.000  
  21558200.193   113289103.887       -1229.540          49.000  
  21512484.754   113048901.783       -1229.557          39.000  
  21606258.923   113541690.773       -1229.551          39.000  
  21503107.956   112999565.355       -1229.534          40.000  
  21672785.670   113891258.324       -1229.546          41.000  
  21606265.567   113541718.160       -1229.616          34.000  
  21499882.790   112982631.293       -1229.518          40.000  
  21585459.093   113432363.421       -1229.616          35.000  
  21620620.815   113617157.333       -1229.527          40.000  
  21521567.191   113096643.220       -1229.507          38.000  
  21564649.969   113323033.765       -1229.567          40.000  
 25  8 12  8 44 43.6000000  0 28G 5G 1G 2G 3G 4G18G28G31G 7G30G17G 6
                                G25G27G10G21G16G 8G13G15G32G20G29G 9
                                G24G19G12G23
  21558264.611   113289395.413       -1229.460          49.000  
  21558236.484   113289307.285       -1229.510          49.000  
  21558289.036   113289571.539       -1229.490          47.000  
  21558285.215   113289508.635       -1229.545          49.000  
  21558233.468   113289329.740       -1229.506          49.000  
  21592828.292   113471115.683       -1229.469          33.000  
  21465054.503   112799660.549       -1229.614          37.000  
  21444543.243   112691827.661       -1229.485          38.000  
  21558351.268   113289820.723       -1229.523          47.000  
  21546234.721   113226231.245       -1229.543          42.000  
  21636784.258   113702098.055       -1229.398          36.000  
  21558298.304   113289551.170       -1229.492          49.000  
  21442491.812   112681073.722       -1229.541          42.000  
  21458613.497   112765781.324       -1229.540          35.000  
  21633561.770   113685123.811       -1229.530          37.000  
  21693345.426   113999294.229       -1229.499          39.000  
  21597226.510   113494178.157       -1229.405          34.000  
  21558246.993   113289349.777       -1229.507          49.000  
  21512531.527   113049147.668       -1229.410          39.000  
  21606305.694   113541936.664       -1229.480          39.000  
  21503154.687   112999811.248       -1229.545          40.000  
  21672832.412   113891504.219       -1229.526          41.000  
  21606312.367   113541964.041       -1229.415          34.000  
  21499929.572   112982877.182       -1229.479          40.000  
  21585505.881   113432609.295       -1229.316          35.000  
  21620667.590   113617403.229       -1229.512          40.000  
  21521614.002   113096889.115       -1229.517          38.000  
  21564696.725   113323279.655       -1229.462          40.000  
 25  8 12  8 44 43.8000000  0 28G 5G 1G 2G 3G 4G18G28G31G 7G30G17G 6
                                G25G27G10G21G16G 8G13G15G32G20G29G 9
                                G24G19G12G23
  21558311.440   113289641.308       -1229.276          49.000  
  21558283.247   113289553.177       -1229.391          49.000  
  21558335.893   113289817.432       -1229.369          47.000  
  21558332.000   113289754.524       -1229.359          49.000  
  21558280.259   113289575.631       -1229.325          49.000  
  21592874.994   113471361.580       -1229.428          33.000  
  21465101.291   112799906.441       -1229.415          37.000  
  21444590.059   112692073.557       -1229.474          38.000  
  21558398.065   113290066.618       -1229.424          47.000  
  21546281.517   113226477.140       -1229.547          42.000  
  21636831.022   113702343.948       -1228.985          36.000  
  21558345.096   113289797.062       -1229.318          49.000  
  21442538.634   112681319.616       -1229.585          42.000  
  21458660.302   112766027.216       -1229.301          35.000  
  21633608.595   113685369.704       -1229.523          37.000  
  21693392.224   113999540.118       -1229.261          39.000  
  21597273.253   113494424.044       -1228.802          34.000  
  21558293.795   113289595.670       -1229.318          49.000  
  21512578.373   113049393.560       -1229.163          39.000  
  21606352.474   113542182.554       -1229.211          39.000  
  21503201.478   113000057.142       -1229.457          40.000  
  21672879.192   113891750.113       -1229.435          41.000  
  21606359.129   113542209.937       -1229.233          34.000  
  21499976.363   112983123.077       -1229.303          40.000  
  21585552.667   113432855.194       -1228.960          35.000  
  21620714.442   113617649.124       -1229.507          40.000  
  21521660.743   113097135.007       -1229.391          38.000  
  21564743.476   113323525.551       -1229.409          40.000  
 25  8 12  8 44 44.0000000  0 28G 5G 1G 2G 3G 4G18G28G31G 7G30G17G 6
                                G25G27G10G21G16G 8G13G15G32G20G29G 9
                                G24G19G12G23
  21558358.275   113289887.211       -1229.495          49.000  
  21558330.031   113289799.083       -1229.575          49.000  
  21558382.712   113290063.336       -1229.559          47.000  
  21558378.815   113290000.430       -1229.543          49.000  
  21558327.066   113289821.539       -1229.594          49.000  
  21592921.797   113471607.486       -1229.640          33.000  
  21465148.048   112800152.346       -1229.603          37.000  
  21444636.847   112692319.445       -1229.318          38.000  
  21558444.877   113290312.520       -1229.514          47.000  
  21546328.267   113226723.046       -1229.629          42.000  
  21636877.845   113702589.853       -1229.461          36.000  
  21558391.901   113290042.968       -1229.568          49.000  
  21442585.390   112681565.513       -1229.482          42.000  
  21458707.073   112766273.114       -1229.454          35.000  
  21633655.375   113685615.606       -1229.517          37.000  
  21693439.029   113999786.028       -1229.602          39.000  
  21597320.081   113494669.943       -1229.221          34.000  
  21558340.603   113289841.576       -1229.569          49.000  
  21512625.136   113049639.477       -1229.703          39.000  
  21606399.314   113542428.459       -1229.448          39.000  
  21503248.245   113000303.051       -1229.727          40.000  
  21672925.941   113891996.013       -1229.504          41.000  
  21606405.914   113542455.833       -1229.267          34.000  
  21500023.156   112983368.984       -1229.622          40.000  
  21585599.459   113433101.111       -1229.646          35.000  
  21620761.209   113617895.019       -1229.434          40.000  
  21521707.563   113097380.927       -1229.852          38.000  
  21564790.260   113323771.461       -1229.670          40.000  
 25  8 12  8 44 44.2000000  0 28G 5G 1G 2G 3G 4G18G28G31G 7G30G17G 6
                                G25G27G10G21G16G 8G13G15G32G20G29G 9
                                G24G19G12G23
  21558405.605   113290133.122       -1229.507          49.000  
  21558376.780   113290044.989       -1229.470          49.000  
  21558429.603   113290309.242       -1229.470          47.000  
  21558425.607   113290246.333       -1229.471          49.000  
  21558373.833   113290067.444       -1229.470          49.000  
  21592968.558   113471853.385       -1229.332          33.000  
  21465194.822   112800398.250       -1229.442          37.000  
  21444683.643   112692565.350       -1229.517          38.000  
  21558491.668   113290558.428       -1229.476          47.000  
  21546375.115   113226968.952       -1229.470          42.000  
  21636924.589   113702835.760       -1229.551          36.000  
  21558438.702   113290288.872       -1229.478          49.000  
  21442632.217   112681811.416       -1229.509          42.000  
  21458753.892   112766519.017       -1229.521          35.000  
  21633702.156   113685861.506       -1229.554          37.000  
  21693485.805   114000031.936       -1229.406          39.000  
  21597366.937   113494915.859       -1229.571          34.000  
  21558387.390   113290087.482       -1229.451          49.000  
  21512671.936   113049885.383       -1229.386          39.000  
  21606446.132   113542674.364       -1229.469          39.000  
  21503295.034   113000548.956       -1229.431          40.000  
  21672972.768   113892241.920       -1229.537          41.000  
  21606452.667   113542701.737       -1229.522          34.000  
  21500069.956   112983614.890       -1229.449          40.000  
  21585646.267   113433347.022       -1229.403          35.000  
  21620808.040   113618140.923       -1229.497          40.000  
  21521754.310   113097626.831       -1229.318          38.000  
  21564837.064   113324017.367       -1229.490          40.000  
 25  8 12  8 44 44.4000000  0 28G 5G 1G 2G 3G 4G18G28G31G 7G30G17G 6
                                G25G27G10G21G16G 8G13G15G32G20G29G 9
                                G24G19G12G23
  21558452.859   113290379.020       -1229.592          49.000  
  21558423.562   113290290.886       -1229.541          49.000  
  21558476.407   113290555.134       -1229.542          47.000  
  21558472.405   113290492.233       -1229.569          49.000  
  21558420.633   113290313.343       -1229.540          49.000  
  21593015.361   113472099.295       -1229.681          33.000  
  21465241.619   112800644.146       -1229.554          37.000  
  21444730.385   112692811.245       -1229.594          38.000  
  21558538.471   113290804.324       -1229.615          47.000  
  21546421.867   113227214.844       -1229.569          42.000  
  21636971.333   113703081.661       -1229.476          36.000  
  21558485.508   113290534.772       -1229.574          49.000  
  21442679.012   112682057.306       -1229.556          42.000  
  21458800.690   112766764.925       -1229.630          35.000  
  21633748.939   113686107.392       -1229.630          37.000  
  21693532.615   114000277.837       -1229.591          39.000  
  21597413.686   113495161.760       -1229.642          34.000  
  21558434.193   113290333.381       -1229.561          49.000  
  21512718.716   113050131.292       -1229.630          39.000  
  21606492.924   113542920.266       -1229.637          39.000  
  21503341.829   113000794.851       -1229.542          40.000  
  21673019.534   113892487.811       -1229.510          41.000  
  21606499.454   113542947.631       -1229.480          34.000  
  21500116.759   112983860.791       -1229.618          40.000  
  21585693.017   113433592.938       -1229.665          35.000  
  21620854.837   113618386.818       -1229.574          40.000  
  21521801.118   113097872.736       -1229.607          38.000  
  21564883.823   113324263.263       -1229.564          40.000  
 25  8 12  8 44 44.6000000  0 28G 5G 1G 2G 3G 4G18G28G31G 7G30G17G 6
                                G25G27G10G21G16G 8G13G15G32G20G29G 9
                                G24G19G12G23
  21558500.193   113290624.917       -1229.556          49.000  
  21558470.349   113290536.788       -1229.536          49.000  
  21558523.191   113290801.036       -1229.576          47.000  
  21558519.209   113290738.130       -1229.470          49.000  
  21558467.410   113290559.246       -1229.557          49.000  
  21593062.135   113472345.195       -1229.582          33.000  
  21465288.436   112800890.051       -1229.595          37.000  
  21444777.184   112693057.151       -1229.656          38.000  
  21558585.274   113291050.227       -1229.591          47.000  
  21546468.670   113227460.752       -1229.567          42.000  
  21637018.153   113703327.556       -1229.658          36.000  
  21558532.309   113290780.671       -1229.539          49.000  
  21442725.869   112682303.216       -1229.546          42.000  
  21458847.488   112767010.813       -1229.603          35.000  
  21633795.766   113686353.303       -1229.552          37.000  
  21693579.384   114000523.738       -1229.611          39.000  
  21597460.496   113495407.656       -1229.808          34.000  
  21558481.005   113290579.281       -1229.564          49.000  
  21512765.532   113050377.186       -1229.595          39.000  
  21606539.712   113543166.160       -1229.560          39.000  
  21503388.648   113001040.758       -1229.540          40.000  
  21673066.333   113892733.719       -1229.601          41.000  
  21606546.230   113543193.536       -1229.683          35.000  
  21500163.581   112984106.688       -1229.573          40.000  
  21585739.812   113433838.816       -1229.564          36.000  
  21620901.663   113618632.725       -1229.593          40.000  
  21521847.898   113098118.637       -1229.569          38.000  
  21564930.625   113324509.168       -1229.581          40.000  
 25  8 12  8 44 44.8000000  0 28G 5G 1G 2G 3G 4G18G28G31G 7G30G17G 6
                                G25G27G10G21G16G 8G13G15G32G20G29G 9
                                G24G19G12G23
  21558547.506   113290870.801       -1229.408          49.000  
  21558517.096   113290782.670       -1229.393          49.000  
  21558569.978   113291046.918       -1229.421          47.000  
  21558566.003   113290984.018       -1229.434          49.000  
  21558514.202   113290805.133       -1229.431          49.000  
  21593108.909   113472591.078       -1229.535          33.000  
  21465335.209   112801135.935       -1229.520          37.000  
  21444823.956   112693303.029       -1229.407          38.000  
  21558632.092   113291296.108       -1229.440          47.000  
  21546515.421   113227706.633       -1229.443          42.000  
  21637064.957   113703573.433       -1229.323          36.000  
  21558579.101   113291026.553       -1229.415          49.000  
  21442772.594   112682549.100       -1229.476          42.000  
  21458894.248   112767256.696       -1229.408          35.000  
  21633842.519   113686599.194       -1229.565          37.000  
  21693626.172   114000769.619       -1229.428          39.000  
  21597507.268   113495653.527       -1229.377          34.000  
  21558527.799   113290825.162       -1229.403          49.000  
  21512812.316   113050623.069       -1229.438          38.000  
  21606586.470   113543412.042       -1229.390          39.000  
  21503435.413   113001286.638       -1229.480          40.000  
  21673113.143   113892979.600       -1229.453          41.000  
  21606593.026   113543439.409       -1229.345          35.000  
  21500210.386   112984352.574       -1229.469          40.000  
  21585786.574   113434084.698       -1229.266          36.000  
  21620948.429   113618878.606       -1229.443          40.000  
  21521894.702   113098364.523       -1229.550          38.000  
  21564977.390   113324755.051       -1229.480          40.000  
 25  8 12  8 44 45.0000000  0 28G 5G 1G 2G 3G 4G18G28G31G 7G30G17G 6
                                G25G27G10G21G16G 8G13G15G32G20G29G 9
                                G24G19G12G23
  21558594.133   113291116.678       -1229.371          49.000  
  21558563.886   113291028.540       -1229.199          49.000  
  21558616.837   113291292.794       -1229.302          47.000  
  21558612.780   113291229.897       -1229.275          49.000  
  21558560.987   113291051.002       -1229.294          49.000  
  21593155.657   113472836.960       -1229.245          33.000  
  21465381.944   112801381.787       -1229.028          37.000  
  21444870.716   112693548.918       -1229.150          38.000  
  21558678.912   113291541.984       -1229.332          47.000  
  21546562.229   113227952.491       -1229.188          42.000  
  21637111.758   113703819.343       -1229.745          35.000  
  21558625.889   113291272.429       -1229.316          49.000  
  21442819.399   112682794.949       -1229.031          42.000  
  21458941.024   112767502.586       -1229.265          35.000  
  21633889.326   113686845.038       -1229.038          37.000  
  21693672.960   114001015.484       -1229.313          39.000  
  21597554.116   113495899.442       -1229.631          34.000  
  21558574.587   113291071.045       -1229.340          49.000  
  21512859.105   113050868.939       -1229.410          39.000  
  21606633.249   113543657.925       -1229.307          39.000  
  21503482.182   113001532.507       -1229.283          40.000  
  21673159.967   113893225.487       -1229.136          41.000  
  21606639.760   113543685.316       -1229.395          35.000  
  21500257.183   112984598.451       -1229.249          40.000  
  21585833.399   113434330.578       -1229.618          36.000  
  21620995.212   113619124.496       -1229.241          40.000  
  21521941.471   113098610.388       -1229.282          38.000  
  21565024.129   113325000.914       -1229.205          39.000  
 25  8 12  8 44 45.2000000  0 28G 5G 1G 2G 3G 4G18G28G31G 7G30G17G 6
                                G25G27G10G21G16G 8G13G15G32G20G29G 9
                                G24G19G12G23
  21558640.412   113291362.556       -1229.440          49.000  
  21558610.681   113291274.415       -1229.296          49.000  
  21558663.603   113291538.674       -1229.392          47.000  
  21558659.555   113291475.769       -1229.277          49.000  
  21558607.786   113291296.879       -1229.333          49.000  
  21593202.456   113473082.842       -1229.403          33.000  
  21465428.730   112801627.683       -1229.333          37.000  
  21444917.468   112693794.801       -1229.513          38.000  
  21558725.690   113291787.864       -1229.338          47.000  
  21546608.980   113228198.381       -1229.407          42.000  
  21637158.579   113704065.195       -1229.587          35.000  
  21558672.681   113291518.303       -1229.314          49.000  
  21442866.162   112683040.849       -1229.374          42.000  
  21458987.804   112767748.467       -1229.524          35.000  
  21633936.052   113687090.933       -1229.315          37.000  
  21693719.758   114001261.362       -1229.414          39.000  
  21597600.917   113496145.294       -1229.641          35.000  
  21558621.388   113291316.920       -1229.386          49.000  
  21512905.889   113051114.810       -1229.365          39.000  
  21606680.046   113543903.801       -1229.453          39.000  
  21503528.943   113001778.386       -1229.391          40.000  
  21673206.752   113893471.372       -1229.404          41.000  
  21606686.500   113543931.186       -1229.521          35.000  
  21500303.979   112984844.331       -1229.419          40.000  
  21585880.211   113434576.442       -1229.434          36.000  
  21621041.962   113619370.376       -1229.405          40.000  
  21521988.287   113098856.269       -1229.447          38.000  
  21565070.972   113325246.800       -1229.368          39.000  
 25  8 12  8 44 45.4000000  0 28G 5G 1G 2G 3G 4G18G28G31G 7G30G17G 6
                                G25G27G10G21G16G 8G13G15G32G20G29G 9
                                G24G19G12G23
  21558686.754   113291608.401       -1229.290          49.000  
  21558657.462   113291520.266       -1229.259          49.000  
  21558710.325   113291784.524       -1229.374          47.000  
  21558706.345   113291721.617       -1229.196          49.000  
  21558654.579   113291542.728       -1229.292          49.000  
  21593249.245   113473328.689       -1229.528          33.000  
  21465475.569   112801873.530       -1229.382          37.000  
  21444964.253   112694040.647       -1229.441          38.000  
  21558772.519   113292033.712       -1229.381          47.000  
  21546655.787   113228444.228       -1229.454          42.000  
  21637205.336   113704311.032       -1229.052          35.000  
  21558719.463   113291764.152       -1229.257          49.000  
  21442912.986   112683286.697       -1229.470          42.000  
  21459034.543   112767994.308       -1229.216          36.000  
  21633982.826   113687336.786       -1229.526          37.000  
  21693766.542   114001507.209       -1229.340          39.000  
  21597647.693   113496391.124       -1228.941          35.000  
  21558668.177   113291562.763       -1229.231          49.000  
  21512952.679   113051360.658       -1229.290          39.000  
  21606726.830   113544149.644       -1229.302          39.000  
  21503575.770   113002024.235       -1229.386          40.000  
  21673253.565   113893717.222       -1229.456          41.000  
  21606733.259   113544177.028       -1229.211          34.000  
  21500350.755   112985090.174       -1229.297          40.000  
  21585926.984   113434822.279       -1228.979          36.000  
  21621088.782   113619616.223       -1229.395          40.000  
  21522035.022   113099102.110       -1229.270          38.000  
  21565117.723   113325492.647       -1229.429          39.000  
 25  8 12  8 44 45.6000000  0 28G 5G 1G 2G 3G 4G18G28G31G 7G30G17G 6
                                G25G27G10G21G16G 8G13G15G32G20G29G 9
                                G24G19G12G23
  21558733.061   113291854.265       -1229.342          48.000  
  21558704.247   113291766.125       -1229.243          49.000  
  21558757.129   113292030.383       -1229.343          47.000  
  21558753.139   113291967.479       -1229.333          49.000  
  21558701.369   113291788.585       -1229.304          49.000  
  21593296.021   113473574.540       -1229.231          33.000  
  21465522.358   112802119.377       -1229.148          37.000  
  21445011.040   112694286.492       -1229.187          38.000  
  21558819.316   113292279.569       -1229.325          47.000  
  21546702.516   113228690.077       -1229.247          42.000  
  21637252.123   113704556.915       -1229.421          35.000  
  21558766.269   113292010.013       -1229.340          49.000  
  21442959.721   112683532.535       -1229.122          42.000  
  21459081.266   112768240.174       -1229.304          36.000  
  21634029.596   113687582.628       -1229.269          37.000  
  21693813.317   114001753.070       -1229.396          39.000  
  21597694.454   113496637.005       -1229.285          35.000  
  21558714.974   113291808.628       -1229.379          49.000  
  21512999.459   113051606.522       -1229.348          39.000  
  21606773.615   113544395.508       -1229.316          39.000  
  21503622.583   113002270.089       -1229.279          40.000  
  21673300.338   113893963.068       -1229.214          41.000  
  21606780.040   113544422.887       -1229.234          34.000  
  21500397.518   112985336.030       -1229.240          40.000  
  21585973.765   113435068.165       -1229.492          35.000  
  21621135.531   113619862.074       -1229.220          40.000  
  21522081.826   113099347.973       -1229.338          38.000  
  21565164.499   113325738.500       -1229.246          39.000  
 25  8 12  8 44 45.8000000  0 28G 5G 1G 2G 3G 4G18G28G31G 7G30G17G 6
                                G25G27G10G21G16G 8G13G15G32G20G29G 9
                                G24G19G12G23
  21558779.444   113292100.168       -1229.656          48.000  
  21558751.040   113292012.020       -1229.503          49.000  
  21558803.940   113292276.279       -1229.513          47.000  
  21558799.922   113292213.381       -1229.586          49.000  
  21558748.171   113292034.489       -1229.651          49.000  
  21593342.845   113473820.439       -1229.542          34.000  
  21465569.166   112802365.285       -1229.719          37.000  
  21445057.847   112694532.400       -1229.712          38.000  
  21558866.150   113292525.471       -1229.631          47.000  
  21546749.289   113228935.977       -1229.540          42.000  
  21637298.909   113704802.834       -1229.885          35.000  
  21558813.058   113292255.913       -1229.563          49.000  
  21443006.557   112683778.440       -1229.641          42.000  
  21459128.068   112768486.077       -1229.724          35.000  
  21634076.451   113687828.533       -1229.737          37.000  
  21693860.119   114001998.975       -1229.634          39.000  
  21597741.196   113496882.936       -1229.911          34.000  
  21558761.777   113292054.529       -1229.564          49.000  
  21513046.280   113051852.429       -1229.639          39.000  
  21606820.424   113544641.425       -1229.889          39.000  
  21503669.389   113002515.982       -1229.397          40.000  
  21673347.136   113894208.965       -1229.508          41.000  
  21606826.839   113544668.786       -1229.512          34.000  
  21500444.325   112985581.930       -1229.476          40.000  
  21586020.614   113435314.074       -1229.816          35.000  
  21621182.335   113620107.973       -1229.493          40.000  
  21522128.568   113099593.879       -1229.689          38.000  
  21565211.286   113325984.401       -1229.591          39.000  
 25  8 12  8 44 46.0000000  0 28G 5G 1G 2G 3G 4G18G28G31G 7G30G17G 6
                                G25G27G10G21G16G 8G13G15G32G20G29G 9
                                G24G19G12G23
  21558825.859   113292346.050       -1229.495          48.000  
  21558797.818   113292257.909       -1229.558          49.000  
  21558850.617   113292522.165       -1229.559          47.000  
  21558846.715   113292459.266       -1229.513          49.000  
  21558794.982   113292280.371       -1229.509          49.000  
  21593389.698   113474066.311       -1229.653          34.000  
  21465615.937   112802611.168       -1229.427          37.000  
  21445104.642   112694778.283       -1229.474          38.000  
  21558912.951   113292771.349       -1229.449          47.000  
  21546796.058   113229181.860       -1229.526          42.000  
  21637345.667   113705048.713       -1229.476          35.000  
  21558859.848   113292501.801       -1229.506          49.000  
  21443053.298   112684024.323       -1229.501          42.000  
  21459174.881   112768731.964       -1229.614          35.000  
  21634123.237   113688074.415       -1229.468          37.000  
  21693906.931   114002244.855       -1229.481          39.000  
  21597787.889   113497128.818       -1229.364          34.000  
  21558808.580   113292300.411       -1229.509          49.000  
  21513093.076   113052098.313       -1229.548          39.000  
  21606867.230   113544887.300       -1229.341          39.000  
  21503716.168   113002761.865       -1229.625          40.000  
  21673393.963   113894454.849       -1229.546          41.000  
  21606873.645   113544914.671       -1229.630          34.000  
  21500491.102   112985827.812       -1229.633          40.000  
  21586067.388   113435559.949       -1229.475          35.000  
  21621229.118   113620353.854       -1229.531          40.000  
  21522175.385   113099839.762       -1229.521          37.000  
  21565258.100   113326230.282       -1229.559          39.000  
 25  8 12  8 44 46.2000000  0 28G 5G 1G 2G 3G 4G18G28G31G 7G30G17G 6
                                G25G27G10G21G16G 8G13G15G32G20G29G 9
                                G24G19G12G23
  21558872.331   113292591.912       -1229.342          48.000  
  21558844.598   113292503.776       -1229.467          49.000  
  21558897.441   113292768.030       -1229.408          47.000  
  21558893.514   113292705.134       -1229.471          49.000  
  21558841.751   113292526.240       -1229.404          49.000  
  21593436.441   113474312.178       -1229.326          34.000  
  21465662.720   112802857.045       -1229.510          37.000  
  21445151.451   112695024.163       -1229.531          38.000  
  21558959.738   113293017.221       -1229.363          47.000  
  21546842.843   113229427.725       -1229.360          42.000  
  21637392.444   113705294.571       -1229.301          35.000  
  21558906.649   113292747.664       -1229.432          49.000  
  21443100.117   112684270.198       -1229.382          42.000  
  21459221.693   112768977.828       -1229.376          35.000  
  21634170.052   113688320.288       -1229.472          36.000  
  21693953.733   114002490.723       -1229.419          39.000  
  21597834.713   113497374.676       -1229.207          34.000  
  21558855.376   113292546.274       -1229.374          49.000  
  21513139.866   113052344.169       -1229.270          39.000  
  21606914.015   113545133.173       -1229.331          39.000  
  21503762.953   113003007.723       -1229.349          40.000  
  21673440.781   113894700.716       -1229.392          41.000  
  21606920.488   113545160.533       -1229.386          34.000  
  21500537.870   112986073.668       -1229.291          40.000  
  21586114.226   113435805.807       -1229.269          35.000  
  21621275.935   113620599.721       -1229.392          40.000  
  21522222.115   113100085.628       -1229.354          37.000  
  21565304.890   113326476.149       -1229.373          39.000  
 25  8 12  8 44 46.4000000  0 28G 5G 1G 2G 3G 4G18G28G31G 7G30G17G 6
                                G25G27G10G21G16G 8G13G15G32G20G29G 9
                                G24G19G12G23
  21558918.872   113292837.824       -1229.553          49.000  
  21558891.393   113292749.682       -1229.454          49.000  
  21558944.139   113293013.940       -1229.465          47.000  
  21558940.309   113292951.037       -1229.524          49.000  
  21558888.556   113292772.144       -1229.482          49.000  
  21593483.276   113474558.086       -1229.506          34.000  
  21465709.498   112803102.954       -1229.550          37.000  
  21445198.243   112695270.065       -1229.479          37.000  
  21559006.542   113293263.128       -1229.554          47.000  
  21546889.672   113229673.634       -1229.453          42.000  
  21637439.265   113705540.490       -1229.590          35.000  
  21558953.449   113292993.572       -1229.509          49.000  
  21443146.873   112684516.105       -1229.480          42.000  
  21459268.464   112769223.747       -1229.694          35.000  
  21634216.872   113688566.191       -1229.455          36.000  
  21694000.532   114002736.632       -1229.519          39.000  
  21597881.494   113497620.600       -1229.615          34.000  
  21558902.171   113292792.183       -1229.501          49.000  
  21513186.662   113052590.086       -1229.525          39.000  
  21606960.841   113545379.083       -1229.507          39.000  
  21503809.754   113003253.638       -1229.506          40.000  
  21673487.567   113894946.627       -1229.505          41.000  
  21606967.302   113545406.447       -1229.457          34.000  
  21500584.652   112986319.587       -1229.537          40.000  
  21586161.033   113436051.723       -1229.547          35.000  
  21621322.675   113620845.630       -1229.460          40.000  
  21522268.923   113100331.541       -1229.565          37.000  
  21565351.695   113326722.058       -1229.476          39.000  
 25  8 12  8 44 46.6000000  0 28G 5G 1G 2G 3G 4G18G28G31G 7G30G17G 6
                                G25G27G10G21G16G 8G13G15G32G20G29G 9
                                G24G19G12G23
  21558965.552   113293083.724       -1229.585          49.000  
  21558938.150   113292995.579       -1229.521          49.000  
  21558990.902   113293259.838       -1229.612          47.000  
  21558987.103   113293196.933       -1229.467          49.000  
  21558935.344   113293018.043       -1229.537          49.000  
  21593530.038   113474803.986       -1229.698          35.000  
  21465756.303   112803348.847       -1229.672          37.000  
  21445245.058   112695515.959       -1229.637          37.000  
  21559053.372   113293509.027       -1229.604          47.000  
  21546936.449   113229919.535       -1229.604          42.000  
  21637486.039   113705786.391       -1229.623          35.000  
  21559000.244   113293239.469       -1229.478          49.000  
  21443193.729   112684762.000       -1229.678          42.000  
  21459315.180   112769469.635       -1229.634          34.000  
  21634263.735   113688812.093       -1229.617          36.000  
  21694047.335   114002982.534       -1229.604          39.000  
  21597928.237   113497866.496       -1229.419          33.000  
  21558948.970   113293038.082       -1229.530          49.000  
  21513233.501   113052835.986       -1229.597          39.000  
  21607007.639   113545624.983       -1229.552          39.000  
  21503856.569   113003499.538       -1229.658          40.000  
  21673534.359   113895192.525       -1229.663          41.000  
  21607014.127   113545652.343       -1229.667          35.000  
  21500631.427   112986565.484       -1229.604          40.000  
  21586207.846   113436297.629       -1229.577          35.000  
  21621369.551   113621091.527       -1229.578          40.000  
  21522315.652   113100577.438       -1229.596          37.000  
  21565398.494   113326967.958       -1229.692          39.000  
 25  8 12  8 44 46.8000000  0 28G 5G 1G 2G 3G 4G18G28G31G 7G30G17G 6
                                G25G27G10G21G16G 8G13G15G32G20G29G 9
                                G24G19G12G23
  21559012.139   113293329.595       -1229.314          49.000  
  21558984.922   113293241.462       -1229.429          49.000  
  21559037.619   113293505.713       -1229.352          47.000  
  21559033.891   113293442.814       -1229.397          49.000  
  21558982.147   113293263.922       -1229.445          49.000  
  21593576.781   113475049.877       -1229.442          35.000  
  21465803.092   112803594.714       -1229.498          37.000  
  21445291.788   112695761.833       -1229.529          38.000  
  21559100.170   113293754.902       -1229.420          47.000  
  21546983.218   113230165.414       -1229.454          42.000  
  21637532.784   113706032.237       -1229.192          35.000  
  21559047.039   113293485.348       -1229.431          49.000  
  21443240.493   112685007.881       -1229.681          42.000  
  21459362.001   112769715.504       -1229.479          34.000  
  21634310.572   113689057.964       -1229.447          36.000  
  21694094.111   114003228.400       -1229.295          39.000  
  21597974.938   113498112.335       -1229.050          33.000  
  21558995.752   113293283.957       -1229.324          49.000  
  21513280.302   113053081.853       -1229.352          39.000  
  21607054.405   113545870.840       -1229.335          39.000  
  21503903.365   113003745.426       -1229.427          40.000  
  21673581.137   113895438.414       -1229.583          41.000  
  21607060.973   113545898.221       -1229.491          34.000  
  21500678.163   112986811.373       -1229.470          40.000  
  21586254.630   113436543.488       -1229.251          35.000  
  21621416.346   113621337.417       -1229.484          40.000  
  21522362.442   113100823.308       -1229.420          37.000  
  21565445.302   113327213.839       -1229.481          39.000  
 25  8 12  8 44 47.0000000  0 28G 5G 1G 2G 3G 4G18G28G31G 7G30G17G 6
                                G25G27G10G21G16G 8G13G15G32G20G29G 9
                                G24G19G12G23
  21559058.806   113293575.483       -1229.481          49.000  
  21559031.664   113293487.347       -1229.436          49.000  
  21559084.431   113293751.600       -1229.462          47.000  
  21559080.690   113293688.699       -1229.441          49.000  
  21559028.936   113293509.804       -1229.435          49.000  
  21593623.579   113475295.767       -1229.546          34.000  
  21465849.897   112803840.603       -1229.360          37.000  
  21445338.564   112696007.724       -1229.480          38.000  
  21559147.005   113294000.790       -1229.426          47.000  
  21547029.998   113230411.302       -1229.426          42.000  
  21637579.546   113706278.119       -1229.515          35.000  
  21559093.832   113293731.232       -1229.456          49.000  
  21443287.330   112685253.766       -1229.326          42.000  
  21459408.792   112769961.385       -1229.358          35.000  
  21634357.335   113689303.853       -1229.321          36.000  
  21694140.901   114003474.286       -1229.460          39.000  
  21598021.769   113498358.225       -1229.611          34.000  
  21559042.555   113293529.845       -1229.473          49.000  
  21513327.087   113053327.738       -1229.474          39.000  
  21607101.191   113546116.730       -1229.465          39.000  
  21503950.198   113003991.306       -1229.448          40.000  
  21673627.910   113895684.299       -1229.473          41.000  
  21607107.772   113546144.105       -1229.494          34.000  
  21500724.971   112987057.253       -1229.463          40.000  
  21586301.397   113436789.369       -1229.525          35.000  
  21621463.164   113621583.302       -1229.441          40.000  
  21522409.234   113101069.194       -1229.438          37.000  
  21565492.105   113327459.726       -1229.407          39.000  
 25  8 12  8 44 47.2000000  0 28G 5G 1G 2G 3G 4G18G28G31G 7G30G17G 6
                                G25G27G10G21G16G 8G13G15G32G20G29G 9
                                G24G19G12G23
  21559105.491   113293821.362       -1229.503          49.000  
  21559078.446   113293733.231       -1229.495          49.000  
  21559131.254   113293997.478       -1229.469          47.000  
  21559127.494   113293934.588       -1229.574          49.000  
  21559075.724   113293755.689       -1229.502          49.000  
  21593670.385   113475541.644       -1229.522          34.000  
  21465896.663   112804086.487       -1229.480          37.000  
  21445385.305   112696253.600       -1229.418          38.000  
  21559193.784   113294246.669       -1229.503          47.000  
  21547076.817   113230657.185       -1229.489          42.000  
  21637626.343   113706523.997       -1229.461          35.000  
  21559140.626   113293977.115       -1229.489          49.000  
  21443334.107   112685499.654       -1229.535          42.000  
  21459455.559   112770207.273       -1229.528          35.000  
  21634404.109   113689549.737       -1229.468          37.000  
  21694187.656   114003720.170       -1229.487          39.000  
  21598068.600   113498604.105       -1229.562          34.000  
  21559089.356   113293775.728       -1229.508          49.000  
  21513373.899   113053573.618       -1229.490          39.000  
  21607148.010   113546362.609       -1229.495          39.000  
  21503996.993   113004237.188       -1229.459          40.000  
  21673674.669   113895930.181       -1229.502          41.000  
  21607154.508   113546389.986       -1229.474          35.000  
  21500771.770   112987303.137       -1229.489          40.000  
  21586348.189   113437035.253       -1229.582          35.000  
  21621509.887   113621829.186       -1229.514          40.000  
  21522456.022   113101315.076       -1229.550          37.000  
  21565538.913   113327705.609       -1229.556          39.000  
 25  8 12  8 44 47.4000000  0 28G 5G 1G 2G 3G 4G18G28G31G 7G30G17G 6
                                G25G27G10G21G16G 8G13G15G32G20G29G 9
                                G24G19G12G23
  21559152.399   113294067.245       -1229.285          49.000  
  21559125.225   113293979.113       -1229.274          49.000  
  21559178.047   113294243.369       -1229.390          47.000  
  21559174.277   113294180.464       -1229.276          49.000  
  21559122.515   113294001.572       -1229.292          49.000  
  21593717.162   113475787.532       -1229.348          34.000  
  21465943.439   112804332.372       -1229.331          37.000  
  21445432.059   112696499.492       -1229.418          38.000  
  21559240.596   113294492.551       -1229.332          47.000  
  21547123.593   113230903.070       -1229.331          42.000  
  21637673.142   113706769.884       -1229.301          35.000  
  21559187.412   113294222.997       -1229.280          49.000  
  21443380.908   112685745.536       -1229.285          42.000  
  21459502.385   112770453.152       -1229.260          36.000  
  21634450.842   113689795.628       -1229.371          37.000  
  21694234.446   114003966.052       -1229.319          39.000  
  21598115.403   113498849.988       -1229.345          34.000  
  21559136.162   113294021.612       -1229.298          49.000  
  21513420.716   113053819.504       -1229.358          39.000  
  21607194.799   113546608.494       -1229.334          39.000  
  21504043.807   113004483.070       -1229.177          40.000  
  21673721.473   113896176.069       -1229.378          41.000  
  21607201.271   113546635.871       -1229.341          34.000  
  21500818.569   112987549.020       -1229.299          40.000  
  21586394.962   113437281.138       -1229.325          35.000  
  21621556.729   113622075.072       -1229.338          40.000  
  21522502.811   113101560.961       -1229.343          38.000  
  21565585.726   113327951.495       -1229.377          39.000  
 25  8 12  8 44 47.6000000  0 28G 5G 1G 2G 3G 4G18G28G31G 7G30G17G 6
                                G25G27G10G21G16G 8G13G15G32G20G29G 9
                                G24G19G12G23
  21559199.227   113294313.099       -1229.286          49.000  
  21559171.957   113294224.968       -1229.247          49.000  
  21559224.825   113294489.221       -1229.233          47.000  
  21559221.073   113294426.316       -1229.169          49.000  
  21559169.305   113294247.424       -1229.207          49.000  
  21593763.964   113476033.376       -1229.129          34.000  
  21465990.242   112804578.232       -1229.401          37.000  
  21445478.833   112696745.342       -1229.320          38.000  
  21559287.403   113294738.407       -1229.279          47.000  
  21547170.377   113231148.922       -1229.268          42.000  
  21637719.943   113707015.746       -1229.391          35.000  
  21559234.207   113294468.851       -1229.194          49.000  
  21443427.671   112685991.389       -1229.244          42.000  
  21459549.210   112770699.011       -1229.292          36.000  
  21634497.585   113690041.476       -1229.234          37.000  
  21694281.218   114004211.909       -1229.312          39.000  
  21598162.234   113499095.835       -1229.167          35.000  
  21559182.950   113294267.464       -1229.207          49.000  
  21513467.485   113054065.363       -1229.407          39.000  
  21607241.596   113546854.351       -1229.317          39.000  
  21504090.591   113004728.942       -1229.530          40.000  
  21673768.270   113896421.913       -1229.147          41.000  
  21607248.017   113546881.721       -1229.186          34.000  
  21500865.328   112987794.879       -1229.325          40.000  
  21586441.727   113437527.011       -1229.688          35.000  
  21621603.492   113622320.913       -1229.096          40.000  
  21522549.623   113101806.836       -1229.736          38.000  
  21565632.527   113328197.349       -1229.360          39.000  
 25  8 12  8 44 47.8000000  0 28G 5G 1G 2G 3G 4G18G28G31G 7G30G17G 6
                                G25G27G10G21G16G 8G13G15G32G20G29G 9
                                G24G19G12G23
  21559246.258   113294558.964       -1229.301          49.000  
  21559218.725   113294470.833       -1229.369          49.000  
  21559271.686   113294735.087       -1229.414          47.000  
  21559267.852   113294672.178       -1229.319          49.000  
  21559216.101   113294493.289       -1229.342          49.000  
  21593810.750   113476279.241       -1229.675          34.000  
  21466037.023   112804824.100       -1229.498          37.000  
  21445525.592   112696991.207       -1229.504          38.000  
  21559334.219   113294984.272       -1229.408          48.000  
  21547217.159   113231394.784       -1229.442          41.000  
  21637766.717   113707261.609       -1228.905          35.000  
  21559280.995   113294714.711       -1229.250          49.000  
  21443474.459   112686237.254       -1229.850          41.000  
  21459596.035   112770944.870       -1229.060          33.000  
  21634544.387   113690287.341       -1229.643          36.000  
  21694327.981   114004457.773       -1229.231          39.000  
  21598208.981   113499341.696       -1229.022          34.000  
  21559229.748   113294513.325       -1229.208          49.000  
  21513514.304   113054311.227       -1229.075          39.000  
  21607288.355   113547100.213       -1229.158          39.000  
  21504137.418   113004974.800       -1229.219          40.000  
  21673815.055   113896667.778       -1229.644          41.000  
  21607294.809   113547127.581       -1229.407          34.000  
  21500912.109   112988040.740       -1229.314          40.000  
  21586488.493   113437772.869       -1228.438          36.000  
  21621650.304   113622566.774       -1229.459          40.000  
  21522596.415   113102052.697       -1229.235          38.000  
  21565679.298   113328443.213       -1229.377          39.000  
 25  8 12  8 44 48.0000000  0 28G 5G 1G 2G 3G 4G18G28G31G 7G30G17G 6
                                G25G27G10G21G16G 8G13G15G32G20G29G 9
                                G24G19G12G23
  21559293.269   113294804.819       -1229.347          49.000  
  21559265.505   113294716.685       -1229.264          49.000  
  21559318.504   113294980.935       -1229.219          47.000  
  21559314.637   113294918.035       -1229.343          49.000  
  21559262.883   113294739.143       -1229.282          49.000  
  21593857.550   113476525.078       -1229.287          34.000  
  21466083.790   112805069.947       -1229.193          37.000  
  21445572.383   112697237.048       -1229.116          38.000  
  21559381.016   113295230.122       -1229.237          48.000  
  21547263.939   113231640.629       -1229.169          40.000  
  21637813.497   113707507.483       -1229.493          35.000  
  21559327.785   113294960.569       -1229.309          49.000  
  21443521.153   112686483.080       -1229.056          41.000  
  21459642.758   112771190.750       -1229.631          33.000  
  21634591.122   113690533.175       -1229.134          36.000  
  21694374.780   114004703.630       -1229.321          39.000  
  21598255.784   113499587.574       -1229.584          35.000  
  21559276.547   113294759.184       -1229.320          49.000  
  21513561.055   113054557.092       -1229.384          39.000  
  21607335.167   113547346.075       -1229.323          39.000  
  21504184.144   113005220.660       -1229.302          40.000  
  21673861.838   113896913.612       -1229.152          41.000  
  21607341.583   113547373.432       -1229.290          34.000  
  21500958.872   112988286.597       -1229.298          40.000  
  21586535.232   113438018.765       -1229.569          36.000  
  21621697.057   113622812.620       -1229.252          40.000  
  21522643.205   113102298.554       -1229.222          38.000  
  21565726.051   113328689.062       -1229.210          39.000  
 25  8 12  8 44 48.2000000  0 28G 5G 1G 2G 3G 4G18G28G31G 7G30G17G 6
                                G25G27G10G21G16G 8G13G15G32G20G29G 9
                                G24G19G12G23
  21559340.333   113295050.689       -1229.319          49.000  
  21559312.265   113294962.554       -1229.241          49.000  
  21559365.221   113295226.810       -1229.290          47.000  
  21559361.415   113295163.899       -1229.221          49.000  
  21559309.686   113294985.012       -1229.246          49.000  
  21593904.353   113476770.964       -1229.458          33.000  
  21466130.587   112805315.823       -1229.249          37.000  
  21445619.180   112697482.925       -1229.213          38.000  
  21559427.790   113295475.996       -1229.291          48.000  
  21547310.735   113231886.507       -1229.283          40.000  
  21637860.275   113707753.349       -1229.484          35.000  
  21559374.575   113295206.436       -1229.260          49.000  
  21443567.982   112686728.965       -1229.115          41.000  
  21459689.529   112771436.607       -1229.407          33.000  
  21634637.912   113690779.057       -1229.250          36.000  
  21694421.547   114004949.497       -1229.294          39.000  
  21598302.564   113499833.430       -1229.482          35.000  
  21559323.338   113295005.053       -1229.285          49.000  
  21513607.862   113054802.959       -1229.340          39.000  
  21607381.939   113547591.940       -1229.327          39.000  
  21504230.964   113005466.528       -1229.250          40.000  
  21673908.636   113897159.494       -1229.210          41.000  
  21607388.354   113547619.313       -1229.310          34.000  
  21501005.700   112988532.466       -1229.353          40.000  
  21586581.980   113438264.619       -1229.499          36.000  
  21621743.843   113623058.495       -1229.265          40.000  
  21522689.969   113102544.425       -1229.204          38.000  
  21565772.881   113328934.937       -1229.269          39.000  
 25  8 12  8 44 48.4000000  0 28G 5G 1G 2G 3G 4G18G28G31G 7G30G17G 6
                                G25G27G10G21G16G 8G13G15G32G20G29G 9
                                G24G19G12G23
  21559387.260   113295296.544       -1229.421          49.000  
  21559359.006   113295208.414       -1229.366          49.000  
  21559411.930   113295472.667       -1229.407          47.000  
  21559408.220   113295409.761       -1229.379          49.000  
  21559356.510   113295230.872       -1229.412          49.000  
  21593951.119   113477016.806       -1229.499          33.000  
  21466177.357   112805561.684       -1229.369          37.000  
  21445665.942   112697728.786       -1229.396          38.000  
  21559474.614   113295721.854       -1229.418          48.000  
  21547357.564   113232132.366       -1229.376          40.000  
  21637907.062   113707999.193       -1229.478          35.000  
  21559421.375   113295452.295       -1229.407          49.000  
  21443614.724   112686974.831       -1229.371          41.000  
  21459736.304   112771682.453       -1229.474          33.000  
  21634684.674   113691024.919       -1229.446          36.000  
  21694468.316   114005195.354       -1229.365          39.000  
  21598349.373   113500079.276       -1229.501          35.000  
  21559370.137   113295250.911       -1229.454          49.000  
  21513654.612   113055048.812       -1229.465          39.000  
  21607428.731   113547837.792       -1229.328          39.000  
  21504277.748   113005712.387       -1229.392          40.000  
  21673955.427   113897405.353       -1229.476          41.000  
  21607435.087   113547865.160       -1229.345          34.000  
  21501052.506   112988778.321       -1229.386          40.000  
  21586628.739   113438510.466       -1229.515          36.000  
  21621790.616   113623304.352       -1229.403          40.000  
  21522736.778   113102790.287       -1229.458          38.000  
  21565819.656   113329180.794       -1229.391          39.000  
 25  8 12  8 44 48.6000000  0 28G 5G 1G 2G 3G 4G18G28G31G 7G30G17G 6
                                G25G27G10G21G16G 8G13G15G32G20G29G 9
                                G24G19G12G23
  21559433.964   113295542.409       -1229.325          49.000  
  21559405.772   113295454.275       -1229.264          49.000  
  21559458.843   113295718.531       -1229.269          47.000  
  21559455.002   113295655.626       -1229.268          49.000  
  21559403.284   113295476.740       -1229.286          49.000  
  21593997.879   113477262.671       -1229.322          33.000  
  21466224.149   112805807.532       -1229.226          37.000  
  21445712.732   112697974.654       -1229.264          38.000  
  21559521.439   113295967.721       -1229.294          48.000  
  21547404.358   113232378.239       -1229.177          40.000  
  21637953.868   113708245.071       -1229.545          35.000  
  21559468.180   113295698.166       -1229.298          49.000  
  21443661.530   112687220.658       -1229.049          41.000  
  21459783.051   112771928.280       -1229.041          33.000  
  21634731.411   113691270.770       -1229.167          36.000  
  21694515.075   114005441.208       -1229.393          39.000  
  21598396.198   113500325.149       -1229.365          35.000  
  21559416.918   113295496.782       -1229.332          49.000  
  21513701.434   113055294.679       -1229.370          39.000  
  21607475.515   113548083.640       -1229.288          39.000  
  21504324.552   113005958.236       -1229.324          40.000  
  21674002.167   113897651.222       -1229.205          41.000  
  21607481.847   113548111.051       -1229.437          34.000  
  21501099.334   112989024.177       -1229.282          40.000  
  21586675.501   113438756.318       -1229.415          36.000  
  21621837.437   113623550.214       -1229.339          40.000  
  21522783.537   113103036.116       -1229.214          38.000  
  21565866.437   113329426.671       -1229.292          39.000  
 25  8 12  8 44 48.8000000  0 28G 5G 1G 2G 3G 4G18G28G31G 7G30G17G 6
                                G25G27G10G21G16G 8G13G15G32G20G29G 9
                                G24G19G12G23
  21559480.335   113295788.279       -1229.432          49.000  
  21559452.532   113295700.148       -1229.440          49.000  
  21559505.557   113295964.406       -1229.497          47.000  
  21559501.791   113295901.499       -1229.419          49.000  
  21559450.072   113295722.612       -1229.473          49.000  
  21594044.651   113477508.541       -1229.478          33.000  
  21466270.942   112806053.411       -1229.458          37.000  
  21445759.500   112698220.529       -1229.525          38.000  
  21559568.212   113296213.592       -1229.467          47.000  
  21547451.152   113232624.118       -1229.602          41.000  
  21638000.651   113708490.933       -1229.513          35.000  
  21559514.973   113295944.037       -1229.446          49.000  
  21443708.282   112687466.550       -1229.498          41.000  
  21459829.838   112772174.164       -1229.349          33.000  
  21634778.131   113691516.652       -1229.552          36.000  
  21694561.831   114005687.077       -1229.346          39.000  
  21598443.005   113500571.013       -1229.410          35.000  
  21559463.713   113295742.649       -1229.414          49.000  
  21513748.199   113055540.549       -1229.479          39.000  
  21607522.306   113548329.509       -1229.306          39.000  
  21504371.266   113006204.108       -1229.412          40.000  
  21674048.977   113897897.100       -1229.561          41.000  
  21607528.628   113548356.921       -1229.617          33.000  
  21501146.103   112989270.050       -1229.399          40.000  
  21586722.298   113439002.187       -1229.359          35.000  
  21621884.149   113623796.086       -1229.462          40.000  
  21522830.365   113103282.001       -1229.427          38.000  
  21565913.265   113329672.543       -1229.532          39.000  
 25  8 12  8 44 49.0000000  0 28G 5G 1G 2G 3G 4G18G28G31G 7G30G17G 6
                                G25G27G10G21G16G 8G13G15G32G20G29G 9
                                G24G19G12G23
  21559526.746   113296034.136       -1229.418          49.000  
  21559499.287   113295946.011       -1229.431          49.000  
  21559552.310   113296210.264       -1229.427          47.000  
  21559548.579   113296147.362       -1229.424          49.000  
  21559496.869   113295968.471       -1229.407          49.000  
  21594091.443   113477754.395       -1229.358          34.000  
  21466317.754   112806299.268       -1229.393          37.000  
  21445806.285   112698466.388       -1229.437          38.000  
  21559615.010   113296459.452       -1229.423          47.000  
  21547497.900   113232869.974       -1229.437          41.000  
  21638047.480   113708736.791       -1229.570          35.000  
  21559561.762   113296189.898       -1229.440          49.000  
  21443755.060   112687712.410       -1229.489          41.000  
  21459876.624   112772420.021       -1229.382          33.000  
  21634824.870   113691762.506       -1229.425          36.000  
  21694608.587   114005932.940       -1229.368          39.000  
  21598489.832   113500816.874       -1229.448          35.000  
  21559510.510   113295988.510       -1229.441          49.000  
  21513795.008   113055786.405       -1229.391          40.000  
  21607569.088   113548575.375       -1229.419          39.000  
  21504418.048   113006449.971       -1229.446          40.000  
  21674095.773   113898142.960       -1229.429          41.000  
  21607575.360   113548602.773       -1229.533          33.000  
  21501192.911   112989515.911       -1229.373          40.000  
  21586769.080   113439248.040       -1229.398          35.000  
  21621930.961   113624041.943       -1229.411          40.000  
  21522877.159   113103527.856       -1229.395          38.000  
  21565960.055   113329918.401       -1229.434          38.000  
 25  8 12  8 44 49.2000000  0 28G 5G 1G 2G 3G 4G18G28G31G 7G30G17G 6
                                G25G27G10G21G16G 8G13G15G32G20G29G 9
                                G24G19G12G23
  21559573.118   113296280.009       -1229.413          48.000  
  21559546.048   113296191.873       -1229.396          49.000  
  21559599.118   113296456.127       -1229.397          47.000  
  21559595.378   113296393.227       -1229.399          49.000  
  21559543.648   113296214.337       -1229.421          49.000  
  21594138.227   113478000.271       -1229.533          34.000  
  21466364.518   112806545.127       -1229.351          37.000  
  21445853.074   112698712.238       -1229.321          38.000  
  21559661.842   113296705.319       -1229.420          47.000  
  21547544.752   113233115.831       -1229.359          41.000  
  21638094.313   113708982.662       -1229.374          35.000  
  21559608.544   113296435.766       -1229.447          49.000  
  21443801.832   112687958.253       -1229.258          41.000  
  21459923.426   112772665.878       -1229.264          33.000  
  21634871.663   113692008.367       -1229.348          36.000  
  21694655.403   114006178.814       -1229.437          38.000  
  21598536.582   113501062.743       -1229.360          35.000  
  21559557.291   113296234.380       -1229.432          49.000  
  21513841.779   113056032.277       -1229.415          40.000  
  21607615.851   113548821.248       -1229.457          38.000  
  21504464.823   113006695.844       -1229.486          40.000  
  21674142.515   113898388.813       -1229.321          41.000  
  21607622.158   113548848.633       -1229.348          33.000  
  21501239.681   112989761.775       -1229.376          40.000  
  21586815.864   113439493.926       -1229.593          35.000  
  21621977.702   113624287.809       -1229.354          40.000  
  21522923.954   113103773.727       -1229.478          38.000  
  21566006.798   113330164.260       -1229.380          38.000  
 25  8 12  8 44 49.4000000  0 28G 5G 1G 2G 3G 4G18G28G31G 7G30G17G 6
                                G25G27G10G21G16G 8G13G15G32G20G29G 9
                                G24G19G12G23
  21559619.551   113296525.860       -1229.321          48.000  
  21559592.821   113296437.725       -1229.208          49.000  
  21559645.982   113296701.982       -1229.272          47.000  
  21559642.165   113296639.075       -1229.182          49.000  
  21559590.410   113296460.185       -1229.189          49.000  
  21594184.969   113478246.114       -1229.256          34.000  
  21466411.324   112806790.993       -1229.390          37.000  
  21445899.870   112698958.112       -1229.446          38.000  
  21559708.641   113296951.169       -1229.214          47.000  
  21547591.512   113233361.688       -1229.205          41.000  
  21638141.087   113709228.510       -1229.242          35.000  
  21559655.328   113296681.614       -1229.221          49.000  
  21443848.652   112688204.136       -1229.493          41.000  
  21459970.221   112772911.751       -1229.373          33.000  
  21634918.380   113692254.233       -1229.465          36.000  
  21694702.171   114006424.668       -1229.414          38.000  
  21598583.372   113501308.593       -1229.300          35.000  
  21559604.078   113296480.224       -1229.155          49.000  
  21513888.549   113056278.118       -1229.088          40.000  
  21607662.660   113549067.097       -1229.302          38.000  
  21504511.603   113006941.685       -1229.197          40.000  
  21674189.300   113898634.676       -1229.212          41.000  
  21607668.950   113549094.504       -1229.350          33.000  
  21501286.472   112990007.630       -1229.246          40.000  
  21586862.659   113439739.759       -1229.119          35.000  
  21622024.507   113624533.668       -1229.320          40.000  
  21522970.719   113104019.563       -1228.983          38.000  
  21566053.591   113330410.113       -1229.164          38.000  
 25  8 12  8 44 49.6000000  0 28G 5G 1G 2G 3G 4G18G28G31G 7G30G17G 6
                                G25G27G10G21G16G 8G13G15G32G20G29G 9
                                G24G19G12G23
  21559665.906   113296771.708       -1229.274          48.000  
  21559639.566   113296683.580       -1229.351          49.000  
  21559692.674   113296947.836       -1229.375          47.000  
  21559688.947   113296884.933       -1229.396          49.000  
  21559637.204   113296706.041       -1229.349          49.000  
  21594231.729   113478491.959       -1229.398          34.000  
  21466458.092   112807036.844       -1229.336          37.000  
  21445946.686   112699203.965       -1229.304          38.000  
  21559755.424   113297197.022       -1229.388          47.000  
  21547638.290   113233607.547       -1229.417          41.000  
  21638187.886   113709474.359       -1229.233          35.000  
  21559702.111   113296927.468       -1229.336          49.000  
  21443895.432   112688449.999       -1229.370          41.000  
  21460017.032   112773157.607       -1229.355          33.000  
  21634965.173   113692500.096       -1229.312          36.000  
  21694748.964   114006670.517       -1229.180          38.000  
  21598630.149   113501554.435       -1229.071          35.000  
  21559650.865   113296726.077       -1229.344          49.000  
  21513935.281   113056523.969       -1229.319          40.000  
  21607709.440   113549312.953       -1229.362          38.000  
  21504558.354   113007187.537       -1229.305          40.000  
  21674236.088   113898880.533       -1229.463          41.000  
  21607715.728   113549340.360       -1229.289          32.000  
  21501333.279   112990253.483       -1229.375          40.000  
  21586909.423   113439985.601       -1229.291          34.000  
  21622071.232   113624779.522       -1229.354          40.000  
  21523017.507   113104265.420       -1229.492          38.000  
  21566100.362   113330655.967       -1229.485          38.000  
 25  8 12  8 44 49.8000000  0 28G 5G 1G 2G 3G 4G18G28G31G 7G30G17G 6
                                G25G27G10G21G16G 8G13G15G32G20G29G 9
                                G24G19G12G23
  21559712.348   113297017.575       -1229.377          48.000  
  21559686.343   113296929.448       -1229.509          49.000  
  21559739.530   113297193.702       -1229.510          47.000  
  21559735.746   113297130.795       -1229.388          49.000  
  21559684.008   113296951.907       -1229.476          49.000  
  21594278.485   113478737.821       -1229.340          34.000  
  21466504.906   112807282.710       -1229.519          37.000  
  21445993.491   112699449.831       -1229.584          39.000  
  21559802.219   113297442.886       -1229.419          47.000  
  21547685.095   113233853.412       -1229.619          41.000  
  21638234.687   113709720.226       -1229.220          35.000  
  21559748.899   113297173.334       -1229.437          49.000  
  21443942.241   112688695.871       -1229.723          41.000  
  21460063.849   112773403.467       -1229.249          33.000  
  21635011.987   113692745.962       -1229.690          36.000  
  21694795.715   114006916.392       -1229.486          38.000  
  21598676.955   113501800.305       -1229.099          34.000  
  21559697.660   113296971.943       -1229.425          49.000  
  21513982.102   113056769.833       -1229.298          40.000  
  21607756.224   113549558.816       -1229.450          38.000  
  21504605.155   113007433.405       -1229.425          41.000  
  21674282.866   113899126.399       -1229.622          41.000  
  21607762.506   113549586.227       -1229.383          32.000  
  21501380.086   112990499.349       -1229.465          40.000  
  21586956.177   113440231.472       -1229.327          34.000  
  21622118.078   113625025.389       -1229.501          40.000  
  21523064.285   113104511.276       -1229.440          38.000  
  21566147.157   113330901.828       -1229.568          38.000  
 25  8 12  8 44 50.0000000  0 28G 5G 1G 2G 3G 4G18G28G31G 7G30G17G 6
                                G25G27G10G21G16G 8G13G15G32G20G29G 9
                                G24G19G12G23
  21559758.784   113297263.439       -1229.218          48.000  
  21559733.149   113297175.308       -1229.230          49.000  
  21559786.360   113297439.564       -1229.175          47.000  
  21559782.521   113297376.658       -1229.238          49.000  
  21559730.781   113297197.768       -1229.224          49.000  
  21594325.204   113478983.682       -1229.112          34.000  
  21466551.678   112807528.573       -1229.178          37.000  
  21446040.275   112699695.692       -1229.192          39.000  
  21559849.014   113297688.749       -1229.170          47.000  
  21547731.940   113234099.275       -1229.226          41.000  
  21638281.474   113709966.090       -1229.216          35.000  
  21559795.686   113297419.194       -1229.192          49.000  
  21443988.968   112688941.732       -1229.241          41.000  
  21460110.644   112773649.343       -1229.354          33.000  
  21635058.771   113692991.822       -1229.227          36.000  
  21694842.532   114007162.251       -1229.235          38.000  
  21598723.752   113502046.177       -1229.211          34.000  
  21559744.442   113297217.803       -1229.186          49.000  
  21514028.870   113057015.696       -1229.220          40.000  
  21607802.979   113549804.681       -1229.185          38.000  
  21504651.911   113007679.267       -1229.185          41.000  
  21674329.627   113899372.257       -1229.137          41.000  
  21607809.298   113549832.092       -1229.330          32.000  
  21501426.839   112990745.214       -1229.209          40.000  
  21587002.960   113440477.332       -1229.105          34.000  
  21622164.793   113625271.253       -1229.207          40.000  
  21523111.084   113104757.145       -1229.235          38.000  
  21566193.887   113331147.690       -1229.146          39.000  
 25  8 12  8 44 50.2000000  0 28G 5G 1G 2G 3G 4G18G28G31G 7G30G17G 6
                                G25G27G10G21G16G 8G13G15G32G20G29G 9
                                G24G19G12G23
  21559805.175   113297509.287       -1229.258          48.000  
  21559779.900   113297421.153       -1229.214          49.000  
  21559833.169   113297685.413       -1229.277          47.000  
  21559829.297   113297622.503       -1229.213          49.000  
  21559777.570   113297443.613       -1229.219          49.000  
  21594371.973   113479229.532       -1229.265          34.000  
  21466598.481   112807774.422       -1229.249          37.000  
  21446087.056   112699941.539       -1229.292          39.000  
  21559895.791   113297934.596       -1229.237          47.000  
  21547778.700   113234345.122       -1229.270          41.000  
  21638328.303   113710211.935       -1229.218          35.000  
  21559842.477   113297665.040       -1229.207          49.000  
  21444035.773   112689187.577       -1229.290          41.000  
  21460157.432   112773895.178       -1229.236          33.000  
  21635105.543   113693237.664       -1229.239          36.000  
  21694889.312   114007408.094       -1229.171          38.000  
  21598770.573   113502292.017       -1229.086          35.000  
  21559791.215   113297463.650       -1229.231          49.000  
  21514075.672   113057261.543       -1229.224          40.000  
  21607849.764   113550050.530       -1229.249          38.000  
  21504698.737   113007925.114       -1229.238          41.000  
  21674376.404   113899618.105       -1229.264          41.000  
  21607856.006   113550077.928       -1229.092          32.000  
  21501473.646   112990991.063       -1229.281          40.000  
  21587049.761   113440723.183       -1229.143          34.000  
  21622211.628   113625517.101       -1229.356          40.000  
  21523157.881   113105002.988       -1229.203          39.000  
  21566240.675   113331393.539       -1229.310          39.000  
 25  8 12  8 44 50.4000000  0 28G 5G 1G 2G 3G 4G18G28G31G 7G30G17G 6
                                G25G27G10G21G16G 8G13G15G32G20G29G 9
                                G24G19G12G23
  21559851.801   113297755.157       -1229.340          49.000  
  21559826.678   113297667.016       -1229.341          49.000  
  21559879.926   113297931.267       -1229.290          47.000  
  21559876.096   113297868.371       -1229.426          49.000  
  21559824.367   113297689.477       -1229.305          49.000  
  21594418.756   113479475.419       -1229.365          34.000  
  21466645.237   112808020.275       -1229.227          37.000  
  21446133.821   112700187.384       -1229.254          39.000  
  21559942.584   113298180.453       -1229.263          47.000  
  21547825.488   113234590.968       -1229.241          41.000  
  21638375.108   113710457.808       -1229.411          35.000  
  21559889.266   113297910.902       -1229.341          49.000  
  21444082.528   112689433.449       -1229.252          41.000  
  21460204.205   112774141.067       -1229.310          34.000  
  21635152.379   113693483.544       -1229.359          36.000  
  21694936.100   114007653.968       -1229.325          38.000  
  21598817.362   113502537.919       -1229.437          34.000  
  21559838.008   113297709.514       -1229.333          49.000  
  21514122.469   113057507.410       -1229.369          39.000  
  21607896.571   113550296.396       -1229.327          38.000  
  21504745.446   113008170.974       -1229.340          41.000  
  21674423.185   113899863.945       -1229.250          41.000  
  21607902.748   113550323.772       -1229.224          33.000  
  21501520.458   112991236.917       -1229.297          40.000  
  21587096.539   113440969.050       -1229.346          34.000  
  21622258.363   113625762.955       -1229.261          40.000  
  21523204.744   113105248.849       -1229.366          38.000  
  21566287.450   113331639.380       -1229.192          39.000  
 25  8 12  8 44 50.6000000  0 28G 5G 1G 2G 3G 4G18G28G31G 7G30G17G 6
                                G25G27G10G21G16G 8G13G15G32G20G29G 9
                                G24G19G12G23
  21559898.737   113298001.024       -1229.388          49.000  
  21559873.450   113297912.885       -1229.274          49.000  
  21559926.686   113298177.139       -1229.297          47.000  
  21559922.869   113298114.235       -1229.269          49.000  
  21559871.164   113297935.347       -1229.319          49.000  
  21594465.519   113479721.287       -1229.439          34.000  
  21466692.003   112808266.152       -1229.312          37.000  
  21446180.592   112700433.264       -1229.301          38.000  
  21559989.407   113298426.327       -1229.310          47.000  
  21547872.262   113234836.848       -1229.272          42.000  
  21638421.916   113710703.662       -1229.396          35.000  
  21559936.053   113298156.771       -1229.305          49.000  
  21444129.345   112689679.328       -1229.366          41.000  
  21460250.986   112774386.928       -1229.418          34.000  
  21635199.185   113693729.423       -1229.423          36.000  
  21694982.876   114007899.835       -1229.360          39.000  
  21598864.185   113502783.763       -1229.417          34.000  
  21559884.790   113297955.382       -1229.314          49.000  
  21514169.290   113057753.274       -1229.316          39.000  
  21607943.345   113550542.265       -1229.360          38.000  
  21504792.242   113008416.847       -1229.364          41.000  
  21674469.970   113900109.822       -1229.251          41.000  
  21607949.528   113550569.652       -1229.418          33.000  
  21501567.255   112991482.791       -1229.358          40.000  
  21587143.301   113441214.910       -1229.348          35.000  
  21622305.209   113626008.833       -1229.309          40.000  
  21523251.520   113105494.719       -1229.286          38.000  
  21566334.285   113331885.261       -1229.294          39.000  
 25  8 12  8 44 50.8000000  0 28G 5G 1G 2G 3G 4G18G28G31G 7G30G17G 6
                                G25G27G10G21G16G 8G13G15G32G20G29G 9
                                G24G19G12G23
  21559945.614   113298246.882       -1229.360          49.000  
  21559920.234   113298158.745       -1229.309          49.000  
  21559973.405   113298422.999       -1229.404          47.000  
  21559969.654   113298360.097       -1229.325          49.000  
  21559917.973   113298181.206       -1229.377          49.000  
  21594512.254   113479967.141       -1229.356          33.000  
  21466738.799   112808512.010       -1229.398          37.000  
  21446227.378   112700679.127       -1229.471          38.000  
  21560036.218   113298672.188       -1229.417          47.000  
  21547919.067   113235082.709       -1229.453          42.000  
  21638468.684   113710949.515       -1229.247          35.000  
  21559982.836   113298402.631       -1229.346          49.000  
  21444176.123   112689925.190       -1229.486          41.000  
  21460297.775   112774632.781       -1229.249          35.000  
  21635246.007   113693975.280       -1229.480          37.000  
  21695029.688   114008145.693       -1229.411          39.000  
  21598910.968   113503029.616       -1229.310          34.000  
  21559931.583   113298201.242       -1229.346          49.000  
  21514216.038   113057999.132       -1229.308          39.000  
  21607990.130   113550788.126       -1229.391          38.000  
  21504838.987   113008662.704       -1229.385          40.000  
  21674516.761   113900355.684       -1229.407          41.000  
  21607996.239   113550815.506       -1229.385          33.000  
  21501614.038   112991728.646       -1229.360          40.000  
  21587190.112   113441460.767       -1229.265          35.000  
  21622351.976   113626254.693       -1229.381          40.000  
  21523298.296   113105740.584       -1229.489          38.000  
  21566381.053   113332131.122       -1229.443          39.000  
 25  8 12  8 44 51.0000000  0 28G 5G 1G 2G 3G 4G18G28G31G 7G30G17G 6
                                G25G27G10G21G16G 8G13G15G32G20G29G 9
                                G24G19G12G23
  21559992.465   113298492.746       -1229.326          49.000  
  21559966.991   113298404.603       -1229.242          49.000  
  21560020.199   113298668.856       -1229.248          47.000  
  21560016.455   113298605.961       -1229.353          49.000  
  21559964.760   113298427.066       -1229.259          49.000  
  21594559.022   113480213.004       -1229.237          33.000  
  21466785.554   112808757.859       -1229.045          37.000  
  21446274.166   112700924.972       -1229.132          38.000  
  21560083.032   113298918.047       -1229.260          47.000  
  21547965.802   113235328.555       -1229.086          42.000  
  21638515.510   113711195.402       -1229.575          35.000  
  21560029.626   113298648.493       -1229.294          49.000  
  21444222.939   112690171.027       -1228.987          41.000  
  21460344.526   112774878.640       -1229.058          35.000  
  21635292.797   113694221.119       -1228.964          37.000  
  21695076.459   114008391.555       -1229.307          39.000  
  21598957.818   113503275.512       -1229.741          34.000  
  21559978.372   113298447.107       -1229.353          49.000  
  21514262.860   113058245.001       -1229.370          39.000  
  21608036.889   113551033.985       -1229.292          38.000  
  21504885.807   113008908.561       -1229.182          40.000  
  21674563.537   113900601.537       -1229.185          41.000  
  21608042.992   113551061.369       -1229.337          34.000  
  21501660.835   112991974.509       -1229.268          40.000  
  21587236.883   113441706.651       -1229.535          35.000  
  21622398.766   113626500.541       -1229.115          40.000  
  21523345.106   113105986.433       -1229.149          38.000  
  21566427.849   113332376.971       -1229.117          39.000  
 25  8 12  8 44 51.2000000  0 28G 5G 1G 2G 3G 4G18G28G31G 7G30G17G 6
                                G25G27G10G21G16G 8G13G15G32G20G29G 9
                                G24G19G12G23
  21560039.324   113298738.593       -1229.377          49.000  
  21560013.747   113298650.462       -1229.426          49.000  
  21560066.901   113298914.711       -1229.380          47.000  
  21560063.251   113298851.812       -1229.395          49.000  
  21560011.574   113298672.921       -1229.415          49.000  
  21594605.807   113480458.866       -1229.668          33.000  
  21466832.306   112809003.723       -1229.330          37.000  
  21446320.952   112701170.827       -1229.165          38.000  
  21560129.832   113299163.903       -1229.447          47.000  
  21548012.596   113235574.424       -1229.408          42.000  
  21638562.274   113711441.230       -1229.449          35.000  
  21560076.407   113298894.347       -1229.420          49.000  
  21444269.703   112690416.885       -1229.091          42.000  
  21460391.224   112775124.500       -1229.395          35.000  
  21635339.595   113694466.986       -1229.167          37.000  
  21695123.242   114008637.403       -1229.370          39.000  
  21599004.624   113503521.320       -1229.317          34.000  
  21560025.170   113298692.961       -1229.489          49.000  
  21514309.647   113058490.852       -1229.545          39.000  
  21608083.690   113551279.836       -1229.394          38.000  
  21504932.636   113009154.425       -1229.520          40.000  
  21674610.332   113900847.398       -1229.405          41.000  
  21608089.725   113551307.208       -1229.246          34.000  
  21501707.630   112992220.363       -1229.489          40.000  
  21587283.663   113441952.492       -1229.619          35.000  
  21622445.517   113626746.405       -1229.379          40.000  
  21523391.920   113106232.306       -1229.664          38.000  
  21566474.667   113332622.839       -1229.445          39.000  
 25  8 12  8 44 51.4000000  0 28G 5G 1G 2G 3G 4G18G28G31G 7G30G17G 6
                                G25G27G10G21G16G 8G13G15G32G20G29G 9
                                G24G19G12G23
  21560086.345   113298984.443       -1229.335          49.000  
  21560060.527   113298896.318       -1229.456          49.000  
  21560113.730   113299160.566       -1229.417          47.000  
  21560110.041   113299097.669       -1229.448          49.000  
  21560058.345   113298918.772       -1229.370          49.000  
  21594652.606   113480704.708       -1229.154          33.000  
  21466879.091   112809249.572       -1229.410          37.000  
  21446367.727   112701416.687       -1229.611          38.000  
  21560176.647   113299409.754       -1229.385          47.000  
  21548059.369   113235820.280       -1229.562          42.000  
  21638609.046   113711687.072       -1229.152          35.000  
  21560123.208   113299140.201       -1229.442          49.000  
  21444316.516   112690662.741       -1229.652          42.000  
  21460438.006   112775370.345       -1229.331          35.000  
  21635386.338   113694712.842       -1229.676          37.000  
  21695169.993   114008883.250       -1229.358          39.000  
  21599051.406   113503767.177       -1229.166          34.000  
  21560071.959   113298938.812       -1229.358          49.000  
  21514356.457   113058736.701       -1229.233          39.000  
  21608130.459   113551525.685       -1229.356          39.000  
  21504979.434   113009400.273       -1229.287          40.000  
  21674657.101   113901093.250       -1229.417          41.000  
  21608136.520   113551553.058       -1229.258          34.000  
  21501754.431   112992466.209       -1229.342          40.000  
  21587330.448   113442198.335       -1228.970          35.000  
  21622492.334   113626992.257       -1229.474          40.000  
  21523438.695   113106478.157       -1229.237          38.000  
  21566521.461   113332868.690       -1229.419          39.000  
 25  8 12  8 44 51.6000000  0 28G 5G 1G 2G 3G 4G18G28G31G 7G30G17G 6
                                G25G27G10G21G16G 8G13G15G32G20G29G 9
                                G24G19G12G23
  21560133.378   113299230.294       -1229.130          49.000  
  21560107.313   113299142.157       -1229.078          49.000  
  21560160.581   113299406.409       -1229.084          47.000  
  21560156.825   113299343.512       -1229.160          49.000  
  21560105.112   113299164.617       -1229.098          49.000  
  21594699.376   113480950.572       -1229.023          33.000  
  21466925.883   112809495.409       -1228.938          37.000  
  21446414.491   112701662.515       -1229.006          38.000  
  21560223.446   113299655.600       -1229.076          47.000  
  21548106.212   113236066.113       -1229.019          42.000  
  21638655.858   113711932.936       -1229.116          35.000  
  21560169.998   113299386.045       -1229.138          49.000  
  21444363.277   112690908.562       -1228.883          42.000  
  21460484.821   112775616.187       -1229.049          35.000  
  21635433.106   113694958.669       -1229.035          37.000  
  21695216.776   114009129.103       -1229.197          39.000  
  21599098.168   113504013.043       -1229.241          34.000  
  21560118.750   113299184.662       -1229.143          49.000  
  21514403.240   113058982.558       -1229.188          39.000  
  21608177.238   113551771.532       -1229.099          39.000  
  21505026.209   113009646.124       -1229.171          40.000  
  21674703.907   113901339.091       -1229.000          41.000  
  21608183.310   113551798.907       -1229.062          34.000  
  21501801.194   112992712.059       -1229.077          40.000  
  21587377.236   113442444.215       -1229.312          35.000  
  21622539.098   113627238.097       -1229.087          40.000  
  21523485.468   113106724.009       -1229.142          38.000  
  21566568.217   113333114.531       -1228.986          39.000  
 25  8 12  8 44 51.8000000  0 28G 5G 1G 2G 3G 4G18G28G31G 7G30G17G 6
                                G25G27G10G21G16G 8G13G15G32G20G29G 9
                                G24G19G12G23
  21560180.283   113299476.158       -1229.443          49.000  
  21560154.068   113299388.017       -1229.388          49.000  
  21560207.387   113299652.272       -1229.431          47.000  
  21560203.612   113299589.372       -1229.381          49.000  
  21560151.916   113299410.478       -1229.371          49.000  
  21594746.196   113481196.431       -1229.454          33.000  
  21466972.663   112809741.267       -1229.348          37.000  
  21446461.273   112701908.379       -1229.427          37.000  
  21560270.271   113299901.460       -1229.419          47.000  
  21548152.918   113236311.975       -1229.441          42.000  
  21638702.632   113712178.804       -1229.426          36.000  
  21560216.789   113299631.906       -1229.392          49.000  
  21444410.065   112691154.423       -1229.370          42.000  
  21460531.588   112775862.049       -1229.413          35.000  
  21635479.938   113695204.530       -1229.421          37.000  
  21695263.558   114009374.967       -1229.447          39.000  
  21599144.887   113504258.906       -1229.403          34.000  
  21560165.551   113299430.522       -1229.379          49.000  
  21514450.044   113059228.417       -1229.418          39.000  
  21608224.037   113552017.397       -1229.409          39.000  
  21505073.063   113009891.986       -1229.478          40.000  
  21674750.724   113901584.950       -1229.358          41.000  
  21608230.166   113552044.767       -1229.357          34.000  
  21501847.963   112992957.919       -1229.384          40.000  
  21587424.069   113442690.085       -1229.571          35.000  
  21622585.944   113627483.954       -1229.405          40.000  
  21523532.229   113106969.866       -1229.313          37.000  
  21566615.018   113333360.393       -1229.404          39.000  
 25  8 12  8 44 52.0000000  0 28G 5G 1G 2G 3G 4G18G28G31G 7G30G17G 6
                                G25G27G10G21G16G 8G13G15G32G20G29G 9
                                G24G19G12G23
  21560227.250   113299722.015       -1229.318          49.000  
  21560200.811   113299633.878       -1229.319          49.000  
  21560254.189   113299898.130       -1229.312          47.000  
  21560250.401   113299835.231       -1229.296          49.000  
  21560198.705   113299656.339       -1229.315          49.000  
  21594792.968   113481442.289       -1229.325          34.000  
  21467019.422   112809987.130       -1229.310          37.000  
  21446508.061   112702154.237       -1229.310          37.000  
  21560317.093   113300147.319       -1229.318          47.000  
  21548199.716   113236557.833       -1229.304          42.000  
  21638749.431   113712424.664       -1229.395          36.000  
  21560263.584   113299877.766       -1229.297          49.000  
  21444456.868   112691400.286       -1229.330          42.000  
  21460578.417   112776107.916       -1229.479          34.000  
  21635526.813   113695450.387       -1229.292          37.000  
  21695310.320   114009620.823       -1229.339          39.000  
  21599191.563   113504504.759       -1229.286          33.000  
  21560212.339   113299676.382       -1229.325          49.000  
  21514496.786   113059474.275       -1229.291          39.000  
  21608270.804   113552263.256       -1229.338          39.000  
  21505119.840   113010137.843       -1229.325          40.000  
  21674797.513   113901830.812       -1229.338          41.000  
  21608277.009   113552290.628       -1229.284          34.000  
  21501894.715   112993203.780       -1229.331          40.000  
  21587470.902   113442935.933       -1229.319          35.000  
  21622632.722   113627729.814       -1229.312          40.000  
  21523579.000   113107215.726       -1229.297          37.000  
  21566661.814   113333606.254       -1229.316          39.000  
 25  8 12  8 44 52.2000000  0 28G 5G 1G 2G 3G 4G18G28G31G 7G30G17G 6
                                G25G27G10G21G16G 8G13G15G32G20G29G 9
                                G24G19G12G23
  21560274.276   113299967.885       -1229.297          49.000  
  21560247.563   113299879.744       -1229.288          49.000  
  21560300.922   113300144.005       -1229.329          47.000  
  21560297.186   113300081.093       -1229.196          49.000  
  21560245.496   113299902.208       -1229.280          49.000  
  21594839.713   113481688.148       -1229.319          34.000  
  21467066.255   112810233.001       -1229.321          37.000  
  21446554.882   112702400.147       -1229.401          37.000  
  21560363.937   113300393.183       -1229.290          47.000  
  21548246.467   113236803.689       -1229.281          42.000  
  21638796.193   113712670.507       -1229.056          35.000  
  21560310.378   113300123.630       -1229.241          49.000  
  21444503.668   112691646.175       -1229.409          42.000  
  21460625.214   112776353.796       -1229.265          34.000  
  21635573.661   113695696.275       -1229.463          37.000  
  21695357.084   114009866.685       -1229.243          39.000  
  21599238.337   113504750.647       -1229.243          34.000  
  21560259.131   113299922.244       -1229.283          49.000  
  21514543.589   113059720.151       -1229.286          39.000  
  21608317.590   113552509.141       -1229.282          39.000  
  21505166.639   113010383.714       -1229.261          40.000  
  21674844.309   113902076.699       -1229.363          41.000  
  21608323.787   113552536.521       -1229.262          34.000  
  21501941.485   112993449.653       -1229.260          40.000  
  21587517.706   113443181.789       -1229.192          35.000  
  21622679.551   113627975.692       -1229.313          40.000  
  21523625.769   113107461.590       -1229.343          37.000  
  21566708.602   113333852.121       -1229.347          39.000  
 25  8 12  8 44 52.4000000  0 28G 5G 1G 2G 3G 4G18G28G31G 7G30G17G 6
                                G25G27G10G21G16G 8G13G15G32G20G29G 9
                                G24G19G12G23
  21560321.319   113300213.730       -1229.241          49.000  
  21560294.325   113300125.592       -1229.240          49.000  
  21560347.657   113300389.848       -1229.235          47.000  
  21560343.968   113300326.948       -1229.292          49.000  
  21560292.278   113300148.054       -1229.233          49.000  
  21594886.497   113481933.996       -1229.298          34.000  
  21467113.068   112810478.845       -1229.167          37.000  
  21446601.698   112702645.980       -1229.248          37.000  
  21560410.733   113300639.029       -1229.220          47.000  
  21548293.249   113237049.537       -1229.193          42.000  
  21638842.979   113712916.367       -1229.237          35.000  
  21560357.168   113300369.481       -1229.301          49.000  
  21444550.398   112691892.008       -1229.116          42.000  
  21460671.961   112776599.643       -1229.268          35.000  
  21635620.480   113695942.111       -1229.281          37.000  
  21695403.858   114010112.534       -1229.267          39.000  
  21599285.109   113504996.489       -1229.293          34.000  
  21560305.922   113300168.092       -1229.253          49.000  
  21514590.356   113059965.998       -1229.315          39.000  
  21608364.404   113552754.985       -1229.340          39.000  
  21505213.406   113010629.563       -1229.320          40.000  
  21674891.133   113902322.538       -1229.181          41.000  
  21608370.567   113552782.361       -1229.163          34.000  
  21501988.266   112993695.498       -1229.242          40.000  
  21587564.533   113443427.645       -1229.358          35.000  
  21622726.308   113628221.533       -1229.214          40.000  
  21523672.551   113107707.435       -1229.241          37.000  
  21566755.388   113334097.962       -1229.188          39.000  
 25  8 12  8 44 52.6000000  0 28G 5G 1G 2G 3G 4G18G28G31G 7G30G17G 6
                                G25G27G10G21G16G 8G13G15G32G20G29G 9
                                G24G19G12G23
  21560368.297   113300459.617       -1229.414          49.000  
  21560341.100   113300371.474       -1229.441          49.000  
  21560394.454   113300635.733       -1229.475          47.000  
  21560390.761   113300572.828       -1229.402          49.000  
  21560339.064   113300393.938       -1229.423          49.000  
  21594933.352   113482179.883       -1229.594          34.000  
  21467159.850   112810724.726       -1229.468          38.000  
  21446648.497   112702891.863       -1229.521          37.000  
  21560457.542   113300884.915       -1229.459          47.000  
  21548340.022   113237295.422       -1229.493          42.000  
  21638889.745   113713162.258       -1229.417          35.000  
  21560403.962   113300615.363       -1229.423          49.000  
  21444597.246   112692137.893       -1229.506          42.000  
  21460718.726   112776845.523       -1229.423          35.000  
  21635667.255   113696187.995       -1229.448          37.000  
  21695450.643   114010358.418       -1229.381          39.000  
  21599331.850   113505242.378       -1229.398          34.000  
  21560352.723   113300413.975       -1229.436          49.000  
  21514637.181   113060211.884       -1229.388          39.000  
  21608411.183   113553000.865       -1229.317          39.000  
  21505260.226   113010875.444       -1229.448          40.000  
  21674937.900   113902568.422       -1229.462          40.000  
  21608417.372   113553028.243       -1229.393          34.000  
  21502035.075   112993941.385       -1229.456          40.000  
  21587611.361   113443673.536       -1229.420          35.000  
  21622773.171   113628467.416       -1229.387          40.000  
  21523719.326   113107953.318       -1229.408          37.000  
  21566802.196   113334343.846       -1229.427          39.000  
 25  8 12  8 44 52.8000000  0 28G 5G 1G 2G 3G 4G18G28G31G 7G30G17G 6
                                G25G27G10G21G16G 8G13G15G32G20G29G 9
                                G24G19G12G23
  21560415.224   113300705.480       -1229.248          49.000  
  21560387.888   113300617.344       -1229.341          49.000  
  21560441.299   113300881.601       -1229.321          47.000  
  21560437.554   113300818.698       -1229.308          49.000  
  21560385.845   113300639.806       -1229.314          49.000  
  21594980.147   113482425.747       -1229.396          34.000  
  21467206.664   112810970.605       -1229.546          38.000  
  21446695.339   112703137.738       -1229.520          38.000  
  21560504.329   113301130.782       -1229.314          47.000  
  21548386.848   113237541.291       -1229.375          42.000  
  21638936.507   113713408.120       -1229.241          35.000  
  21560450.764   113300861.228       -1229.242          49.000  
  21444644.031   112692383.770       -1229.554          42.000  
  21460765.536   112777091.398       -1229.413          35.000  
  21635714.073   113696433.865       -1229.371          37.000  
  21695497.415   114010604.284       -1229.181          39.000  
  21599378.605   113505488.237       -1229.004          34.000  
  21560399.514   113300659.841       -1229.254          49.000  
  21514683.934   113060457.745       -1229.155          39.000  
  21608457.985   113553246.735       -1229.168          39.000  
  21505306.961   113011121.313       -1229.308          40.000  
  21674984.698   113902814.294       -1229.387          40.000  
  21608464.191   113553274.121       -1229.498          34.000  
  21502081.833   112994187.249       -1229.241          40.000  
  21587658.186   113443919.387       -1229.021          35.000  
  21622819.929   113628713.290       -1229.365          40.000  
  21523766.118   113108199.190       -1229.315          37.000  
  21566848.937   113334589.717       -1229.374          39.000  
 25  8 12  8 44 53.0000000  0 28G 5G 1G 2G 3G 4G18G28G31G 7G30G17G 6
                                G25G27G10G21G16G 8G13G15G32G20G29G 9
                                G24G19G12G23
  21560462.348   113300951.354       -1229.586          49.000  
  21560434.648   113300863.222       -1229.585          49.000  
  21560488.101   113301127.475       -1229.524          47.000  
  21560484.346   113301064.568       -1229.432          49.000  
  21560432.654   113300885.678       -1229.449          49.000  
  21595026.871   113482671.623       -1229.408          34.000  
  21467253.486   112811216.476       -1229.554          38.000  
  21446742.139   112703383.599       -1229.235          38.000  
  21560551.117   113301376.658       -1229.612          47.000  
  21548433.616   113237787.178       -1229.731          42.000  
  21638983.290   113713653.979       -1229.796          35.000  
  21560497.558   113301107.106       -1229.551          49.000  
  21444690.828   112692629.635       -1229.211          42.000  
  21460812.315   112777337.266       -1229.630          35.000  
  21635760.838   113696679.727       -1229.133          37.000  
  21695544.182   114010850.146       -1229.400          39.000  
  21599425.447   113505734.105       -1229.666          34.000  
  21560446.313   113300905.718       -1229.603          49.000  
  21514730.764   113060703.621       -1229.646          39.000  
  21608504.787   113553492.606       -1229.568          39.000  
  21505353.779   113011367.192       -1229.618          40.000  
  21675031.466   113903060.166       -1229.432          40.000  
  21608510.928   113553519.979       -1229.366          34.000  
  21502128.620   112994433.123       -1229.587          40.000  
  21587704.978   113444165.258       -1229.743          35.000  
  21622866.763   113628959.172       -1229.740          40.000  
  21523812.928   113108445.077       -1229.803          38.000  
  21566895.751   113334835.591       -1229.465          39.000  
 25  8 12  8 44 53.2000000  0 28G 5G 1G 2G 3G 4G18G28G31G 7G30G17G 6
                                G25G27G10G21G16G 8G13G15G32G20G29G 9
                                G24G19G12G23
  21560509.284   113301197.192       -1229.153          49.000  
  21560481.419   113301109.061       -1229.103          49.000  
  21560534.905   113301373.316       -1229.165          47.000  
  21560531.114   113301310.409       -1229.091          49.000  
  21560479.417   113301131.521       -1229.177          49.000  
  21595073.617   113482917.473       -1229.223          34.000  
  21467300.289   112811462.319       -1229.167          37.000  
  21446788.894   112703629.439       -1229.290          37.000  
  21560597.891   113301622.498       -1229.100          47.000  
  21548480.442   113238033.018       -1229.034          42.000  
  21639030.065   113713899.820       -1229.127          35.000  
  21560544.342   113301352.946       -1229.125          49.000  
  21444737.574   112692875.479       -1229.210          42.000  
  21460859.106   112777583.105       -1229.062          36.000  
  21635807.613   113696925.568       -1229.333          37.000  
  21695590.951   114011095.984       -1229.214          39.000  
  21599472.228   113505979.940       -1229.199          35.000  
  21560493.100   113301151.558       -1229.125          49.000  
  21514777.493   113060949.457       -1229.117          39.000  
  21608551.531   113553738.442       -1229.167          39.000  
  21505400.530   113011613.034       -1229.126          40.000  
  21675078.251   113903306.006       -1229.207          41.000  
  21608557.648   113553765.816       -1229.303          34.000  
  21502175.420   112994678.962       -1229.192          40.000  
  21587751.738   113444411.093       -1229.054          35.000  
  21622913.518   113629205.005       -1229.020          40.000  
  21523859.700   113108690.921       -1229.023          38.000  
  21566942.515   113335081.435       -1229.183          39.000  
 25  8 12  8 44 53.4000000  0 28G 5G 1G 2G 3G 4G18G28G31G 7G30G17G 6
                                G25G27G10G21G16G 8G13G15G32G20G29G 9
                                G24G19G12G23
  21560556.243   113301443.037       -1229.299          49.000  
  21560528.209   113301354.907       -1229.307          49.000  
  21560581.712   113301619.161       -1229.353          47.000  
  21560577.894   113301556.256       -1229.308          49.000  
  21560526.214   113301377.363       -1229.266          49.000  
  21595120.408   113483163.314       -1229.331          33.000  
  21467347.063   112811708.160       -1229.257          37.000  
  21446835.634   112703875.277       -1229.316          37.000  
  21560644.707   113301868.344       -1229.312          47.000  
  21548527.192   113238278.871       -1229.364          42.000  
  21639076.879   113714145.664       -1229.284          35.000  
  21560591.112   113301598.788       -1229.288          49.000  
  21444784.376   112693121.318       -1229.260          42.000  
  21460905.861   112777828.954       -1229.340          36.000  
  21635854.338   113697171.406       -1229.379          37.000  
  21695637.711   114011341.830       -1229.319          39.000  
  21599519.035   113506225.780       -1229.239          35.000  
  21560539.897   113301397.402       -1229.274          49.000  
  21514824.318   113061195.305       -1229.291          39.000  
  21608598.347   113553984.288       -1229.358          39.000  
  21505447.321   113011858.877       -1229.261          40.000  
  21675125.026   113903551.847       -1229.226          41.000  
  21608604.398   113554011.658       -1229.345          34.000  
  21502222.269   112994924.802       -1229.241          40.000  
  21587798.486   113444656.946       -1229.389          36.000  
  21622960.342   113629450.860       -1229.303          40.000  
  21523906.472   113108936.766       -1229.211          38.000  
  21566989.289   113335327.276       -1229.346          39.000  
 25  8 12  8 44 53.6000000  0 28G 5G 1G 2G 3G 4G18G28G31G 7G30G17G 6
                                G25G27G10G21G16G 8G13G15G32G20G29G 9
                                G24G19G12G23
  21560603.269   113301688.892       -1229.294          49.000  
  21560574.989   113301600.764       -1229.336          49.000  
  21560628.575   113301865.015       -1229.302          47.000  
  21560624.670   113301802.117       -1229.430          49.000  
  21560572.971   113301623.221       -1229.341          49.000  
  21595167.132   113483409.170       -1229.241          33.000  
  21467393.838   112811954.019       -1229.362          37.000  
  21446882.398   112704121.133       -1229.260          37.000  
  21560691.506   113302114.202       -1229.368          47.000  
  21548574.004   113238524.724       -1229.349          42.000  
  21639123.687   113714391.523       -1229.379          35.000  
  21560637.902   113301844.646       -1229.335          49.000  
  21444831.188   112693367.177       -1229.308          42.000  
  21460952.689   112778074.809       -1229.329          36.000  
  21635901.102   113697417.262       -1229.326          37.000  
  21695684.520   114011587.685       -1229.346          39.000  
  21599565.855   113506471.639       -1229.259          35.000  
  21560586.689   113301643.261       -1229.346          49.000  
  21514871.052   113061441.163       -1229.362          39.000  
  21608645.126   113554230.141       -1229.310          39.000  
  21505494.073   113012104.737       -1229.304          40.000  
  21675171.822   113903797.704       -1229.295          41.000  
  21608651.155   113554257.513       -1229.343          34.000  
  21502269.052   112995170.660       -1229.354          40.000  
  21587845.258   113444902.794       -1229.297          36.000  
  21623007.075   113629696.716       -1229.382          40.000  
  21523953.268   113109182.626       -1229.320          38.000  
  21567036.069   113335573.130       -1229.310          39.000  
 25  8 12  8 44 53.8000000  0 28G 5G 1G 2G 3G 4G18G28G31G 7G30G17G 6
                                G25G27G10G21G16G 8G13G15G32G20G29G 9
                                G24G19G12G23
  21560650.224   113301934.753       -1229.193          49.000  
  21560621.727   113301846.624       -1229.354          49.000  
  21560675.383   113302110.878       -1229.401          47.000  
  21560671.453   113302047.972       -1229.316          49.000  
  21560619.759   113301869.080       -1229.274          49.000  
  21595213.913   113483655.029       -1229.307          34.000  
  21467440.635   112812199.876       -1229.376          37.000  
  21446929.215   112704366.993       -1229.470          37.000  
  21560738.306   113302360.059       -1229.337          47.000  
  21548620.719   113238770.580       -1229.382          42.000  
  21639170.457   113714637.374       -1228.586          35.000  
  21560684.700   113302090.503       -1229.230          49.000  
  21444878.013   112693613.038       -1229.642          42.000  
  21460999.519   112778320.665       -1229.174          36.000  
  21635947.863   113697663.124       -1229.492          37.000  
  21695731.258   114011833.542       -1229.041          39.000  
  21599612.597   113506717.491       -1228.658          35.000  
  21560633.483   113301889.118       -1229.203          49.000  
  21514917.879   113061687.019       -1229.133          39.000  
  21608691.875   113554475.996       -1229.117          39.000  
  21505540.917   113012350.592       -1229.197          40.000  
  21675218.596   113904043.567       -1229.459          41.000  
  21608697.975   113554503.368       -1229.056          34.000  
  21502315.840   112995416.519       -1229.198          40.000  
  21587892.048   113445148.654       -1228.610          36.000  
  21623053.953   113629942.574       -1229.428          40.000  
  21524000.009   113109428.482       -1229.160          38.000  
  21567082.886   113335818.989       -1229.276          39.000  
 25  8 12  8 44 54.0000000  0 28G 5G 1G 2G 3G 4G18G28G31G 7G30G17G 6
                                G25G27G10G21G16G 8G13G15G32G20G29G 9
                                G24G19G12G23
  21560697.366   113302180.623       -1229.264          49.000  
  21560668.517   113302092.484       -1229.159          49.000  
  21560722.084   113302356.742       -1229.141          47.000  
  21560718.238   113302293.836       -1229.219          49.000  
  21560666.568   113302114.947       -1229.178          49.000  
  21595260.735   113483900.903       -1229.046          34.000  
  21467487.421   112812445.740       -1229.115          37.000  
  21446976.006   112704612.833       -1228.992          37.000  
  21560785.117   113302605.921       -1229.144          47.000  
  21548667.537   113239016.437       -1229.034          42.000  
  21639217.267   113714883.281       -1229.563          35.000  
  21560731.493   113302336.368       -1229.136          49.000  
  21444924.762   112693858.883       -1228.959          42.000  
  21461046.230   112778566.520       -1229.319          36.000  
  21635994.645   113697908.971       -1229.001          37.000  
  21695778.086   114012079.450       -1229.380          39.000  
  21599659.357   113506963.361       -1229.434          35.000  
  21560680.279   113302134.987       -1229.213          49.000  
  21514964.663   113061932.895       -1229.307          39.000  
  21608738.681   113554721.862       -1229.177          39.000  
  21505587.693   113012596.460       -1229.230          40.000  
  21675265.439   113904289.421       -1229.029          41.000  
  21608744.716   113554749.243       -1229.280          34.000  
  21502362.620   112995662.407       -1229.250          40.000  
  21587938.848   113445394.557       -1229.633          36.000  
  21623100.701   113630188.422       -1228.988          40.000  
  21524046.810   113109674.351       -1229.220          38.000  
  21567129.663   113336064.863       -1229.105          39.000  
 25  8 12  8 44 54.2000000  0 28G 5G 1G 2G 3G 4G18G28G31G 7G30G17G 6
                                G25G27G10G21G16G 8G13G15G32G20G29G 9
                                G24G19G12G23
  21560744.698   113302426.488       -1229.385          49.000  
  21560715.292   113302338.352       -1229.240          49.000  
  21560768.834   113302602.613       -1229.318          47.000  
  21560765.027   113302539.702       -1229.242          49.000  
  21560713.370   113302360.816       -1229.307          49.000  
  21595307.554   113484146.777       -1229.504          34.000  
  21467534.243   112812691.615       -1229.296          37.000  
  21447022.788   112704858.719       -1229.292          37.000  
  21560831.906   113302851.793       -1229.331          47.000  
  21548714.277   113239262.314       -1229.288          41.000  
  21639264.017   113715129.133       -1229.570          35.000  
  21560778.293   113302582.238       -1229.271          49.000  
  21444971.540   112694104.768       -1229.269          42.000  
  21461093.016   112778812.391       -1229.352          36.000  
  21636041.400   113698154.850       -1229.189          37.000  
  21695824.883   114012325.304       -1229.452          39.000  
  21599706.122   113507209.223       -1229.494          35.000  
  21560727.068   113302380.853       -1229.271          49.000  
  21515011.461   113062178.761       -1229.436          39.000  
  21608785.486   113554967.732       -1229.369          39.000  
  21505634.533   113012842.325       -1229.312          40.000  
  21675312.205   113904535.300       -1229.276          41.000  
  21608791.444   113554995.113       -1229.437          34.000  
  21502409.423   112995908.270       -1229.414          40.000  
  21587985.654   113445640.402       -1229.533          36.000  
  21623147.494   113630434.303       -1229.279          40.000  
  21524093.608   113109920.221       -1229.357          38.000  
  21567176.431   113336310.736       -1229.425          39.000  
 25  8 12  8 44 54.4000000  0 28G 5G 1G 2G 3G 4G18G28G31G 7G30G17G 6
                                G25G27G10G21G16G 8G13G15G32G20G29G 9
                                G24G19G12G23
  21560792.029   113302672.343       -1229.187          49.000  
  21560762.068   113302584.212       -1229.138          49.000  
  21560815.619   113302848.472       -1229.211          47.000  
  21560811.809   113302785.562       -1229.193          49.000  
  21560760.142   113302606.674       -1229.166          49.000  
  21595354.351   113484392.633       -1229.114          34.000  
  21467581.048   112812937.477       -1229.188          37.000  
  21447069.555   112705104.581       -1229.279          38.000  
  21560878.705   113303097.651       -1229.204          47.000  
  21548761.099   113239508.177       -1229.226          41.000  
  21639310.793   113715374.973       -1229.211          35.000  
  21560825.066   113302828.095       -1229.153          49.000  
  21445018.306   112694350.632       -1229.189          42.000  
  21461139.794   112779058.245       -1229.329          36.000  
  21636088.157   113698400.717       -1229.220          37.000  
  21695871.680   114012571.157       -1229.150          39.000  
  21599752.874   113507455.072       -1229.252          35.000  
  21560773.860   113302626.711       -1229.180          49.000  
  21515058.234   113062424.611       -1229.209          39.000  
  21608832.242   113555213.581       -1229.190          39.000  
  21505681.294   113013088.186       -1229.224          40.000  
  21675359.002   113904781.163       -1229.240          41.000  
  21608838.185   113555240.969       -1229.285          34.000  
  21502456.246   112996154.127       -1229.192          40.000  
  21588032.422   113445886.244       -1229.158          36.000  
  21623194.262   113630680.159       -1229.203          40.000  
  21524140.370   113110166.082       -1229.297          38.000  
  21567223.201   113336556.592       -1229.177          39.000  
 25  8 12  8 44 54.6000000  0 28G 5G 1G 2G 3G 4G18G28G31G 7G30G17G 6
                                G25G27G10G21G16G 8G13G15G32G20G29G 9
                                G24G19G12G23
  21560839.397   113302918.220       -1229.491          49.000  
  21560808.838   113302830.087       -1229.393          49.000  
  21560862.435   113303094.344       -1229.418          47.000  
  21560858.608   113303031.436       -1229.379          49.000  
  21560806.934   113302852.547       -1229.379          49.000  
  21595401.145   113484638.511       -1229.532          34.000  
  21467627.843   112813183.343       -1229.353          37.000  
  21447116.318   112705350.442       -1229.307          38.000  
  21560925.541   113303343.524       -1229.432          47.000  
  21548807.859   113239754.042       -1229.341          41.000  
  21639357.566   113715620.869       -1229.698          35.000  
  21560871.878   113303073.971       -1229.432          49.000  
  21445065.115   112694596.494       -1229.253          42.000  
  21461186.586   112779304.124       -1229.595          36.000  
  21636134.901   113698646.577       -1229.242          37.000  
  21695918.467   114012817.039       -1229.515          39.000  
  21599799.685   113507700.959       -1229.633          35.000  
  21560820.667   113302872.588       -1229.457          49.000  
  21515105.054   113062670.494       -1229.493          39.000  
  21608879.043   113555459.463       -1229.503          39.000  
  21505728.118   113013334.060       -1229.486          40.000  
  21675405.760   113905027.027       -1229.347          41.000  
  21608884.974   113555486.844       -1229.561          35.000  
  21502503.038   112996400.003       -1229.476          40.000  
  21588079.270   113446132.134       -1229.662          36.000  
  21623241.051   113630926.034       -1229.430          40.000  
  21524187.143   113110411.951       -1229.432          38.000  
  21567269.982   113336802.466       -1229.418          39.000  
 25  8 12  8 44 54.8000000  0 28G 5G 1G 2G 3G 4G18G28G31G 7G30G17G 6
                                G25G27G10G21G16G 8G13G15G32G20G29G 9
                                G24G19G12G23
  21560886.550   113303164.065       -1229.286          49.000  
  21560855.594   113303075.939       -1229.309          49.000  
  21560909.182   113303340.191       -1229.258          47.000  
  21560905.392   113303277.291       -1229.369          49.000  
  21560853.706   113303098.398       -1229.283          49.000  
  21595447.944   113484884.348       -1229.246          33.000  
  21467674.628   112813429.197       -1229.308          37.000  
  21447163.133   112705596.314       -1229.604          38.000  
  21560972.343   113303589.374       -1229.336          47.000  
  21548854.681   113239999.894       -1229.321          41.000  
  21639404.315   113715866.700       -1229.205          35.000  
  21560918.675   113303319.820       -1229.294          49.000  
  21445111.870   112694842.360       -1229.541          42.000  
  21461233.358   112779549.972       -1229.421          36.000  
  21636181.677   113698892.444       -1229.536          37.000  
  21695965.279   114013062.877       -1229.186          39.000  
  21599846.449   113507946.806       -1229.464          35.000  
  21560867.463   113303118.434       -1229.257          49.000  
  21515151.809   113062916.328       -1229.128          39.000  
  21608925.823   113555705.309       -1229.297          39.000  
  21505774.852   113013579.903       -1229.198          40.000  
  21675452.588   113905272.887       -1229.419          41.000  
  21608931.755   113555732.698       -1229.510          35.000  
  21502549.836   112996645.848       -1229.297          40.000  
  21588126.071   113446377.953       -1228.854          36.000  
  21623287.791   113631171.885       -1229.417          40.000  
  21524233.944   113110657.790       -1229.104          38.000  
  21567316.739   113337048.311       -1229.221          39.000  
 25  8 12  8 44 55.0000000  0 28G 5G 1G 2G 3G 4G18G28G31G 7G30G17G 6
                                G25G27G10G21G16G 8G13G15G32G20G29G 9
                                G24G19G12G23
  21560933.098   113303409.925       -1229.180          49.000  
  21560902.379   113303321.789       -1229.087          49.000  
  21560955.983   113303586.048       -1229.159          47.000  
  21560952.179   113303523.145       -1229.198          49.000  
  21560900.497   113303344.253       -1229.146          49.000  
  21595494.719   113485130.211       -1229.292          34.000  
  21467721.420   112813675.048       -1229.052          37.000  
  21447209.899   112705842.160       -1228.928          38.000  
  21561019.174   113303835.226       -1229.128          47.000  
  21548901.454   113240245.745       -1229.098          41.000  
  21639451.077   113716112.576       -1229.352          35.000  
  21560965.471   113303565.675       -1229.175          49.000  
  21445158.635   112695088.206       -1228.951          42.000  
  21461280.139   112779795.834       -1229.014          36.000  
  21636228.467   113699138.291       -1228.837          37.000  
  21696012.031   114013308.735       -1229.255          39.000  
  21599893.215   113508192.671       -1229.229          35.000  
  21560914.246   113303364.292       -1229.230          49.000  
  21515198.629   113063162.186       -1229.309          39.000  
  21608972.580   113555951.169       -1229.125          39.000  
  21505821.660   113013825.759       -1229.203          40.000  
  21675499.374   113905518.736       -1229.054          41.000  
  21608978.566   113555978.558       -1229.185          34.000  
  21502596.624   112996891.701       -1229.187          40.000  
  21588172.839   113446623.828       -1229.466          36.000  
  21623334.619   113631417.741       -1229.035          40.000  
  21524280.739   113110903.641       -1229.318          38.000  
  21567363.539   113337294.164       -1229.133          39.000  
 25  8 12  8 44 55.2000000  0 28G 5G 1G 2G 3G 4G18G28G31G 7G30G17G 6
                                G25G27G10G21G16G 8G13G15G32G20G29G 9
                                G24G19G12G23
  21560979.586   113303655.788       -1229.371          49.000  
  21560949.137   113303567.653       -1229.315          49.000  
  21561002.703   113303831.912       -1229.393          47.000  
  21560998.961   113303769.002       -1229.257          49.000  
  21560947.286   113303590.116       -1229.362          49.000  
  21595541.516   113485376.066       -1229.345          34.000  
  21467768.228   112813920.915       -1229.446          37.000  
  21447256.690   112706088.036       -1229.567          38.000  
  21561065.973   113304081.090       -1229.395          47.000  
  21548948.295   113240491.614       -1229.541          42.000  
  21639497.898   113716358.429       -1229.106          35.000  
  21561012.258   113303811.536       -1229.268          49.000  
  21445205.451   112695334.082       -1229.592          42.000  
  21461326.880   112780041.703       -1229.377          36.000  
  21636275.259   113699384.168       -1229.489          37.000  
  21696058.834   114013554.593       -1229.295          39.000  
  21599939.988   113508438.535       -1229.169          35.000  
  21560961.033   113303610.150       -1229.282          49.000  
  21515245.365   113063408.043       -1229.275          39.000  
  21609019.371   113556197.031       -1229.359          39.000  
  21505868.391   113014071.621       -1229.399          40.000  
  21675546.194   113905764.607       -1229.491          41.000  
  21609025.354   113556224.423       -1229.432          34.000  
  21502643.398   112997137.562       -1229.396          40.000  
  21588219.613   113446869.672       -1229.065          36.000  
  21623381.354   113631663.610       -1229.478          40.000  
  21524327.517   113111149.502       -1229.447          38.000  
  21567410.339   113337540.030       -1229.448          39.000  
 25  8 12  8 44 55.4000000  0 28G 5G 1G 2G 3G 4G18G28G31G 7G30G17G 6
                                G25G27G10G21G16G 8G13G15G32G20G29G 9
                                G24G19G12G23
  21561026.136   113303901.653       -1229.360          49.000  
  21560995.915   113303813.517       -1229.261          49.000  
  21561049.510   113304077.773       -1229.294          47.000  
  21561045.743   113304014.869       -1229.270          49.000  
  21560994.057   113303835.980       -1229.287          49.000  
  21595588.276   113485621.929       -1229.337          34.000  
  21467815.057   112814166.781       -1229.359          37.000  
  21447303.522   112706333.896       -1229.387          38.000  
  21561112.763   113304326.952       -1229.309          47.000  
  21548995.038   113240737.473       -1229.355          42.000  
  21639544.679   113716604.302       -1229.344          35.000  
  21561059.041   113304057.399       -1229.209          49.000  
  21445252.276   112695579.941       -1229.396          42.000  
  21461373.654   112780287.570       -1229.324          36.000  
  21636322.006   113699630.028       -1229.348          37.000  
  21696105.612   114013800.457       -1229.221          39.000  
  21599986.752   113508684.401       -1229.236          35.000  
  21561007.824   113303856.014       -1229.235          49.000  
  21515292.154   113063653.908       -1229.274          39.000  
  21609066.161   113556442.898       -1229.362          39.000  
  21505915.216   113014317.481       -1229.316          40.000  
  21675592.994   113906010.468       -1229.355          41.000  
  21609072.134   113556470.285       -1229.212          34.000  
  21502690.216   112997383.429       -1229.320          40.000  
  21588266.443   113447115.548       -1229.307          36.000  
  21623428.191   113631909.473       -1229.355          40.000  
  21524374.306   113111395.364       -1229.307          38.000  
  21567457.122   113337785.893       -1229.362          39.000  
 25  8 12  8 44 55.6000000  0 28G 5G 1G 2G 3G 4G18G28G31G 7G30G17G 6
                                G25G27G10G21G16G 8G13G15G32G20G29G 9
                                G24G19G12G23
  21561072.963   113304147.508       -1229.282          49.000  
  21561042.641   113304059.379       -1229.316          49.000  
  21561096.334   113304323.635       -1229.358          47.000  
  21561092.528   113304260.730       -1229.340          49.000  
  21561040.849   113304081.840       -1229.346          49.000  
  21595635.038   113485867.787       -1229.264          34.000  
  21467861.860   112814412.644       -1229.462          37.000  
  21447350.294   112706579.756       -1229.371          38.000  
  21561159.573   113304572.813       -1229.353          47.000  
  21549041.853   113240983.338       -1229.387          42.000  
  21639591.457   113716850.137       -1229.165          35.000  
  21561105.830   113304303.264       -1229.340          49.000  
  21445299.079   112695825.807       -1229.438          42.000  
  21461420.402   112780533.425       -1229.357          36.000  
  21636368.817   113699875.891       -1229.393          37.000  
  21696152.424   114014046.318       -1229.352          39.000  
  21600033.503   113508930.247       -1229.291          35.000  
  21561054.618   113304101.875       -1229.321          49.000  
  21515338.910   113063899.762       -1229.265          39.000  
  21609112.930   113556688.756       -1229.323          39.000  
  21505961.958   113014563.344       -1229.359          40.000  
  21675639.803   113906256.329       -1229.349          41.000  
  21609118.847   113556716.139       -1229.404          34.000  
  21502737.007   112997629.288       -1229.399          40.000  
  21588313.209   113447361.395       -1229.252          36.000  
  21623474.916   113632155.335       -1229.389          40.000  
  21524421.107   113111641.224       -1229.366          38.000  
  21567503.896   113338031.753       -1229.392          39.000  
 25  8 12  8 44 55.8000000  0 28G 5G 1G 2G 3G 4G18G28G31G 7G30G17G 6
                                G25G27G10G21G16G 8G13G15G32G20G29G 9
                                G24G19G12G23
  21561119.971   113304393.376       -1229.203          49.000  
  21561089.397   113304305.242       -1229.299          49.000  
  21561143.237   113304569.493       -1229.275          47.000  
  21561139.321   113304506.591       -1229.348          49.000  
  21561087.626   113304327.705       -1229.330          49.000  
  21595681.798   113486113.633       -1229.246          34.000  
  21467908.647   112814658.501       -1229.257          37.000  
  21447397.081   112706825.612       -1229.449          38.000  
  21561206.394   113304818.676       -1229.264          47.000  
  21549088.638   113241229.215       -1229.469          42.000  
  21639638.238   113717096.010       -1228.810          35.000  
  21561152.612   113304549.125       -1229.272          49.000  
  21445345.891   112696071.684       -1229.558          42.000  
  21461467.175   112780779.311       -1229.058          36.000  
  21636415.657   113700121.775       -1229.609          37.000  
  21696199.177   114014292.187       -1229.227          39.000  
  21600080.296   113509176.093       -1228.957          35.000  
  21561101.408   113304347.734       -1229.243          49.000  
  21515385.717   113064145.623       -1229.082          39.000  
  21609159.680   113556934.613       -1229.203          39.000  
  21506008.772   113014809.198       -1229.269          40.000  
  21675686.532   113906502.182       -1229.336          41.000  
  21609165.639   113556962.003       -1229.194          34.000  
  21502783.822   112997875.145       -1229.207          40.000  
  21588360.051   113447607.273       -1228.927          35.000  
  21623521.742   113632401.193       -1229.375          40.000  
  21524467.890   113111887.070       -1229.219          38.000  
  21567550.738   113338277.634       -1229.359          39.000  
