     2.10           OBSERVATION DATA    M (MIXED)           RINEX VERSION / TYPE
RTKCONV 2.4.2                           20200423 111843 UTC PGM / RUN BY / DATE 
log: G:\54\GPS\0423\gps-4                                   COMMENT             
format: u-blox                                              COMMENT             
                                                            MARKER NAME         
                                                            MARKER NUMBER       
                                                            OBSERVER / AGENCY   
                                                            REC # / TYPE / VERS 
                                                            ANT # / TYPE        
        0.0000        0.0000        0.0000                  APPROX POSITION XYZ 
        0.0000        0.0000        0.0000                  ANTENNA: DELTA H/E/N
     1     1                                                WAVELENGTH FACT L1/2
     4    C1    L1    D1    S1                              # / TYPES OF OBSERV 
  2025     8    12     8    57    3.0010000     GPS         TIME OF FIRST OBS   
  2025     8    12     8    59   37.8010000     GPS         TIME OF LAST OBS    
                                                            END OF HEADER       
 25  8 12  8 57  3.0010000  0 22G 5G 1G 2G 3G 4G26G31G23G 7G15G30G22
                                G 6G12G32G28G 8G 9G25G19G16G13
  21730751.750   114196198.327       -1226.212          49.000  
  21730804.654   114196110.122       -1226.177          49.000  
  21730895.978   114196374.395       -1226.161          49.000  
  21730913.745   114196311.527       -1226.233          49.000  
  21730792.892   114196132.580       -1226.211          49.000  
  21693001.847   113997519.607       -1225.996          38.000  
  21828983.676   114712099.525       -1226.295          37.000  
  21695055.104   114008291.581       -1226.184          38.000  
  21730921.671   114196623.630       -1226.217          46.000  
  21697983.662   114023665.627       -1226.167          38.000  
  21718791.290   114133026.140       -1226.008          41.000  
  21865315.608   114903000.077       -1226.180          39.000  
  21730800.880   114196354.121       -1226.218          49.000  
  21867377.960                       -1226.434          38.000  
  21760114.609   114350478.032       -1226.179          39.000  
  21645234.153   113746530.122       -1226.194          37.000  
  21730767.833   114196152.732       -1226.180          49.000  
  21728754.906   114185396.903       -1226.090          34.000  
  21656077.961   113803480.638       -1226.260          38.000  
  21736374.629   114225431.151       -1226.132          39.000  
  21603341.092   113526329.451       -1226.313          37.000  
  21685093.975   113955943.581       -1226.191          39.000  
 25  8 12  8 57  3.2010000  0 22G 5G 1G 2G 3G 4G26G31G23G 7G15G30G22
                                G 6G12G32G28G 8G 9G25G19G16G13
  21730798.741   114196443.567       -1226.029          49.000  
  21730851.395   114196355.364       -1226.061          49.000  
  21730942.849   114196619.640       -1226.053          49.000  
  21730960.415   114196556.763       -1226.005          49.000  
  21730839.544   114196377.820       -1226.017          49.000  
  21693048.508   113997764.859       -1225.948          38.000  
  21829030.368   114712344.761       -1226.078          37.000  
  21695101.744   114008536.826       -1225.950          38.000  
  21730968.346   114196868.873       -1226.053          46.000  
  21698030.288   114023910.871       -1226.074          38.000  
  21718837.960   114133271.397       -1226.028          41.000  
  21865362.283   114903245.320       -1226.024          39.000  
  21730847.534   114196599.360       -1225.989          49.000  
  21867424.608                       -1226.434          38.000  
  21760161.252   114350723.278       -1226.045          39.000  
  21645280.825   113746775.365       -1225.952          37.000  
  21730814.283   114196397.974       -1226.019          49.000  
  21728801.560   114185642.149       -1226.061          35.000  
  21656124.607   113803725.879       -1226.047          38.000  
  21736421.290   114225676.398       -1226.030          39.000  
  21603387.692   113526574.687       -1225.947          37.000  
  21685140.646   113956188.823       -1226.062          39.000  
 25  8 12  8 57  3.4010000  0 22G 5G 1G 2G 3G 4G26G31G23G 7G15G30G22
                                G 6G12G32G28G 8G 9G25G19G16G13
  21730845.590   114196688.798       -1226.375          49.000  
  21730898.150   114196600.592       -1226.329          49.000  
  21730989.604   114196864.866       -1226.371          49.000  
  21731007.090   114196801.997       -1226.355          49.000  
  21730886.218   114196623.052       -1226.316          49.000  
  21693095.192   113998010.092       -1226.414          38.000  
  21829076.995   114712589.986       -1226.246          37.000  
  21695148.366   114008782.061       -1226.448          38.000  
  21731015.019   114197114.101       -1226.337          46.000  
  21698076.971   114024156.098       -1226.310          38.000  
  21718884.620   114133516.626       -1226.536          41.000  
  21865408.992   114903490.551       -1226.414          39.000  
  21730894.221   114196844.591       -1226.296          49.000  
  21867471.193                       -1226.434          38.000  
  21760207.966   114350968.506       -1226.398          39.000  
  21645327.486   113747020.601       -1226.433          37.000  
  21730860.884   114196643.205       -1226.351          49.000  
  21728848.201   114185887.381       -1226.469          35.000  
  21656171.300   113803971.108       -1226.370          38.000  
  21736467.991   114225921.627       -1226.414          39.000  
  21603434.287   113526819.917       -1226.230          37.000  
  21685187.267   113956434.053       -1226.390          39.000  
 25  8 12  8 57  3.6010000  0 22G 5G 1G 2G 3G 4G26G31G23G 7G15G30G22
                                G 6G12G32G28G 8G 9G25G19G16G13
  21730892.668   114196934.049       -1226.354          49.000  
  21730944.899   114196845.847       -1226.433          49.000  
  21731036.726   114197110.119       -1226.455          49.000  
  21731053.765   114197047.251       -1226.465          49.000  
  21730932.870   114196868.309       -1226.417          49.000  
  21693141.862   113998255.336       -1226.340          38.000  
  21829123.670   114712835.248       -1226.423          37.000  
  21695195.040   114009027.313       -1226.506          37.000  
  21731061.632   114197359.356       -1226.448          47.000  
  21698123.625   114024401.354       -1226.433          38.000  
  21718931.318   114133761.867       -1226.322          41.000  
  21865455.632   114903735.796       -1226.324          39.000  
  21730940.873   114197089.844       -1226.440          49.000  
  21867517.760                       -1226.434          38.000  
  21760254.572   114351213.755       -1226.409          39.000  
  21645374.114   113747265.850       -1226.455          37.000  
  21730907.405   114196888.459       -1226.439          49.000  
  21728894.867   114186132.620       -1226.238          35.000  
  21656217.955   113804216.363       -1226.455          38.000  
  21736514.637   114226166.873       -1226.377          39.000  
  21603480.897   113527065.178       -1226.407          37.000  
  21685233.905   113956679.308       -1226.479          39.000  
 25  8 12  8 57  3.8010000  0 24G 5G 1G 2G 3G 4G26G31G23G 7G15G30G22
                                G 6G12G10G32G21G28G 8G 9G25G19G16G13
  21730939.637   114197179.324       -1226.294          49.000  
  21730991.619   114197091.111       -1226.140          49.000  
  21731083.998   114197355.388       -1226.190          49.000  
  21731100.427   114197292.520       -1226.359          49.000  
  21730979.490   114197113.574       -1226.271          49.000  
  21693188.502   113998500.593       -1226.069          38.000  
  21829170.360   114713080.531       -1226.594          37.000  
  21695241.716   114009272.584       -1226.383          37.000  
  21731108.304   114197604.624       -1226.285          47.000  
  21698170.335   114024646.615       -1226.207          38.000  
  21718977.986   114134007.139       -1226.300          41.000  
  21865502.365   114903981.067       -1226.141          39.000  
  21730987.493   114197335.110       -1226.251          49.000  
  21867564.339                       -1226.434          38.000  
  21661846.545   113833771.1862      -2226.340          39.000  
  21760301.264   114351459.022       -1226.239          39.000  
  21765579.527   114378891.5172      -1226.117          38.000  
  21645420.787   113747511.120       -1226.249          37.000  
  21730953.944   114197133.726       -1226.238          49.000  
  21728941.571   114186377.883       -1226.033          35.000  
  21656264.637   113804461.635       -1226.371          38.000  
  21736561.319   114226412.144       -1226.245          39.000  
  21603527.513   113527310.447       -1226.187          37.000  
  21685280.550   113956924.577       -1226.324          39.000  
 25  8 12  8 57  4.0010000  0 24G 5G 1G 2G 3G 4G26G31G23G 7G15G30G22
                                G 6G12G10G32G21G28G 8G 9G25G19G16G13
  21730986.458   114197424.552       -1226.229          49.000  
  21731038.343   114197336.353       -1226.156          49.000  
  21731131.209   114197600.633       -1226.241          49.000  
  21731147.097   114197537.755       -1226.182          49.000  
  21731026.098   114197358.811       -1226.219          49.000  
  21693235.130   113998745.834       -1226.375          38.000  
  21829217.084   114713325.767       -1226.088          37.000  
  21695288.384   114009517.822       -1226.173          37.000  
  21731154.990   114197849.865       -1226.185          46.000  
  21698216.999   114024891.854       -1226.217          38.000  
  21719024.682   114134252.381       -1226.172          41.000  
  21865549.025   114904226.306       -1226.305          39.000  
  21731034.161   114197580.350       -1226.257          49.000  
  21867610.919                       -1226.434          38.000  
  21661893.926   113834216.4212      -2226.215          39.000  
  21760347.883   114351704.262       -1226.213          39.000  
  21765626.086   114379136.7622      -1226.296          38.000  
  21645467.434   113747756.357       -1226.233          37.000  
  21731000.509   114197378.966       -1226.245          49.000  
  21728988.199   114186623.121       -1226.305          35.000  
  21656311.275   113804706.871       -1226.133          38.000  
  21736607.969   114226657.377       -1226.188          39.000  
  21603574.199   113527555.683       -1226.246          37.000  
  21685327.232   113957169.813       -1226.249          39.000  
 25  8 12  8 57  4.2010000  0 24G 5G 1G 2G 3G 4G26G31G23G 7G15G30G22
                                G 6G12G10G32G21G28G 8G 9G25G19G16G13
  21731032.675   114197669.806       -1226.293          49.000  
  21731085.060   114197581.607       -1226.384          49.000  
  21731177.984   114197845.885       -1226.333          49.000  
  21731193.788   114197783.010       -1226.324          49.000  
  21731072.738   114197604.066       -1226.357          49.000  
  21693281.835   113998991.090       -1226.451          38.000  
  21829263.791   114713571.027       -1226.423          37.000  
  21695335.029   114009763.074       -1226.361          37.000  
  21731201.681   114198095.118       -1226.371          47.000  
  21698263.731   114025137.112       -1226.416          38.000  
  21719071.354   114134497.640       -1226.389          41.000  
  21865595.738   114904471.557       -1226.301          39.000  
  21731080.795   114197825.604       -1226.339          49.000  
  21867657.526                       -1226.434          38.000  
  21661943.260   113834661.6712      -2226.342          39.000  
  21760394.580   114351949.518       -1226.311          39.000  
  21765673.095   114379382.0192      -1226.450          39.000  
  21645514.083   113748001.611       -1226.431          37.000  
  21731047.399   114197624.219       -1226.344          49.000  
  21729034.911   114186868.384       -1226.428          35.000  
  21656357.966   113804952.128       -1226.263          38.000  
  21736654.650   114226902.634       -1226.317          39.000  
  21603620.854   113527800.932       -1226.265          37.000  
  21685373.862   113957415.069       -1226.349          39.000  
 25  8 12  8 57  4.4010000  0 24G 5G 1G 2G 3G 4G26G31G23G 7G15G30G22
                                G 6G12G10G32G21G28G 8G 9G25G19G16G13
  21731078.976   114197915.038       -1226.282          49.000  
  21731131.810   114197826.839       -1226.403          49.000  
  21731224.833   114198091.122       -1226.385          49.000  
  21731240.453   114198028.244       -1226.348          49.000  
  21731119.416   114197849.302       -1226.381          49.000  
  21693328.501   113999236.317       -1226.342          38.000  
  21829310.451   114713816.261       -1226.434          37.000  
  21695381.687   114010008.309       -1226.382          37.000  
  21731248.313   114198340.352       -1226.389          47.000  
  21698310.395   114025382.343       -1226.428          37.000  
  21719118.059   114134742.866       -1226.298          41.000  
  21865642.382   114904716.791       -1226.274          38.000  
  21731127.469   114198070.838       -1226.349          49.000  
  21867704.173                       -1226.434          38.000  
  21661991.538   113835106.9052      -2226.389          39.000  
  21760441.212   114352194.751       -1226.274          39.000  
  21765719.460   114379627.2502      -1226.388          39.000  
  21645560.710   113748246.843       -1226.436          37.000  
  21731094.601   114197869.452       -1226.390          49.000  
  21729081.602   114187113.603       -1226.180          35.000  
  21656404.623   113805197.363       -1226.312          38.000  
  21736701.287   114227147.867       -1226.360          39.000  
  21603667.496   113528046.171       -1226.346          37.000  
  21685420.527   113957660.302       -1226.381          39.000  
 25  8 12  8 57  4.6010000  0 24G 5G 1G 2G 3G 4G26G31G23G 7G15G30G22
                                G 6G12G10G32G21G28G 8G 9G25G19G16G13
  21731125.586   114198160.269       -1226.062          49.000  
  21731178.533   114198072.065       -1225.997          49.000  
  21731271.808   114198336.349       -1226.084          49.000  
  21731287.118   114198273.472       -1226.077          49.000  
  21731166.018   114198094.531       -1226.110          49.000  
  21693375.138   113999481.546       -1226.083          38.000  
  21829357.147   114714061.489       -1226.084          37.000  
  21695428.355   114010253.538       -1226.039          38.000  
  21731294.983   114198585.579       -1225.958          47.000  
  21698357.073   114025627.573       -1226.100          37.000  
  21719164.692   114134988.098       -1226.042          41.000  
  21865689.098   114904962.024       -1226.110          39.000  
  21731174.080   114198316.065       -1226.050          49.000  
  21867750.788                       -1226.434          38.000  
  21662043.279   113835552.1352      -2225.963          39.000  
  21760487.893   114352439.978       -1226.016          39.000  
  21765766.246   114379872.4752      -1226.069          39.000  
  21645607.354   113748492.079       -1226.108          37.000  
  21731141.537   114198114.682       -1226.023          49.000  
  21729128.311   114187358.838       -1225.983          35.000  
  21656451.284   113805442.591       -1226.056          38.000  
  21736747.968   114227393.097       -1226.083          39.000  
  21603714.145   113528291.397       -1226.077          37.000  
  21685467.163   113957905.529       -1226.072          39.000  
 25  8 12  8 57  4.8010000  0 24G 5G 1G 2G 3G 4G26G31G23G 7G15G30G22
                                G 6G12G10G32G21G28G 8G 9G25G19G16G13
  21731172.061   114198405.490       -1226.053          49.000  
  21731225.257   114198317.295       -1226.107          49.000  
  21731318.661   114198581.572       -1226.061          49.000  
  21731333.782   114198518.691       -1226.069          49.000  
  21731212.663   114198339.749       -1226.041          49.000  
  21693421.797   113999726.773       -1226.226          38.000  
  21829403.872   114714306.707       -1226.014          37.000  
  21695475.021   114010498.766       -1226.160          38.000  
  21731341.657   114198830.805       -1226.125          47.000  
  21698403.683   114025872.793       -1226.172          37.000  
  21719211.372   114135233.325       -1226.221          41.000  
  21865735.710   114905207.244       -1226.068          39.000  
  21731220.728   114198561.291       -1226.145          49.000  
  21867797.414                       -1226.434          38.000  
  21662102.201   113835997.3542      -2226.033          39.000  
  21760534.523   114352685.207       -1226.169          39.000  
  21765812.897   114380117.7012      -1226.166          39.000  
  21645653.982   113748737.296       -1226.031          37.000  
  21731187.727   114198359.905       -1226.088          49.000  
  21729174.991   114187604.065       -1226.116          35.000  
  21656497.925   113805687.813       -1226.039          38.000  
  21736794.621   114227638.319       -1226.132          39.000  
  21603760.761   113528536.616       -1225.940          37.000  
  21685513.792   113958150.748       -1226.057          39.000  
 25  8 12  8 57  5.0010000  0 24G 5G 1G 2G 3G 4G26G31G23G 7G15G30G22
                                G 6G12G10G32G21G28G 8G 9G25G19G16G13
  21731218.278   114198650.736       -1226.233          49.000  
  21731271.989   114198562.538       -1226.227          49.000  
  21731365.492   114198826.816       -1226.188          49.000  
  21731380.454   114198763.937       -1226.140          49.000  
  21731259.322   114198584.990       -1226.140          49.000  
  21693468.506   113999972.018       -1226.154          38.000  
  21829450.519   114714551.955       -1226.272          38.000  
  21695521.729   114010744.007       -1226.219          38.000  
  21731388.341   114199076.056       -1226.254          47.000  
  21698450.366   114026118.035       -1226.127          37.000  
  21719258.023   114135478.575       -1226.178          41.000  
  21865782.435   114905452.490       -1226.251          39.000  
  21731267.379   114198806.532       -1226.174          49.000  
  21867843.988                       -1226.434          38.000  
  21662153.628   113836442.5972      -2226.238          39.000  
  21760581.214   114352930.452       -1226.204          39.000  
  21765859.486   114380362.9482      -1226.089          39.000  
  21645700.642   113748982.540       -1226.230          37.000  
  21731234.527   114198605.152       -1226.272          49.000  
  21729221.646   114187849.310       -1226.226          35.000  
  21656544.604   113805933.056       -1226.254          38.000  
  21736841.305   114227883.571       -1226.241          39.000  
  21603807.360   113528781.856       -1226.141          37.000  
  21685560.427   113958395.994       -1226.185          39.000  
 25  8 12  8 57  5.2010000  0 24G 5G 1G 2G 3G 4G26G31G23G 7G15G30G22
                                G 6G12G10G32G21G28G 8G 9G25G19G16G13
  21731264.323   114198895.972       -1226.370          49.000  
  21731318.713   114198807.766       -1226.268          49.000  
  21731412.593   114199072.051       -1226.250          49.000  
  21731427.129   114199009.178       -1226.294          49.000  
  21731305.982   114198830.233       -1226.332          49.000  
  21693515.162   114000217.260       -1226.382          38.000  
  21829497.140   114714797.190       -1226.357          38.000  
  21695568.403   114010989.240       -1226.360          38.000  
  21731434.998   114199321.288       -1226.356          47.000  
  21698497.034   114026363.276       -1226.337          37.000  
  21719304.731   114135723.812       -1226.396          41.000  
  21865829.093   114905697.728       -1226.390          39.000  
  21731314.051   114199051.774       -1226.326          49.000  
  21867890.643                       -1226.434          38.000  
  21662203.506   113836887.8372      -2226.407          39.000  
  21760627.882   114353175.690       -1226.375          39.000  
  21765906.132   114380608.1892      -1226.368          39.000  
  21645747.315   113749227.777       -1226.356          37.000  
  21731281.247   114198850.387       -1226.418          49.000  
  21729268.298   114188094.549       -1226.433          35.000  
  21656591.258   113806178.293       -1226.335          38.000  
  21736887.931   114228128.808       -1226.423          39.000  
  21603853.950   113529027.098       -1226.354          37.000  
  21685607.069   113958641.234       -1226.415          39.000  
 25  8 12  8 57  5.4010000  0 24G 5G 1G 2G 3G 4G26G31G23G 7G15G30G22
                                G 6G12G10G32G21G28G 8G 9G25G19G16G13
  21731310.512   114199141.189       -1226.072          49.000  
  21731365.386   114199052.991       -1226.154          49.000  
  21731459.710   114199317.275       -1226.176          49.000  
  21731473.799   114199254.391       -1225.979          49.000  
  21731352.641   114199075.453       -1226.121          49.000  
  21693561.816   114000462.477       -1226.118          38.000  
  21829543.783   114715042.406       -1226.031          38.000  
  21695615.069   114011234.461       -1226.069          38.000  
  21731481.649   114199566.498       -1226.069          47.000  
  21698543.702   114026608.493       -1226.130          37.000  
  21719351.332   114135969.024       -1225.988          41.000  
  21865875.812   114905942.945       -1226.107          39.000  
  21731360.704   114199296.993       -1226.068          49.000  
  21867937.277                       -1226.434          38.000  
  21662250.775   113837333.0562      -2226.212          38.000  
  21760674.602   114353420.903       -1226.044          39.000  
  21765952.788   114380853.4062      -1226.124          39.000  
  21645793.939   113749472.999       -1226.151          37.000  
  21731327.956   114199095.601       -1226.095          49.000  
  21729314.946   114188339.763       -1226.115          35.000  
  21656637.920   113806423.512       -1226.102          38.000  
  21736934.617   114228374.019       -1226.108          39.000  
  21603900.542   113529272.313       -1226.052          37.000  
  21685653.703   113958886.448       -1226.091          39.000  
 25  8 12  8 57  5.6010000  0 24G 5G 1G 2G 3G 4G26G31G23G 7G15G30G22
                                G 6G12G10G32G21G28G 8G 9G25G19G16G13
  21731356.749   114199386.399       -1226.307          49.000  
  21731412.084   114199298.206       -1226.403          49.000  
  21731506.641   114199562.483       -1226.254          49.000  
  21731520.473   114199499.614       -1226.376          49.000  
  21731399.348   114199320.665       -1226.326          49.000  
  21693608.472   114000707.690       -1226.310          38.000  
  21829590.443   114715287.624       -1226.368          38.000  
  21695661.683   114011479.673       -1226.277          38.000  
  21731528.323   114199811.713       -1226.310          47.000  
  21698590.364   114026853.706       -1226.338          37.000  
  21719398.047   114136214.239       -1226.260          41.000  
  21865922.471   114906188.159       -1226.317          39.000  
  21731407.393   114199542.206       -1226.304          49.000  
  21867983.896                       -1226.434          38.000  
  21662298.591   113837778.2582      -2226.224          38.000  
  21760721.250   114353666.122       -1226.350          39.000  
  21765999.336   114381098.6212      -1226.335          39.000  
  21645840.604   113749718.208       -1226.245          37.000  
  21731374.577   114199340.806       -1226.117          49.000  
  21729361.620   114188584.970       -1226.184          35.000  
  21656684.591   113806668.721       -1226.199          38.000  
  21736981.239   114228619.231       -1226.205          39.000  
  21603947.171   113529517.527       -1226.278          37.000  
  21685700.337   113959131.663       -1226.351          38.000  
 25  8 12  8 57  5.8010000  0 24G 5G 1G 2G 3G 4G26G31G23G 7G15G30G22
                                G 6G12G10G32G21G28G 8G 9G25G19G16G13
  21731403.126   114199631.628       -1226.014          49.000  
  21731458.702   114199543.427       -1226.053          49.000  
  21731553.055   114199807.713       -1226.115          49.000  
  21731567.144   114199744.837       -1226.105          49.000  
  21731445.959   114199565.891       -1226.090          49.000  
  21693655.171   114000952.918       -1226.299          38.000  
  21829637.142   114715532.846       -1225.999          38.000  
  21695708.377   114011724.899       -1225.977          38.000  
  21731574.989   114200056.942       -1226.123          47.000  
  21698637.052   114027098.932       -1226.154          37.000  
  21719444.643   114136459.471       -1226.317          41.000  
  21865969.187   114906433.388       -1226.111          39.000  
  21731454.008   114199787.432       -1226.111          49.000  
  21868030.467                       -1226.434          38.000  
  21662360.728   113838223.4922      -2225.973          38.000  
  21760767.941   114353911.349       -1226.204          39.000  
  21766045.919   114381343.8462      -1226.254          39.000  
  21645887.266   113749963.433       -1226.046          37.000  
  21731421.836   114199586.047       -1226.141          49.000  
  21729408.355   114188830.211       -1226.184          35.000  
  21656731.261   113806913.952       -1225.962          38.000  
  21737027.929   114228864.465       -1226.215          39.000  
  21603993.799   113529762.761       -1226.047          37.000  
  21685746.981   113959376.886       -1226.025          39.000  
 25  8 12  8 57  6.0010000  0 24G 5G 1G 2G 3G 4G26G31G23G 7G15G30G22
                                G 6G12G10G32G21G28G 8G 9G25G19G16G13
  21731449.713   114199876.884       -1226.403          49.000  
  21731505.399   114199788.680       -1226.313          49.000  
  21731599.578   114200052.953       -1226.406          49.000  
  21731613.815   114199990.077       -1226.354          49.000  
  21731492.618   114199811.138       -1226.390          49.000  
  21693701.786   114001198.151       -1226.238          38.000  
  21829683.791   114715778.094       -1226.455          38.000  
  21695754.945   114011970.147       -1226.404          38.000  
  21731621.659   114200302.193       -1226.501          47.000  
  21698683.700   114027344.175       -1226.278          37.000  
  21719491.333   114136704.700       -1226.160          41.000  
  21866015.841   114906678.629       -1226.379          39.000  
  21731500.696   114200032.670       -1226.302          49.000  
  21868077.151                       -1226.434          38.000  
  21662436.316   113838668.7462      -2226.478          38.000  
  21760814.566   114354156.586       -1226.316          39.000  
  21766092.512   114381589.0792      -1226.206          39.000  
  21645933.925   113750208.677       -1226.271          37.000  
  21731468.400   114199831.285       -1226.354          49.000  
  21729455.074   114189075.447       -1226.315          35.000  
  21656777.949   113807159.203       -1226.359          38.000  
  21737074.574   114229109.703       -1226.301          39.000  
  21604040.470   113530008.006       -1226.437          37.000  
  21685793.593   113959622.130       -1226.324          39.000  
 25  8 12  8 57  6.2010000  0 24G 5G 1G 2G 3G 4G26G31G23G 7G15G30G22
                                G 6G12G10G32G21G28G 8G 9G25G19G16G13
  21731496.445   114200122.109       -1226.246          49.000  
  21731552.051   114200033.910       -1226.171          49.000  
  21731646.207   114200298.188       -1226.106          49.000  
  21731660.494   114200235.314       -1226.156          49.000  
  21731539.250   114200056.368       -1226.124          49.000  
  21693748.442   114001443.390       -1226.034          38.000  
  21829730.418   114716023.324       -1226.118          38.000  
  21695801.626   114012215.376       -1226.075          38.000  
  21731668.292   114200547.416       -1226.121          47.000  
  21698730.344   114027589.411       -1226.149          37.000  
  21719537.936   114136949.943       -1226.072          41.000  
  21866062.547   114906923.862       -1226.099          39.000  
  21731547.331   114200277.909       -1226.146          49.000  
  21868123.772                       -1226.434          38.000  
  21662520.159   113839113.9762      -2226.222          36.000  
  21760861.238   114354401.821       -1226.083          39.000  
  21766139.099   114381834.3212      -1226.049          39.000  
  21645980.570   113750453.908       -1226.105          37.000  
  21731514.829   114200076.520       -1226.182          49.000  
  21729501.776   114189320.681       -1226.171          35.000  
  21656824.623   113807404.435       -1226.204          38.000  
  21737121.242   114229354.939       -1226.143          39.000  
  21604087.070   113530253.237       -1226.190          37.000  
  21685840.224   113959867.364       -1226.061          39.000  
 25  8 12  8 57  6.4010000  0 24G 5G 1G 2G 3G 4G26G31G23G 7G15G30G22
                                G 6G12G10G32G21G28G 8G 9G25G19G16G13
  21731543.193   114200367.340       -1226.140          49.000  
  21731598.776   114200279.143       -1226.232          49.000  
  21731692.876   114200543.418       -1226.227          49.000  
  21731707.166   114200480.549       -1226.232          49.000  
  21731585.906   114200301.598       -1226.200          49.000  
  21693795.068   114001688.627       -1226.229          38.000  
  21829777.080   114716268.552       -1226.161          38.000  
  21695848.275   114012460.606       -1226.079          38.000  
  21731714.956   114200792.649       -1226.238          47.000  
  21698777.044   114027834.640       -1226.194          37.000  
  21719584.641   114137195.182       -1226.198          41.000  
  21866109.184   114907169.101       -1226.252          39.000  
  21731594.003   114200523.143       -1226.287          49.000  
  21868170.352                       -1226.434          38.000  
  21662605.570   113839559.2172      -2226.335          35.000  
  21760907.873   114354647.057       -1226.223          39.000  
  21766185.697   114382079.5602      -1226.198          39.000  
  21646027.219   113750699.142       -1226.130          37.000  
  21731561.258   114200321.751       -1226.191          49.000  
  21729548.437   114189565.909       -1225.988          35.000  
  21656871.274   113807649.662       -1226.208          38.000  
  21737167.881   114229600.171       -1226.218          39.000  
  21604133.668   113530498.461       -1226.130          37.000  
  21685886.841   113960112.600       -1226.290          39.000  
 25  8 12  8 57  6.6010000  0 24G 5G 1G 2G 3G 4G26G31G23G 7G15G30G22
                                G 6G12G10G32G21G28G 8G 9G25G19G16G13
  21731589.566   114200612.584       -1226.228          49.000  
  21731645.434   114200524.379       -1226.127          49.000  
  21731740.163   114200788.655       -1226.205          49.000  
  21731753.847   114200725.786       -1226.143          49.000  
  21731632.530   114200546.831       -1226.134          49.000  
  21693841.760   114001933.866       -1226.127          38.000  
  21829823.738   114716513.789       -1226.235          38.000  
  21695894.974   114012705.879       -1226.259          38.000  
  21731761.597   114201037.891       -1226.162          47.000  
  21698823.732   114028079.872       -1226.055          37.000  
  21719631.257   114137440.412       -1226.073          40.000  
  21866155.897   114907414.323       -1226.180          38.000  
  21731640.613   114200768.377       -1226.166          49.000  
  21868216.982                       -1226.434          38.000  
  21662689.328   113840004.4022      -2226.090          32.000  
  21760954.588   114354892.292       -1226.166          39.000  
  21766232.273   114382324.7942      -1226.111          39.000  
  21646073.856   113750944.367       -1226.167          37.000  
  21731607.735   114200567.002       -1226.222          49.000  
  21729595.118   114189811.144       -1225.890          35.000  
  21656917.934   113807894.897       -1226.183          38.000  
  21737214.571   114229845.416       -1226.158          39.000  
  21604180.276   113530743.698       -1226.189          37.000  
  21685933.521   113960357.847       -1226.278          39.000  
 25  8 12  8 57  6.8010000  0 24G 5G 1G 2G 3G 4G26G31G23G 7G15G30G22
                                G 6G12G10G32G21G28G 8G 9G25G19G16G13
  21731635.396   114200857.821       -1226.343          49.000  
  21731692.118   114200769.614       -1226.332          49.000  
  21731787.498   114201033.887       -1226.300          49.000  
  21731800.521   114200971.017       -1226.279          49.000  
  21731679.206   114200792.064       -1226.320          49.000  
  21693888.424   114002179.100       -1226.401          39.000  
  21829870.430   114716759.023       -1226.366          38.000  
  21695941.646   114012951.104       -1226.434          38.000  
  21731808.241   114201283.124       -1226.353          47.000  
  21698870.424   114028325.109       -1226.316          38.000  
  21719677.949   114137685.655       -1226.455          40.000  
  21866202.565   114907659.559       -1226.320          38.000  
  21731687.278   114201013.611       -1226.279          49.000  
  21868263.571                       -1226.434          38.000  
  21662772.108   113840449.6392      -2226.012          31.000  
  21761001.257   114355137.531       -1226.396          39.000  
  21766278.844   114382570.0342      -1226.423          39.000  
  21646120.501   113751189.602       -1226.364          37.000  
  21731654.856   114200812.227       -1226.364          49.000  
  21729641.751   114190056.394       -1226.486          35.000  
  21656964.610   113808140.126       -1226.221          38.000  
  21737261.205   114230090.649       -1226.360          39.000  
  21604226.922   113530988.930       -1226.301          37.000  
  21685980.118   113960603.073       -1226.321          39.000  
 25  8 12  8 57  7.0010000  0 23G 5G 1G 2G 3G 4G26G31G23G 7G15G30G22
                                G 6G12G32G21G28G 8G 9G25G19G16G13
  21731681.252   114201103.045       -1226.105          49.000  
  21731738.789   114201014.840       -1226.190          49.000  
  21731834.500   114201279.112       -1226.183          49.000  
  21731847.188   114201216.243       -1226.183          49.000  
  21731725.839   114201037.290       -1226.150          49.000  
  21693935.113   114002424.321       -1226.200          39.000  
  21829917.135   114717004.245       -1226.106          38.000  
  21695988.308   114013196.329       -1226.094          38.000  
  21731854.891   114201528.347       -1226.111          47.000  
  21698917.097   114028570.337       -1226.243          38.000  
  21719724.555   114137930.874       -1226.346          40.000  
  21866249.251   114907904.782       -1226.158          38.000  
  21731733.931   114201258.840       -1226.190          49.000  
  21868310.286                       -1226.434          38.000  
  21761047.944   114355382.750       -1226.248          39.000  
  21766325.407   114382815.2522      -1226.282          39.000  
  21646167.168   113751434.829       -1226.201          37.000  
  21731701.820   114201057.452       -1226.165          49.000  
  21729688.443   114190301.611       -1226.281          35.000  
  21657011.239   113808385.359       -1226.177          38.000  
  21737307.881   114230335.873       -1226.158          39.000  
  21604273.579   113531234.158       -1226.071          37.000  
  21686026.787   113960848.296       -1226.064          39.000  
 25  8 12  8 57  7.2010000  0 23G 5G 1G 2G 3G 4G26G31G23G 7G15G30G22
                                G 6G12G32G21G28G 8G 9G25G19G16G13
  21731727.091   114201348.276       -1226.381          49.000  
  21731785.518   114201260.072       -1226.349          49.000  
  21731881.584   114201524.345       -1226.387          49.000  
  21731893.860   114201461.473       -1226.293          49.000  
  21731772.513   114201282.523       -1226.367          49.000  
  21693981.718   114002669.550       -1226.237          39.000  
  21829963.830   114717249.484       -1226.423          38.000  
  21696034.943   114013441.564       -1226.445          38.000  
  21731901.551   114201773.578       -1226.307          47.000  
  21698963.754   114028815.566       -1226.354          38.000  
  21719771.250   114138176.093       -1226.168          40.000  
  21866295.891   114908150.016       -1226.366          38.000  
  21731780.602   114201504.070       -1226.312          49.000  
  21868356.913                       -1226.434          38.000  
  21761094.564   114355627.980       -1226.309          39.000  
  21766372.004   114383060.4772      -1226.163          39.000  
  21646213.796   113751680.055       -1226.331          37.000  
  21731748.788   114201302.687       -1226.373          49.000  
  21729735.122   114190546.840       -1226.204          35.000  
  21657057.925   113808630.590       -1226.318          38.000  
  21737354.527   114230581.106       -1226.375          39.000  
  21604320.193   113531479.392       -1226.390          38.000  
  21686073.406   113961093.534       -1226.345          39.000  
 25  8 12  8 57  7.4010000  0 23G 5G 1G 2G 3G 4G26G31G23G 7G15G30G22
                                G 6G12G32G21G28G 8G 9G25G19G16G13
  21731773.111   114201593.495       -1226.028          49.000  
  21731832.214   114201505.294       -1225.979          49.000  
  21731928.877   114201769.568       -1226.058          49.000  
  21731940.533   114201706.700       -1226.036          49.000  
  21731819.136   114201527.751       -1226.151          49.000  
  21694028.405   114002914.777       -1225.951          39.000  
  21830010.508   114717494.700       -1225.985          38.000  
  21696081.640   114013686.774       -1225.828          37.000  
  21731948.203   114202018.809       -1226.171          47.000  
  21699010.443   114029060.793       -1226.093          38.000  
  21719817.852   114138421.338       -1226.248          40.000  
  21866342.617   114908395.246       -1226.179          38.000  
  21731827.246   114201749.302       -1226.158          49.000  
  21868403.561                       -1226.434          38.000  
  21761141.244   114355873.213       -1226.133          39.000  
  21766418.573   114383305.708       -1226.035          39.000  
  21646260.472   113751925.282       -1226.047          37.000  
  21731795.689   114201547.910       -1225.997          49.000  
  21729781.835   114190792.063       -1225.879          35.000  
  21657104.617   113808875.823       -1226.174          38.000  
  21737401.203   114230826.322       -1225.902          39.000  
  21604366.817   113531724.616       -1226.088          38.000  
  21686120.079   113961338.761       -1226.096          39.000  
 25  8 12  8 57  7.6010000  0 23G 5G 1G 2G 3G 4G26G31G23G 7G15G30G22
                                G 6G12G32G21G28G 8G 9G25G19G16G13
  21731820.428   114201838.731       -1226.124          49.000  
  21731878.912   114201750.520       -1226.095          49.000  
  21731975.510   114202014.796       -1226.110          49.000  
  21731987.205   114201951.924       -1226.050          49.000  
  21731865.778   114201772.978       -1226.056          49.000  
  21694075.034   114003160.006       -1226.141          39.000  
  21830057.127   114717739.920       -1226.115          38.000  
  21696128.302   114013932.003       -1226.272          37.000  
  21731994.859   114202264.034       -1226.044          47.000  
  21699057.120   114029306.021       -1226.077          38.000  
  21719864.586   114138666.574       -1226.084          40.000  
  21866389.270   114908640.473       -1226.035          38.000  
  21731873.884   114201994.531       -1226.036          49.000  
  21868450.181                       -1226.434          38.000  
  21761187.897   114356118.448       -1226.086          39.000  
  21766465.163   114383550.947       -1226.147          39.000  
  21646307.096   113752170.511       -1226.019          37.000  
  21731842.191   114201793.138       -1226.102          49.000  
  21729828.476   114191037.298       -1226.431          35.000  
  21657151.279   113809121.048       -1226.008          38.000  
  21737447.851   114231071.552       -1226.127          39.000  
  21604413.460   113531969.842       -1225.989          38.000  
  21686166.734   113961583.991       -1226.102          39.000  
 25  8 12  8 57  7.8010000  0 23G 5G 1G 2G 3G 4G26G31G23G 7G15G30G22
                                G 6G12G32G21G28G 8G 9G25G19G16G13
  21731867.733   114202083.967       -1226.326          49.000  
  21731925.617   114201995.758       -1226.335          49.000  
  21732021.611   114202260.035       -1226.315          49.000  
  21732033.874   114202197.162       -1226.268          49.000  
  21731912.435   114202018.217       -1226.296          49.000  
  21694121.717   114003405.237       -1226.317          39.000  
  21830103.848   114717985.160       -1226.244          37.000  
  21696174.954   114014177.235       -1226.423          37.000  
  21732041.532   114202509.275       -1226.389          47.000  
  21699103.767   114029551.261       -1226.317          38.000  
  21719911.255   114138911.814       -1226.633          40.000  
  21866435.995   114908885.715       -1226.382          38.000  
  21731920.555   114202239.764       -1226.292          49.000  
  21868496.834                       -1226.434          38.000  
  21761234.606   114356363.683       -1226.348          39.000  
  21766511.744   114383796.184       -1226.527          39.000  
  21646353.757   113752415.745       -1226.406          36.000  
  21731889.210   114202038.372       -1226.324          49.000  
  21729875.106   114191282.524       -1226.620          35.000  
  21657197.948   113809366.286       -1226.243          38.000  
  21737494.539   114231316.792       -1226.433          39.000  
  21604460.077   113532215.081       -1226.115          38.000  
  21686213.395   113961829.225       -1226.276          39.000  
 25  8 12  8 57  8.0010000  0 23G 5G 1G 2G 3G 4G26G31G23G 7G15G30G22
                                G 6G12G32G21G28G 8G 9G25G19G16G13
  21731915.131   114202329.215       -1226.332          49.000  
  21731972.317   114202241.009       -1226.436          49.000  
  21732068.351   114202505.288       -1226.510          49.000  
  21732080.550   114202442.413       -1226.382          49.000  
  21731959.090   114202263.471       -1226.355          49.000  
  21694168.359   114003650.491       -1226.426          39.000  
  21830150.541   114718230.404       -1226.340          37.000  
  21696221.591   114014422.484       -1226.450          37.000  
  21732088.212   114202754.523       -1226.384          47.000  
  21699150.411   114029796.511       -1226.396          38.000  
  21719957.958   114139157.059       -1226.451          40.000  
  21866482.635   114909130.960       -1226.404          38.000  
  21731967.205   114202485.015       -1226.362          49.000  
  21868543.455                       -1226.434          38.000  
  21761281.277   114356608.932       -1226.407          38.000  
  21766558.409   114384041.435       -1226.450          39.000  
  21646400.404   113752661.000       -1226.420          36.000  
  21731935.924   114202283.622       -1226.438          49.000  
  21729921.801   114191527.774       -1226.423          34.000  
  21657244.590   113809611.539       -1226.453          38.000  
  21737541.167   114231562.038       -1226.486          39.000  
  21604506.714   113532460.334       -1226.455          38.000  
  21686259.997   113962074.476       -1226.384          39.000  
 25  8 12  8 57  8.2010000  0 23G 5G 1G 2G 3G 4G26G31G23G 7G15G30G22
                                G 6G12G32G21G28G 8G 9G25G19G16G13
  21731962.521   114202574.461       -1226.367          49.000  
  21732019.011   114202486.247       -1226.366          49.000  
  21732114.608   114202750.520       -1226.266          49.000  
  21732127.225   114202687.659       -1226.443          49.000  
  21732005.794   114202508.721       -1226.499          49.000  
  21694215.059   114003895.734       -1226.443          39.000  
  21830197.202   114718475.652       -1226.309          37.000  
  21696268.220   114014667.728       -1226.431          37.000  
  21732134.865   114202999.771       -1226.434          47.000  
  21699197.064   114030041.757       -1226.423          38.000  
  21720004.602   114139402.297       -1226.393          40.000  
  21866529.351   114909376.202       -1226.365          38.000  
  21732013.873   114202730.261       -1226.423          49.000  
  21868590.051                       -1226.434          38.000  
  21761327.981   114356854.172       -1226.332          38.000  
  21766605.084   114384286.677       -1226.417          39.000  
  21646447.080   113752906.253       -1226.626          36.000  
  21731982.571   114202528.870       -1226.409          49.000  
  21729968.406   114191773.012       -1226.470          34.000  
  21657291.288   113809856.785       -1226.431          38.000  
  21737587.852   114231807.279       -1226.365          39.000  
  21604553.320   113532705.574       -1226.279          38.000  
  21686306.630   113962319.723       -1226.482          39.000  
 25  8 12  8 57  8.4010000  0 23G 5G 1G 2G 3G 4G26G31G23G 7G15G30G22
                                G 6G12G32G21G28G 8G 9G25G19G16G13
  21732009.206   114202819.712       -1226.146          49.000  
  21732065.704   114202731.498       -1225.946          49.000  
  21732161.644   114202995.778       -1225.890          49.000  
  21732173.897   114202932.902       -1226.051          49.000  
  21732052.426   114202753.958       -1226.133          49.000  
  21694261.702   114004140.998       -1225.995          39.000  
  21830243.848   114718720.933       -1226.024          37.000  
  21696314.896   114014912.988       -1226.042          37.000  
  21732181.539   114203245.021       -1226.145          47.000  
  21699243.717   114030286.971       -1225.991          38.000  
  21720051.292   114139647.522       -1225.894          40.000  
  21866576.045   114909621.444       -1226.027          38.000  
  21732060.501   114202975.494       -1225.952          49.000  
  21868636.689                       -1226.434          38.000  
  21761374.626   114357099.422       -1225.978          38.000  
  21766651.681   114384531.910       -1225.928          39.000  
  21646493.721   113753151.488       -1226.038          36.000  
  21732029.651   114202774.116       -1225.983          49.000  
  21730015.102   114192018.275       -1226.115          34.000  
  21657337.972   113810102.021       -1225.948          38.000  
  21737634.518   114232052.543       -1226.010          39.000  
  21604599.956   113532950.829       -1226.005          38.000  
  21686353.276   113962564.968       -1225.995          39.000  
 25  8 12  8 57  8.6010000  0 23G 5G 1G 2G 3G 4G26G31G23G 7G15G30G22
                                G 6G12G32G21G28G 8G 9G25G19G16G13
  21732055.922   114203064.930       -1226.205          49.000  
  21732112.421   114202976.727       -1226.252          49.000  
  21732208.940   114203241.009       -1226.312          49.000  
  21732220.577   114203178.128       -1226.204          49.000  
  21732099.111   114202999.180       -1226.157          49.000  
  21694308.421   114004386.226       -1226.251          39.000  
  21830290.473   114718966.148       -1226.320          37.000  
  21696361.584   114015158.212       -1226.267          37.000  
  21732228.210   114203490.245       -1226.156          47.000  
  21699290.405   114030532.203       -1226.097          38.000  
  21720097.937   114139892.767       -1226.237          40.000  
  21866622.747   114909866.670       -1226.278          38.000  
  21732107.175   114203220.724       -1226.199          49.000  
  21868683.300                       -1226.434          38.000  
  21761421.297   114357344.649       -1226.219          39.000  
  21766698.346   114384777.146       -1226.202          39.000  
  21646540.411   113753396.716       -1226.125          36.000  
  21732076.427   114203019.344       -1226.281          49.000  
  21730061.692   114192263.491       -1226.229          35.000  
  21657384.615   113810347.250       -1226.262          38.000  
  21737681.207   114232297.767       -1226.235          39.000  
  21604646.583   113533196.051       -1226.259          38.000  
  21686399.937   113962810.196       -1226.244          39.000  
 25  8 12  8 57  8.8010000  0 23G 5G 1G 2G 3G 4G26G31G23G 7G15G30G22
                                G 6G12G32G21G28G 8G 9G25G19G16G13
  21732102.574   114203310.138       -1225.961          49.000  
  21732159.065   114203221.939       -1226.036          49.000  
  21732255.755   114203486.215       -1225.968          49.000  
  21732267.247   114203423.336       -1226.005          49.000  
  21732145.725   114203244.394       -1226.057          49.000  
  21694355.041   114004631.436       -1226.083          39.000  
  21830337.125   114719211.352       -1225.964          37.000  
  21696408.287   114015403.426       -1226.111          37.000  
  21732274.881   114203735.450       -1226.001          47.000  
  21699337.115   114030777.419       -1226.116          38.000  
  21720144.589   114140137.978       -1226.172          40.000  
  21866669.398   114910111.878       -1226.001          38.000  
  21732153.815   114203465.938       -1226.064          49.000  
  21868729.987                       -1226.434          38.000  
  21761467.974   114357589.861       -1225.989          39.000  
  21766744.925   114385022.355       -1226.010          39.000  
  21646587.035   113753641.936       -1226.139          36.000  
  21732123.178   114203264.552       -1225.986          49.000  
  21730108.379   114192508.707       -1226.101          35.000  
  21657431.270   113810592.458       -1226.016          38.000  
  21737727.821   114232542.974       -1225.944          39.000  
  21604693.225   113533441.259       -1226.002          38.000  
  21686446.542   113963055.404       -1226.005          39.000  
 25  8 12  8 57  9.0010000  0 23G 5G 1G 2G 3G 4G26G31G23G 7G15G30G22
                                G 6G12G32G21G28G 8G 9G25G19G16G13
  21732149.309   114203555.352       -1226.158          49.000  
  21732205.735   114203467.150       -1226.085          49.000  
  21732302.835   114203731.429       -1226.130          49.000  
  21732313.911   114203668.549       -1226.112          49.000  
  21732192.345   114203489.606       -1226.100          49.000  
  21694401.730   114004876.638       -1225.969          39.000  
  21830383.775   114719456.575       -1226.215          37.000  
  21696455.017   114015648.635       -1226.086          37.000  
  21732321.535   114203980.668       -1226.094          47.000  
  21699383.763   114031022.621       -1226.016          38.000  
  21720191.181   114140383.167       -1225.885          40.000  
  21866716.118   114910357.092       -1226.116          38.000  
  21732200.430   114203711.146       -1226.067          49.000  
  21868776.618                       -1226.434          38.000  
  21761514.667   114357835.069       -1226.052          39.000  
  21766791.568   114385267.555       -1225.923          39.000  
  21646633.735   113753887.135       -1226.019          36.000  
  21732169.985   114203509.765       -1226.100          49.000  
  21730155.082   114192753.912       -1226.060          35.000  
  21657477.927   113810837.674       -1226.083          38.000  
  21737774.502   114232788.188       -1226.118          40.000  
  21604739.881   113533686.484       -1226.279          38.000  
  21686493.215   113963300.623       -1226.224          39.000  
 25  8 12  8 57  9.2010000  0 24G 5G 1G 2G 3G 4G26G31G23G 7G15G30G22
                                G 6G12G32G21G28G 8G 9G25G19G16G11G13
  21732196.276   114203800.579       -1226.189          49.000  
  21732252.397   114203712.375       -1226.190          49.000  
  21732349.528   114203976.652       -1226.211          49.000  
  21732360.591   114203913.776       -1226.201          49.000  
  21732238.995   114203734.834       -1226.145          49.000  
  21694448.376   114005121.865       -1226.033          39.000  
  21830430.418   114719701.784       -1226.095          37.000  
  21696501.736   114015893.867       -1226.299          37.000  
  21732368.223   114204225.887       -1226.217          47.000  
  21699430.478   114031267.867       -1226.432          38.000  
  21720237.884   114140628.411       -1226.195          40.000  
  21866762.764   114910602.318       -1226.235          38.000  
  21732247.076   114203956.372       -1226.176          49.000  
  21868824.202                       -1226.434          38.000  
  21761561.325   114358080.292       -1226.100          39.000  
  21766838.185   114385512.792       -1226.122          39.000  
  21646680.366   113754132.365       -1226.068          36.000  
  21732216.606   114203754.992       -1226.227          49.000  
  21730201.725   114192999.155       -1226.343          35.000  
  21657524.601   113811082.894       -1226.138          38.000  
  21737821.178   114233033.408       -1226.101          40.000  
  21604786.510   113533931.696       -1226.146          38.000  
  21759260.159   114345683.4852      -2226.355          39.000  
  21686539.824   113963545.840       -1226.136          39.000  
 25  8 12  8 57  9.4010000  0 24G 5G 1G 2G 3G 4G26G31G23G 7G15G30G22
                                G 6G12G32G21G28G 8G 9G25G19G16G11G13
  21732243.428   114204045.790       -1226.066          49.000  
  21732299.073   114203957.587       -1226.105          49.000  
  21732395.872   114204221.867       -1226.204          49.000  
  21732407.263   114204158.991       -1226.130          49.000  
  21732285.631   114203980.042       -1226.066          49.000  
  21694495.082   114005367.080       -1226.306          39.000  
  21830477.080   114719946.994       -1226.071          37.000  
  21696548.391   114016139.078       -1226.119          37.000  
  21732414.874   114204471.104       -1226.161          47.000  
  21699477.117   114031513.079       -1225.958          38.000  
  21720284.493   114140873.628       -1226.400          40.000  
  21866809.481   114910847.535       -1226.198          38.000  
  21732293.719   114204201.586       -1226.078          49.000  
  21868872.163                       -1226.434          37.000  
  21761608.034   114358325.507       -1226.250          39.000  
  21766884.855   114385758.007       -1226.267          39.000  
  21646727.066   113754377.578       -1226.250          37.000  
  21732263.720   114204000.199       -1226.134          49.000  
  21730248.384   114193244.355       -1226.016          35.000  
  21657571.252   113811328.103       -1226.079          38.000  
  21737867.847   114233278.620       -1226.182          39.000  
  21604833.129   113534176.899       -1225.909          37.000  
  21759315.998   114346128.6872      -2225.923          39.000  
  21686586.479   113963791.051       -1226.071          39.000  
 25  8 12  8 57  9.6010000  0 24G 5G 1G 2G 3G 4G26G31G23G 7G15G30G22
                                G 6G12G32G21G28G 8G 9G25G19G16G11G13
  21732290.473   114204291.030       -1226.290          49.000  
  21732345.741   114204202.824       -1226.252          49.000  
  21732442.849   114204467.105       -1226.245          49.000  
  21732453.939   114204404.230       -1226.263          49.000  
  21732332.281   114204225.279       -1226.251          49.000  
  21694541.727   114005612.307       -1226.206          39.000  
  21830523.775   114720192.241       -1226.376          37.000  
  21696595.084   114016384.319       -1226.295          37.000  
  21732461.591   114204716.333       -1226.274          47.000  
  21699523.816   114031758.318       -1226.270          38.000  
  21720331.215   114141118.850       -1226.235          40.000  
  21866856.158   114911092.769       -1226.259          38.000  
  21732340.378   114204446.826       -1226.284          49.000  
  21868918.218                       -1226.434          37.000  
  21761654.687   114358570.733       -1226.183          39.000  
  21766931.459   114386003.233       -1226.240          39.000  
  21646773.707   113754622.814       -1226.322          37.000  
  21732310.252   114204245.439       -1226.251          49.000  
  21730295.026   114193489.602       -1226.343          35.000  
  21657617.897   113811573.343       -1226.285          38.000  
  21737914.513   114233523.853       -1226.218          39.000  
  21604879.747   113534422.152       -1226.228          38.000  
  21759380.115   114346573.9282      -2226.332          38.000  
  21686633.082   113964036.293       -1226.359          39.000  
 25  8 12  8 57  9.8010000  0 24G 5G 1G 2G 3G 4G26G31G23G 7G15G30G22
                                G 6G12G32G21G28G 8G 9G25G19G16G11G13
  21732337.012   114204536.257       -1226.217          49.000  
  21732392.401   114204448.057       -1226.267          49.000  
  21732489.441   114204712.332       -1226.235          49.000  
  21732500.608   114204649.459       -1226.215          49.000  
  21732378.939   114204470.510       -1226.266          49.000  
  21694588.419   114005857.535       -1226.251          39.000  
  21830570.448   114720437.466       -1226.241          38.000  
  21696641.785   114016629.550       -1226.279          37.000  
  21732508.237   114204961.562       -1226.228          47.000  
  21699570.498   114032003.548       -1226.292          38.000  
  21720377.865   114141364.074       -1226.160          40.000  
  21866902.829   114911337.999       -1226.208          38.000  
  21732387.055   114204692.056       -1226.254          49.000  
  21868966.609                       -1226.434          37.000  
  21761701.360   114358815.970       -1226.227          39.000  
  21766978.134   114386248.461       -1226.237          39.000  
  21646820.412   113754868.040       -1226.307          37.000  
  21732357.054   114204490.667       -1226.216          49.000  
  21730341.707   114193734.816       -1226.195          35.000  
  21657664.561   113811818.575       -1226.255          38.000  
  21737961.170   114233769.083       -1226.189          39.000  
  21604926.364   113534667.379       -1226.202          38.000  
  21759415.458   114347019.1602      -2226.311          38.000  
  21686679.744   113964281.519       -1226.259          39.000  
 25  8 12  8 57 10.0010000  0 24G 5G 1G 2G 3G 4G26G31G23G 7G15G30G22
                                G 6G12G32G21G28G 8G 9G25G19G16G11G13
  21732383.578   114204781.472       -1226.090          49.000  
  21732439.074   114204693.266       -1226.262          49.000  
  21732535.908   114204957.549       -1226.165          49.000  
  21732547.274   114204894.676       -1226.249          49.000  
  21732425.587   114204715.720       -1226.082          49.000  
  21694635.043   114006102.752       -1226.217          39.000  
  21830617.127   114720682.681       -1226.172          38.000  
  21696688.403   114016874.761       -1226.193          37.000  
  21732554.892   114205206.782       -1226.256          46.000  
  21699617.167   114032248.761       -1226.173          38.000  
  21720424.569   114141609.293       -1226.204          40.000  
  21866949.472   114911583.216       -1226.230          38.000  
  21732433.754   114204937.271       -1226.235          49.000  
  21869014.326                       -1226.434          37.000  
  21761748.010   114359061.186       -1226.250          39.000  
  21767024.735   114386493.675       -1226.173          39.000  
  21646867.116   113755113.253       -1226.091          37.000  
  21732403.670   114204735.880       -1226.154          49.000  
  21730388.380   114193980.034       -1226.171          34.000  
  21657711.255   113812063.786       -1226.140          38.000  
  21738007.813   114234014.300       -1226.224          39.000  
  21604973.001   113534912.595       -1226.096          38.000  
  21759460.666   114347464.3722      -2226.158          38.000  
  21686726.364   113964526.738       -1226.224          39.000  
 25  8 12  8 57 10.2010000  0 24G 5G 1G 2G 3G 4G26G31G23G 7G15G30G22
                                G 6G12G32G21G28G 8G 9G25G19G16G11G13
  21732430.138   114205026.692       -1226.163          49.000  
  21732485.753   114204938.490       -1226.155          49.000  
  21732582.623   114205202.772       -1226.107          49.000  
  21732593.943   114205139.898       -1226.201          49.000  
  21732472.209   114204960.947       -1226.099          49.000  
  21694681.729   114006347.978       -1226.219          39.000  
  21830663.871   114720927.914       -1226.125          38.000  
  21696735.091   114017119.952       -1226.062          37.000  
  21732601.577   114205452.008       -1226.124          47.000  
  21699663.802   114032493.998       -1226.221          38.000  
  21720471.210   114141854.525       -1226.239          41.000  
  21866996.199   114911828.449       -1226.187          38.000  
  21732480.415   114205182.495       -1226.226          49.000  
  21869063.618                       -1226.434          37.000  
  21761794.670   114359306.412       -1226.252          39.000  
  21767071.396   114386738.907       -1226.205          39.000  
  21646913.783   113755358.496       -1226.221          37.000  
  21732450.107   114204981.099       -1226.129          49.000  
  21730435.044   114194225.272       -1226.265          34.000  
  21657757.906   113812309.016       -1226.129          38.000  
  21738054.500   114234259.518       -1226.157          39.000  
  21605019.655   113535157.819       -1226.152          37.000  
  21759505.048   114347909.6002      -2226.183          38.000  
  21686773.044   113964771.955       -1226.191          39.000  
 25  8 12  8 57 10.4010000  0 25G 5G 1G 2G 3G 4G26G31G23G 7G15G30G22
                                G 6G18G12G32G21G28G 8G 9G25G19G16G11
                                G13
  21732476.410   114205271.947       -1226.285          49.000  
  21732532.428   114205183.740       -1226.208          49.000  
  21732629.749   114205448.025       -1226.387          49.000  
  21732640.620   114205385.148       -1226.295          49.000  
  21732518.879   114205206.195       -1226.283          49.000  
  21694728.344   114006593.226       -1226.215          39.000  
  21830710.555   114721173.163       -1226.376          38.000  
  21696781.789   114017365.212       -1226.218          37.000  
  21732648.245   114205697.258       -1226.293          46.000  
  21699710.487   114032739.242       -1226.216          38.000  
  21720517.921   114142099.773       -1226.227          41.000  
  21867042.868   114912073.697       -1226.316          38.000  
  21732527.058   114205427.744       -1226.255          49.000  
  21869418.855                       -2226.481          40.000  
  21869108.052                       -1226.434          37.000  
  21761841.334   114359551.660       -1226.368          39.000  
  21767117.965   114386984.151       -1226.223          39.000  
  21646960.443   113755603.740       -1226.311          37.000  
  21732496.539   114205226.352       -1226.227          49.000  
  21730481.718   114194470.518       -1226.343          35.000  
  21657804.535   113812554.267       -1226.232          38.000  
  21738101.160   114234504.769       -1226.276          39.000  
  21605066.297   113535403.071       -1226.306          37.000  
  21759550.505   114348354.8482      -2226.263          38.000  
  21686819.690   113965017.204       -1226.261          39.000  
 25  8 12  8 57 10.6010000  0 25G 5G 1G 2G 3G 4G26G31G23G 7G15G30G22
                                G 6G18G12G32G21G28G 8G 9G25G19G16G11
                                G13
  21732522.885   114205517.175       -1226.046          49.000  
  21732579.067   114205428.971       -1226.085          49.000  
  21732677.020   114205693.251       -1226.036          49.000  
  21732687.291   114205630.379       -1226.100          49.000  
  21732565.510   114205451.427       -1226.106          49.000  
  21694775.049   114006838.455       -1226.099          38.000  
  21830757.265   114721418.392       -1226.033          38.000  
  21696828.456   114017610.442       -1226.064          37.000  
  21732694.894   114205942.490       -1226.113          47.000  
  21699757.155   114032984.476       -1226.133          38.000  
  21720564.570   114142345.002       -1226.063          41.000  
  21867089.550   114912318.925       -1226.006          38.000  
  21732573.711   114205672.971       -1226.013          49.000  
  21869475.606                       -2226.481          40.000  
  21869154.645                       -1226.434          38.000  
  21761887.961   114359796.884       -1226.102          39.000  
  21767164.625   114387229.382       -1226.091          39.000  
  21647007.100   113755848.970       -1225.931          37.000  
  21732543.095   114205471.586       -1226.069          49.000  
  21730528.455   114194715.744       -1226.064          34.000  
  21657851.154   113812799.499       -1226.090          38.000  
  21738147.859   114234750.000       -1226.097          39.000  
  21605112.941   113535648.297       -1226.079          37.000  
  21759598.021   114348800.0772      -2226.038          38.000  
  21686866.356   113965262.435       -1226.091          39.000  
 25  8 12  8 57 10.8010000  0 25G 5G 1G 2G 3G 4G26G31G23G 7G15G30G22
                                G 6G18G12G32G21G28G 8G 9G25G19G16G11
                                G13
  21732569.285   114205762.422       -1226.139          49.000  
  21732625.795   114205674.221       -1226.165          49.000  
  21732723.699   114205938.497       -1226.022          49.000  
  21732733.976   114205875.623       -1226.068          49.000  
  21732612.161   114205696.675       -1226.060          49.000  
  21694821.633   114007083.708       -1226.226          38.000  
  21830803.964   114721663.633       -1225.969          38.000  
  21696875.029   114017855.693       -1226.110          37.000  
  21732741.529   114206187.733       -1226.003          47.000  
  21699803.843   114033229.720       -1226.067          38.000  
  21720611.276   114142590.253       -1226.185          41.000  
  21867136.216   114912564.176       -1226.090          38.000  
  21732620.392   114205918.216       -1226.040          49.000  
  21869511.385                       -2226.481          40.000  
  21869202.925                       -1226.434          38.000  
  21761934.623   114360042.134       -1226.146          39.000  
  21767211.223   114387474.632       -1226.185          39.000  
  21647053.782   113756094.221       -1226.110          37.000  
  21732589.472   114205716.830       -1226.101          49.000  
  21730575.142   114194960.998       -1226.190          34.000  
  21657897.832   113813044.742       -1226.052          38.000  
  21738194.546   114234995.246       -1226.121          39.000  
  21605159.612   113535893.549       -1226.138          37.000  
  21759629.865   114349245.3352      -2226.146          38.000  
  21686912.990   113965507.683       -1226.085          39.000  
 25  8 12  8 57 11.0010000  0 26G 5G 1G 2G 3G 4G26G31G23G 7G15G30G22
                                G 6G18G12G32G21G28G 8G 9G25G19G16G11
                                G10G13
  21732615.682   114206007.621       -1226.107          49.000  
  21732672.498   114205919.420       -1226.135          49.000  
  21732770.327   114206183.699       -1226.068          49.000  
  21732780.639   114206120.825       -1226.012          49.000  
  21732658.810   114205941.879       -1226.012          49.000  
  21694868.332   114007328.908       -1225.969          38.000  
  21830850.626   114721908.838       -1226.040          38.000  
  21696921.634   114018100.893       -1226.119          38.000  
  21732788.211   114206432.939       -1226.007          47.000  
  21699850.495   114033474.925       -1226.061          38.000  
  21720657.929   114142835.456       -1226.022          41.000  
  21867182.884   114912809.374       -1225.995          38.000  
  21732667.056   114206163.418       -1226.007          49.000  
  21869554.508                       -2226.481          40.000  
  21869250.443                       -1226.434          38.000  
  21761981.303   114360287.335       -1225.995          39.000  
  21767257.901   114387719.834       -1226.003          39.000  
  21647100.431   113756339.420       -1226.113          37.000  
  21732635.992   114205962.031       -1226.088          49.000  
  21730621.780   114195206.201       -1226.107          35.000  
  21657944.478   113813289.943       -1226.132          38.000  
  21738241.170   114235240.447       -1226.028          39.000  
  21605206.251   113536138.743       -1226.036          37.000  
  21759672.069   114349690.5362      -2226.189          38.000  
  21710113.410   114087415.4393      -1225.988          41.000  
  21686959.655   113965752.880       -1226.023          39.000  
 25  8 12  8 57 11.2010000  0 26G 5G 1G 2G 3G 4G26G31G23G 7G15G30G22
                                G 6G18G12G32G21G28G 8G 9G25G19G16G11
                                G10G13
  21732662.257   114206252.817       -1226.071          49.000  
  21732719.142   114206164.616       -1226.095          49.000  
  21732816.760   114206428.898       -1226.088          49.000  
  21732827.314   114206366.022       -1226.016          49.000  
  21732705.453   114206187.079       -1226.096          49.000  
  21694914.962   114007574.107       -1226.041          38.000  
  21830897.246   114722154.039       -1226.088          38.000  
  21696968.309   114018346.093       -1226.155          38.000  
  21732834.841   114206678.135       -1226.031          47.000  
  21699897.167   114033720.122       -1226.069          38.000  
  21720704.612   114143080.656       -1226.116          41.000  
  21867229.603   114913054.573       -1226.108          38.000  
  21732713.709   114206408.619       -1226.055          49.000  
  21869605.079                       -2226.481          40.000  
  21869296.322                       -1226.434          38.000  
  21762027.989   114360532.533       -1226.021          39.000  
  21767304.512   114387965.037       -1226.115          39.000  
  21647147.098   113756584.619       -1226.108          37.000  
  21732682.896   114206207.228       -1226.035          49.000  
  21730668.425   114195451.396       -1226.052          35.000  
  21657991.174   113813535.140       -1226.116          38.000  
  21738287.864   114235485.648       -1226.094          39.000  
  21605252.860   113536383.939       -1226.003          37.000  
  21759718.240   114350135.7292      -2226.025          38.000  
  21710159.877   114087660.6392      -1226.067          41.000  
  21687006.275   113965998.079       -1226.017          39.000  
 25  8 12  8 57 11.4010000  0 26G 5G 1G 2G 3G 4G26G31G23G 7G15G30G22
                                G 6G18G12G32G21G28G 8G 9G25G19G16G11
                                G10G13
  21732708.924   114206498.013       -1225.952          49.000  
  21732765.753   114206409.813       -1225.938          49.000  
  21732863.180   114206674.092       -1225.906          49.000  
  21732873.968   114206611.221       -1226.045          49.000  
  21732752.062   114206432.271       -1225.928          49.000  
  21694961.644   114007819.302       -1225.931          38.000  
  21830943.870   114722399.231       -1225.931          38.000  
  21697015.052   114018591.282       -1225.900          38.000  
  21732881.505   114206923.329       -1226.013          47.000  
  21699943.814   114033965.316       -1225.955          38.000  
  21720751.236   114143325.854       -1225.991          41.000  
  21867276.295   114913299.769       -1225.984          38.000  
  21732760.345   114206653.814       -1225.992          49.000  
  21869652.452                       -2226.481          40.000  
  21869342.993                       -1226.434          38.000  
  21762074.648   114360777.733       -1225.990          39.000  
  21767351.172   114388210.230       -1225.952          39.000  
  21647193.758   113756829.814       -1225.959          37.000  
  21732729.619   114206452.423       -1225.939          49.000  
  21730715.087   114195696.585       -1225.907          34.000  
  21658037.808   113813780.335       -1225.905          38.000  
  21738334.526   114235730.845       -1225.989          39.000  
  21605299.454   113536629.140       -1226.003          37.000  
  21759765.319   114350580.9282      -2225.989          38.000  
  21710206.184   114087905.8362      -1225.978          41.000  
  21687052.942   113966243.274       -1225.897          39.000  
 25  8 12  8 57 11.6010000  0 26G 5G 1G 2G 3G 4G26G31G23G 7G15G30G22
                                G 6G18G12G32G21G28G 8G 9G25G19G16G11
                                G10G13
  21732755.425   114206743.202       -1226.191          49.000  
  21732812.398   114206654.999       -1226.191          49.000  
  21732909.054   114206919.281       -1226.171          49.000  
  21732920.638   114206856.407       -1226.157          49.000  
  21732798.744   114206677.460       -1226.202          49.000  
  21695008.291   114008064.489       -1226.166          38.000  
  21830990.532   114722644.416       -1226.132          38.000  
  21697061.703   114018836.470       -1226.193          38.000  
  21732928.178   114207168.514       -1226.119          47.000  
  21699990.510   114034210.503       -1226.144          38.000  
  21720797.887   114143571.037       -1226.174          41.000  
  21867323.009   114913544.959       -1226.211          38.000  
  21732807.020   114206899.004       -1226.196          49.000  
  21869698.930                       -2226.481          40.000  
  21869390.954                       -1226.434          38.000  
  21762121.342   114361022.918       -1226.179          39.000  
  21767397.748   114388455.418       -1226.191          39.000  
  21647240.444   113757075.001       -1226.191          37.000  
  21732776.396   114206697.613       -1226.162          49.000  
  21730761.732   114195941.777       -1226.152          35.000  
  21658084.495   113814025.524       -1226.196          38.000  
  21738381.155   114235976.030       -1226.184          39.000  
  21605346.077   113536874.321       -1226.107          37.000  
  21759811.292   114351026.1132      -2226.200          38.000  
  21710252.764   114088151.0182      -1226.127          41.000  
  21687099.545   113966488.464       -1226.257          39.000  
 25  8 12  8 57 11.8010000  0 26G 5G 1G 2G 3G 4G26G31G23G 7G15G30G22
                                G 6G18G12G32G21G28G 8G 9G25G19G16G11
                                G10G13
  21732801.937   114206988.416       -1226.012          49.000  
  21732859.078   114206900.213       -1226.044          49.000  
  21732955.159   114207164.494       -1226.005          49.000  
  21732967.327   114207101.623       -1226.151          49.000  
  21732845.369   114206922.676       -1226.138          49.000  
  21695054.949   114008309.705       -1226.232          38.000  
  21831037.240   114722889.633       -1226.010          38.000  
  21697108.372   114019081.687       -1226.022          38.000  
  21732974.830   114207413.733       -1226.090          47.000  
  21700037.132   114034455.722       -1226.178          38.000  
  21720844.566   114143816.251       -1226.200          41.000  
  21867369.654   114913790.173       -1226.085          38.000  
  21732853.672   114207144.219       -1226.144          49.000  
  21869749.354                       -2226.481          40.000  
  21869435.247                       -1226.434          38.000  
  21762167.983   114361268.134       -1226.200          39.000  
  21767444.432   114388700.634       -1226.301          39.000  
  21647287.128   113757320.214       -1226.044          37.000  
  21732823.130   114206942.827       -1226.024          49.000  
  21730808.424   114196186.996       -1226.166          34.000  
  21658131.144   113814270.736       -1225.964          38.000  
  21738427.811   114236221.245       -1226.165          39.000  
  21605392.743   113537119.539       -1225.961          37.000  
  21759863.543   114351471.3272      -2225.991          38.000  
  21710299.753   114088396.2382      -1226.312          41.000  
  21687146.195   113966733.678       -1226.106          39.000  
 25  8 12  8 57 12.0010000  0 26G 5G 1G 2G 3G 4G26G31G23G 7G15G30G22
                                G 6G18G12G32G21G28G 8G 9G25G19G16G11
                                G10G13
  21732848.514   114207233.640       -1226.034          49.000  
  21732905.760   114207145.427       -1226.045          49.000  
  21733001.372   114207409.709       -1226.031          49.000  
  21733013.996   114207346.824       -1225.939          49.000  
  21732892.002   114207167.885       -1225.956          49.000  
  21695101.575   114008554.911       -1225.918          40.000  
  21831083.913   114723134.837       -1226.027          38.000  
  21697155.069   114019326.924       -1226.066          38.000  
  21733021.516   114207658.941       -1225.959          47.000  
  21700083.801   114034700.929       -1225.955          38.000  
  21720891.229   114144061.452       -1225.706          40.000  
  21867416.326   114914035.361       -1225.985          38.000  
  21732900.300   114207389.421       -1225.917          49.000  
  21869795.658                       -2226.481          40.000  
  21869482.890                       -1226.434          38.000  
  21762214.644   114361513.330       -1225.870          39.000  
  21767491.024   114388945.832       -1225.826          39.000  
  21647333.810   113757565.400       -1225.935          37.000  
  21732870.021   114207188.044       -1226.016          49.000  
  21730855.097   114196432.206       -1225.873          35.000  
  21658177.859   113814515.939       -1226.000          38.000  
  21738474.464   114236466.461       -1225.903          39.000  
  21605439.369   113537364.756       -1226.058          37.000  
  21759912.280   114351916.5342      -2226.057          38.000  
  21710346.537   114088641.4302      -1225.840          41.000  
  21687192.798   113966978.889       -1225.966          39.000  
 25  8 12  8 57 12.2010000  0 26G 5G 1G 2G 3G 4G26G31G23G 7G15G30G22
                                G 6G18G12G32G21G28G 8G 9G25G19G16G11
                                G10G13
  21732895.616   114207478.836       -1226.230          49.000  
  21732952.447   114207390.632       -1226.227          49.000  
  21733048.632   114207654.914       -1226.273          49.000  
  21733060.661   114207592.028       -1226.149          49.000  
  21732938.662   114207413.088       -1226.116          49.000  
  21695148.292   114008800.117       -1226.162          40.000  
  21831130.614   114723380.036       -1226.208          38.000  
  21697201.718   114019572.124       -1226.312          37.000  
  21733068.161   114207904.144       -1226.228          47.000  
  21700130.459   114034946.134       -1226.202          38.000  
  21720937.886   114144306.669       -1226.163          39.000  
  21867463.028   114914280.567       -1226.173          38.000  
  21732946.963   114207634.631       -1226.226          49.000  
  21869842.227                       -2226.481          40.000  
  21869532.702                       -1226.434          38.000  
  21762261.323   114361758.544       -1226.252          39.000  
  21767537.675   114389191.046       -1226.198          39.000  
  21647380.458   113757810.605       -1226.075          37.000  
  21732916.806   114207433.248       -1226.206          49.000  
  21730901.746   114196677.411       -1226.143          35.000  
  21658224.514   113814761.143       -1226.166          38.000  
  21738521.097   114236711.667       -1226.227          39.000  
  21605485.997   113537609.952       -1226.290          37.000  
  21759958.396   114352361.7352      -2226.283          38.000  
  21710393.163   114088886.6412      -1226.094          41.000  
  21687239.488   113967224.096       -1226.300          39.000  
 25  8 12  8 57 12.4010000  0 26G 5G 1G 2G 3G 4G26G31G23G 7G15G30G22
                                G 6G18G12G32G21G28G 8G 9G25G19G16G11
                                G10G13
  21732942.533   114207724.049       -1226.230          49.000  
  21732999.072   114207635.840       -1226.172          49.000  
  21733095.873   114207900.120       -1226.147          49.000  
  21733107.332   114207837.237       -1226.130          49.000  
  21732985.290   114207658.301       -1226.204          49.000  
  21695194.923   114009045.333       -1226.184          40.000  
  21831177.312   114723625.243       -1226.119          37.000  
  21697248.358   114019817.330       -1226.283          37.000  
  21733114.831   114208149.356       -1226.156          47.000  
  21700177.161   114035191.343       -1226.171          38.000  
  21720984.569   114144551.890       -1226.249          39.000  
  21867509.711   114914525.779       -1226.174          38.000  
  21732993.605   114207879.844       -1226.161          49.000  
  21869900.474                       -2226.481          40.000  
  21869578.731                       -1226.434          38.000  
  21762308.015   114362003.752       -1226.157          39.000  
  21767584.269   114389436.261       -1226.224          39.000  
  21647427.101   113758055.824       -1226.149          37.000  
  21732963.859   114207678.456       -1226.190          49.000  
  21730948.387   114196922.633       -1226.230          35.000  
  21658271.193   113815006.356       -1226.207          38.000  
  21738567.779   114236956.880       -1226.215          39.000  
  21605532.613   113537855.157       -1226.156          38.000  
  21760005.290   114352806.9432      -2226.171          39.000  
  21710440.072   114089131.8592      -1226.145          41.000  
  21687286.078   113967469.301       -1226.199          39.000  
 25  8 12  8 57 12.6010000  0 26G 5G 1G 2G 3G 4G26G31G23G 7G15G30G22
                                G 6G18G12G32G21G28G 8G 9G25G19G16G11
                                G10G13
  21732989.359   114207969.272       -1226.279          49.000  
  21733045.751   114207881.067       -1226.312          49.000  
  21733143.060   114208145.345       -1226.317          49.000  
  21733154.006   114208082.464       -1226.301          49.000  
  21733031.955   114207903.524       -1226.272          49.000  
  21695241.627   114009290.549       -1226.246          40.000  
  21831224.000   114723870.475       -1226.365          37.000  
  21697295.060   114020062.553       -1226.252          37.000  
  21733161.503   114208394.577       -1226.232          47.000  
  21700223.825   114035436.572       -1226.432          38.000  
  21721031.249   114144797.098       -1226.134          39.000  
  21867556.385   114914771.000       -1226.284          38.000  
  21733040.274   114208125.066       -1226.289          49.000  
  21869959.936                       -2226.481          40.000  
  21869625.952                       -1226.434          37.000  
  21762354.669   114362248.975       -1226.259          39.000  
  21767630.948   114389681.474       -1226.173          39.000  
  21647473.748   113758301.045       -1226.245          37.000  
  21733010.961   114207923.683       -1226.329          49.000  
  21730995.029   114197167.841       -1226.154          35.000  
  21658317.838   113815251.578       -1226.321          38.000  
  21738614.445   114237202.100       -1226.273          39.000  
  21605579.236   113538100.384       -1226.302          38.000  
  21760051.165   114353252.1672      -2226.293          39.000  
  21710486.580   114089377.0792      -1226.235          40.000  
  21687332.735   113967714.527       -1226.317          39.000  
 25  8 12  8 57 12.8010000  0 26G 5G 1G 2G 3G 4G26G31G23G 7G15G30G22
                                G 6G18G12G32G21G28G 8G 9G25G19G16G11
                                G10G13
  21733036.245   114208214.494       -1226.022          49.000  
  21733092.387   114208126.288       -1226.083          49.000  
  21733190.089   114208390.564       -1226.113          49.000  
  21733200.678   114208327.688       -1226.150          49.000  
  21733078.582   114208148.746       -1226.090          49.000  
  21695288.279   114009535.775       -1226.083          40.000  
  21831270.649   114724115.707       -1226.388          37.000  
  21697341.750   114020307.762       -1225.786          37.000  
  21733208.199   114208639.808       -1226.222          47.000  
  21700270.540   114035681.782       -1225.939          38.000  
  21721077.928   114145042.337       -1226.298          39.000  
  21867603.066   114915016.237       -1226.425          38.000  
  21733086.903   114208370.288       -1226.130          49.000  
  21870032.100                       -2226.481          40.000  
  21869673.479                       -1226.434          37.000  
  21762401.343   114362494.204       -1226.167          39.000  
  21767677.570   114389926.700       -1226.101          39.000  
  21647520.446   113758546.292       -1226.559          36.000  
  21733057.651   114208168.902       -1226.093          49.000  
  21731041.693   114197413.065       -1225.977          35.000  
  21658364.524   113815496.808       -1226.213          38.000  
  21738661.114   114237447.328       -1226.167          39.000  
  21605625.843   113538345.617       -1226.294          38.000  
  21760114.044   114353697.3882      -2226.115          39.000  
  21710533.265   114089622.3112      -1226.266          40.000  
  21687379.356   113967959.743       -1225.986          39.000  
 25  8 12  8 57 13.0010000  0 26G 5G 1G 2G 3G 4G26G31G23G 7G15G30G22
                                G 6G18G12G32G21G28G 8G 9G25G19G16G11
                                G10G13
  21733083.042   114208459.722       -1226.127          49.000  
  21733139.035   114208371.516       -1226.069          49.000  
  21733236.915   114208635.797       -1226.060          49.000  
  21733247.344   114208572.918       -1226.056          49.000  
  21733125.235   114208393.978       -1226.108          49.000  
  21695334.982   114009781.002       -1226.312          38.000  
  21831317.373   114724360.933       -1225.970          37.000  
  21697388.389   114020552.997       -1226.201          37.000  
  21733254.847   114208885.038       -1226.089          47.000  
  21700317.210   114035927.015       -1226.110          38.000  
  21721124.586   114145287.558       -1226.233          41.000  
  21867649.702   114915261.467       -1225.809          38.000  
  21733133.552   114208615.520       -1226.115          49.000  
  21870115.712                       -2226.481          40.000  
  21869719.862                       -1226.434          37.000  
  21762447.958   114362739.431       -1226.124          39.000  
  21767724.252   114390171.923       -1226.187          39.000  
  21647567.138   113758791.525       -1225.840          36.000  
  21733103.804   114208414.134       -1226.067          49.000  
  21731088.307   114197658.285       -1226.350          35.000  
  21658411.177   113815742.039       -1226.072          38.000  
  21738707.785   114237692.553       -1226.077          39.000  
  21605672.523   113538590.848       -1225.979          37.000  
  21760190.506   114354142.6142      -2226.084          38.000  
  21710579.949   114089867.5372      -1226.212          40.000  
  21687426.038   113968204.979       -1226.112          39.000  
 25  8 12  8 57 13.2010000  0 26G 5G 1G 2G 3G 4G26G31G23G 7G15G30G22
                                G 6G18G12G32G21G28G 8G 9G25G19G16G11
                                G10G13
  21733129.696   114208704.923       -1226.129          49.000  
  21733185.688   114208616.718       -1226.029          49.000  
  21733283.862   114208881.001       -1226.089          49.000  
  21733293.999   114208818.121       -1226.069          49.000  
  21733171.875   114208639.179       -1226.057          49.000  
  21695381.584   114010026.193       -1226.003          38.000  
  21831364.011   114724606.140       -1226.108          37.000  
  21697434.986   114020798.194       -1226.047          37.000  
  21733301.546   114209130.242       -1226.101          46.000  
  21700363.902   114036172.219       -1226.095          38.000  
  21721171.257   114145532.752       -1225.981          41.000  
  21867696.356   114915506.681       -1226.094          38.000  
  21733180.207   114208860.724       -1226.077          49.000  
  21870197.305                       -2226.481          38.000  
  21869763.215                       -1226.434          38.000  
  21762494.656   114362984.630       -1226.038          39.000  
  21767770.861   114390417.120       -1226.022          39.000  
  21647613.802   113759036.734       -1226.105          36.000  
  21733150.225   114208659.334       -1226.069          49.000  
  21731134.998   114197903.475       -1226.039          34.000  
  21658457.798   113815987.244       -1226.062          38.000  
  21738754.458   114237937.754       -1226.024          39.000  
  21605719.181   113538836.056       -1226.110          37.000  
  21760273.900   114354587.7992      -2226.001          38.000  
  21710626.684   114090112.7312      -1225.989          40.000  
  21687472.619   113968450.179       -1226.090          39.000  
 25  8 12  8 57 13.4010000  0 26G 5G 1G 2G 3G 4G26G31G23G 7G15G30G22
                                G 6G18G12G32G21G28G 8G 9G25G19G16G11
                                G10G13
  21733176.211   114208950.139       -1226.184          49.000  
  21733232.354   114208861.937       -1226.156          49.000  
  21733330.409   114209126.218       -1226.144          49.000  
  21733340.667   114209063.340       -1226.198          49.000  
  21733218.514   114208884.400       -1226.188          49.000  
  21695428.299   114010271.420       -1226.176          38.000  
  21831410.679   114724851.355       -1226.089          38.000  
  21697481.648   114021043.411       -1226.217          37.000  
  21733348.211   114209375.460       -1226.223          46.000  
  21700410.518   114036417.438       -1226.223          38.000  
  21721217.961   114145777.979       -1226.143          41.000  
  21867743.004   114915751.901       -1226.287          39.000  
  21733226.851   114209105.944       -1226.249          49.000  
  21870283.723                       -2226.481          36.000  
  21869808.231                       -1226.434          38.000  
  21762541.295   114363229.853       -1226.206          39.000  
  21767817.567   114390662.346       -1226.190          39.000  
  21647660.467   113759281.948       -1226.212          36.000  
  21733196.710   114208904.550       -1226.196          49.000  
  21731181.694   114198148.695       -1226.064          34.000  
  21658504.454   113816232.460       -1226.161          38.000  
  21738801.118   114238182.972       -1226.088          39.000  
  21605765.787   113539081.274       -1226.210          37.000  
  21760359.065   114355032.4941      -2225.978          36.000  
  21710673.294   114090357.4581      -1226.150          40.000  
  21687519.293   113968695.400       -1226.188          39.000  
 25  8 12  8 57 13.6010000  0 26G 5G 1G 2G 3G 4G26G31G23G 7G15G30G22
                                G 6G18G12G32G21G28G 8G 9G25G19G16G11
                                G10G13
  21733222.538   114209195.366       -1226.198          49.000  
  21733279.016   114209107.161       -1226.217          49.000  
  21733376.784   114209371.445       -1226.163          49.000  
  21733387.350   114209308.565       -1226.222          49.000  
  21733265.140   114209129.625       -1226.196          49.000  
  21695474.927   114010516.652       -1226.311          38.000  
  21831457.335   114725096.581       -1226.180          38.000  
  21697528.342   114021288.637       -1226.177          37.000  
  21733394.891   114209620.682       -1226.230          46.000  
  21700457.196   114036662.665       -1226.267          38.000  
  21721264.586   114146023.216       -1226.334          41.000  
  21867789.679   114915997.123       -1226.240          39.000  
  21733273.480   114209351.170       -1226.207          49.000  
  21870363.497                       -2226.481          36.000  
  21869855.406                       -1226.434          38.000  
  21762588.003   114363475.077       -1226.162          39.000  
  21767864.145   114390907.582       -1226.360          39.000  
  21647707.156   113759527.176       -1226.223          36.000  
  21733243.338   114209149.777       -1226.189          49.000  
  21731228.352   114198393.936       -1226.278          34.000  
  21658551.141   113816477.682       -1226.112          38.000  
  21738847.801   114238428.205       -1226.260          39.000  
  21605812.417   113539326.492       -1226.123          37.000  
  21760443.585   114355477.698       -2226.001          36.000  
  21710719.891   114090602.691       -1226.249          40.000  
  21687565.904   113968940.622       -1226.183          39.000  
 25  8 12  8 57 13.8010000  0 25G 5G 1G 2G 3G 4G26G31G23G 7G15G30G22
                                G 6G12G32G21G28G 8G 9G25G19G16G11G10
                                G13
  21733269.313   114209440.585       -1226.091          49.000  
  21733325.677   114209352.375       -1226.089          49.000  
  21733423.163   114209616.654       -1226.107          49.000  
  21733434.016   114209553.783       -1226.119          49.000  
  21733311.802   114209374.840       -1226.136          49.000  
  21695521.578   114010761.877       -1226.321          38.000  
  21831503.991   114725341.797       -1226.083          37.000  
  21697574.986   114021533.851       -1226.083          37.000  
  21733441.523   114209865.891       -1226.093          46.000  
  21700503.837   114036907.907       -1226.101          38.000  
  21721311.280   114146268.427       -1226.349          41.000  
  21867836.303   114916242.335       -1226.132          38.000  
  21733320.125   114209596.385       -1226.147          49.000  
  21869902.229                       -1226.434          38.000  
  21762634.610   114363720.264       -1226.089          39.000  
  21767910.790   114391152.788       -1226.277          39.000  
  21647753.863   113759772.387       -1226.073          36.000  
  21733289.792   114209394.995       -1226.121          49.000  
  21731275.071   114198639.176       -1226.339          34.000  
  21658597.780   113816722.892       -1225.985          38.000  
  21738894.450   114238673.417       -1226.135          39.000  
  21605859.054   113539571.684       -1225.994          37.000  
  21760531.206   114355922.889       -2225.852          35.000  
  21710766.487   114090847.898       -1226.313          41.000  
  21687612.514   113969185.835       -1226.100          39.000  
 25  8 12  8 57 14.0010000  0 25G 5G 1G 2G 3G 4G26G31G23G 7G15G30G22
                                G 6G12G32G21G28G 8G 9G25G19G16G11G10
                                G13
  21733316.595   114209685.784       -1226.083          49.000  
  21733372.360   114209597.572       -1226.031          49.000  
  21733469.779   114209861.854       -1226.044          49.000  
  21733480.683   114209798.985       -1226.050          49.000  
  21733358.398   114209620.041       -1226.049          49.000  
  21695568.222   114011007.074       -1226.118          38.000  
  21831550.658   114725586.992       -1226.018          37.000  
  21697621.706   114021779.046       -1225.958          37.000  
  21733488.200   114210111.084       -1225.913          46.000  
  21700550.538   114037153.099       -1226.088          38.000  
  21721357.911   114146513.624       -1226.082          40.000  
  21867882.951   114916487.534       -1225.983          38.000  
  21733366.751   114209841.584       -1226.075          49.000  
  21869950.147                       -1226.434          38.000  
  21762681.294   114363965.472       -1226.007          39.000  
  21767957.433   114391397.986       -1225.978          39.000  
  21647800.511   113760017.591       -1226.044          37.000  
  21733335.874   114209640.188       -1225.988          49.000  
  21731321.708   114198884.367       -1226.110          35.000  
  21658644.417   113816968.099       -1226.075          38.000  
  21738941.136   114238918.614       -1226.031          39.000  
  21605905.655   113539816.894       -1226.027          37.000  
  21760624.077   114356368.056       -2225.984          35.000  
  21710813.077   114091093.094       -1226.041          41.000  
  21687659.144   113969431.032       -1225.978          39.000  
 25  8 12  8 57 14.2010000  0 25G 5G 1G 2G 3G 4G26G31G23G 7G15G30G22
                                G 6G12G32G21G28G 8G 9G25G19G16G11G10
                                G13
  21733363.693   114209930.962       -1225.793          49.000  
  21733418.997   114209842.752       -1225.808          49.000  
  21733516.106   114210107.029       -1225.787          49.000  
  21733527.347   114210044.163       -1225.856          49.000  
  21733405.022   114209865.219       -1225.774          49.000  
  21695614.878   114011252.247       -1225.835          39.000  
  21831597.321   114725832.173       -1225.806          37.000  
  21697668.391   114022024.227       -1225.723          37.000  
  21733534.818   114210356.268       -1225.778          47.000  
  21700597.187   114037398.275       -1225.741          38.000  
  21721404.590   114146758.800       -1225.822          40.000  
  21867929.569   114916732.713       -1225.747          38.000  
  21733413.380   114210086.759       -1225.828          49.000  
  21869997.288                       -1226.434          38.000  
  21762727.915   114364210.648       -1225.835          39.000  
  21768004.079   114391643.166       -1225.826          39.000  
  21647847.183   113760262.768       -1225.789          37.000  
  21733382.102   114209885.369       -1225.747          49.000  
  21731368.401   114199129.539       -1225.730          35.000  
  21658691.068   113817213.274       -1225.856          38.000  
  21738987.752   114239163.795       -1225.786          39.000  
  21605952.253   113540062.069       -1225.822          37.000  
  21760704.374   114356813.224       -2225.903          34.000  
  21710859.676   114091338.275       -1225.874          41.000  
  21687705.739   113969676.215       -1225.840          39.000  
 25  8 12  8 57 14.4010000  0 25G 5G 1G 2G 3G 4G26G31G23G 7G15G30G22
                                G 6G12G32G21G28G 8G 9G25G19G16G11G10
                                G13
  21733410.850   114210176.172       -1226.238          49.000  
  21733465.655   114210087.963       -1226.210          49.000  
  21733562.255   114210352.239       -1226.190          49.000  
  21733574.011   114210289.368       -1226.140          49.000  
  21733451.721   114210110.425       -1226.160          49.000  
  21695661.541   114011497.450       -1226.147          39.000  
  21831643.995   114726077.384       -1226.208          37.000  
  21697714.996   114022269.439       -1226.232          37.000  
  21733581.452   114210601.480       -1226.282          47.000  
  21700643.905   114037643.487       -1226.226          39.000  
  21721451.227   114147004.004       -1226.248          40.000  
  21867976.250   114916977.924       -1226.229          38.000  
  21733460.071   114210331.967       -1226.165          49.000  
  21870043.354                       -1226.434          38.000  
  21762774.627   114364455.855       -1226.179          38.000  
  21768050.670   114391888.364       -1226.129          39.000  
  21647893.823   113760507.982       -1226.289          37.000  
  21733428.748   114210130.581       -1226.176          49.000  
  21731415.027   114199374.750       -1226.191          35.000  
  21658737.739   113817458.483       -1226.183          38.000  
  21739034.424   114239409.002       -1226.191          39.000  
  21605998.874   113540307.280       -1226.151          37.000  
  21760781.693   114357258.424       -2226.104          31.000  
  21710906.260   114091583.474       -1226.128          41.000  
  21687752.393   113969921.421       -1226.191          39.000  
 25  8 12  8 57 14.6010000  0 24G 5G 1G 2G 3G 4G26G31G23G 7G15G30G22
                                G 6G12G32G21G28G 8G 9G25G19G16G10G13
  21733457.892   114210421.401       -1226.058          49.000  
  21733512.331   114210333.200       -1226.157          49.000  
  21733608.490   114210597.475       -1226.102          49.000  
  21733620.686   114210534.600       -1226.099          49.000  
  21733498.350   114210355.660       -1226.077          49.000  
  21695708.233   114011742.686       -1226.047          39.000  
  21831690.679   114726322.609       -1226.012          37.000  
  21697761.666   114022514.671       -1226.058          37.000  
  21733628.082   114210846.712       -1226.072          47.000  
  21700690.546   114037888.699       -1225.671          39.000  
  21721497.928   114147249.243       -1226.084          40.000  
  21868022.883   114917223.157       -1226.104          38.000  
  21733506.719   114210577.201       -1226.085          49.000  
  21870089.771                       -1226.434          38.000  
  21762821.259   114364701.105       -1226.322          38.000  
  21768097.325   114392133.615       -1226.212          39.000  
  21647940.508   113760753.215       -1226.224          37.000  
  21733475.559   114210375.815       -1226.191          49.000  
  21731461.753   114199619.975       -1225.854          35.000  
  21658784.384   113817703.725       -1226.304          38.000  
  21739081.075   114239654.229       -1225.985          39.000  
  21606045.442   113540552.518       -1226.213          37.000  
  21710952.887   114091828.721       -1226.184          41.000  
  21687799.019   113970166.658       -1226.191          39.000  
 25  8 12  8 57 14.8010000  0 24G 5G 1G 2G 3G 4G26G31G23G 7G15G30G22
                                G 6G12G32G21G28G 8G 9G25G19G16G10G13
  21733504.592   114210666.624       -1226.332          49.000  
  21733559.021   114210578.415       -1226.152          49.000  
  21733654.848   114210842.695       -1226.316          49.000  
  21733667.356   114210779.826       -1226.265          49.000  
  21733545.036   114210600.878       -1226.215          49.000  
  21695754.871   114011987.907       -1226.428          39.000  
  21831737.304   114726567.825       -1226.390          38.000  
  21697808.333   114022759.889       -1226.221          37.000  
  21733674.756   114211091.927       -1226.230          47.000  
  21700737.231   114038133.916       -1226.450          38.000  
  21721544.588   114147494.467       -1226.421          40.000  
  21868069.622   114917468.381       -1226.326          38.000  
  21733553.397   114210822.420       -1226.248          49.000  
  21870134.064                       -1226.434          38.000  
  21762867.945   114364946.326       -1226.154          39.000  
  21768143.957   114392378.837       -1226.194          39.000  
  21647987.179   113760998.432       -1226.313          37.000  
  21733522.720   114210621.037       -1226.239          49.000  
  21731508.406   114199865.204       -1226.605          35.000  
  21658831.043   113817948.942       -1226.119          38.000  
  21739127.762   114239899.451       -1226.331          39.000  
  21606092.075   113540797.743       -1226.217          37.000  
  21710999.486   114092073.940       -1226.305          41.000  
  21687845.679   113970411.878       -1226.246          39.000  
 25  8 12  8 57 15.0010000  0 24G 5G 1G 2G 3G 4G26G31G23G 7G15G30G22
                                G 6G12G32G21G28G 8G 9G25G19G16G10G13
  21733551.457   114210911.829       -1226.133          49.000  
  21733605.699   114210823.624       -1226.099          49.000  
  21733700.783   114211087.902       -1226.003          49.000  
  21733714.018   114211025.029       -1226.025          49.000  
  21733591.674   114210846.083       -1226.072          49.000  
  21695801.526   114012233.095       -1225.907          39.000  
  21831783.975   114726813.029       -1226.006          38.000  
  21697855.025   114023005.093       -1226.039          38.000  
  21733721.400   114211337.137       -1226.123          47.000  
  21700783.883   114038379.107       -1225.991          38.000  
  21721591.284   114147739.652       -1225.892          41.000  
  21868116.266   114917713.577       -1225.923          39.000  
  21733600.027   114211067.624       -1226.006          49.000  
  21870180.850                       -1226.434          38.000  
  21762914.571   114365191.532       -1226.012          39.000  
  21768190.588   114392624.035       -1225.807          39.000  
  21648033.837   113761243.636       -1226.089          37.000  
  21733569.148   114210866.241       -1226.046          49.000  
  21731555.035   114200110.381       -1225.826          35.000  
  21658877.722   113818194.158       -1226.136          38.000  
  21739174.398   114240144.652       -1226.034          39.000  
  21606138.697   113541042.961       -1226.100          37.000  
  21711046.083   114092319.135       -1225.905          41.000  
  21687892.317   113970657.082       -1226.053          39.000  
 25  8 12  8 57 15.2010000  0 24G 5G 1G 2G 3G 4G26G31G23G 7G15G30G22
                                G 6G12G32G21G28G 8G 9G25G19G16G10G13
  21733598.102   114211157.041       -1226.273          49.000  
  21733652.405   114211068.838       -1226.238          49.000  
  21733746.827   114211333.113       -1226.287          49.000  
  21733760.687   114211270.244       -1226.263          49.000  
  21733638.331   114211091.302       -1226.255          49.000  
  21695848.205   114012478.319       -1226.252          38.000  
  21831830.599   114727058.242       -1226.273          38.000  
  21697901.657   114023250.311       -1226.295          38.000  
  21733768.068   114211582.347       -1226.191          47.000  
  21700830.572   114038624.327       -1226.149          38.000  
  21721637.906   114147984.880       -1226.296          41.000  
  21868162.980   114917958.800       -1226.287          39.000  
  21733646.690   114211312.841       -1226.304          49.000  
  21870224.349                       -1226.434          38.000  
  21762961.271   114365436.747       -1226.283          39.000  
  21768237.223   114392869.262       -1226.273          39.000  
  21648080.542   113761488.855       -1226.348          37.000  
  21733616.198   114211111.456       -1226.309          49.000  
  21731601.677   114200355.613       -1226.252          35.000  
  21658924.386   113818439.367       -1226.300          38.000  
  21739221.084   114240389.869       -1226.332          39.000  
  21606185.311   113541288.166       -1226.274          37.000  
  21711092.669   114092564.358       -1226.206          41.000  
  21687938.960   113970902.295       -1226.244          39.000  
 25  8 12  8 57 15.4010000  0 24G 5G 1G 2G 3G 4G26G31G23G 7G15G30G22
                                G 6G12G32G21G28G 8G 9G25G19G16G10G13
  21733644.342   114211402.267       -1225.985          49.000  
  21733699.051   114211314.071       -1226.108          49.000  
  21733792.969   114211578.344       -1226.003          49.000  
  21733807.356   114211515.475       -1226.102          49.000  
  21733684.950   114211336.530       -1226.056          49.000  
  21695894.875   114012723.554       -1226.173          38.000  
  21831877.275   114727303.473       -1226.017          38.000  
  21697948.331   114023495.543       -1226.119          38.000  
  21733814.746   114211827.574       -1226.011          47.000  
  21700877.209   114038869.562       -1226.127          38.000  
  21721684.613   114148230.113       -1226.207          41.000  
  21868209.608   114918204.027       -1226.030          39.000  
  21733693.311   114211558.073       -1226.062          49.000  
  21870270.519                       -1226.434          38.000  
  21763007.865   114365681.984       -1226.180          39.000  
  21768283.897   114393114.493       -1226.200          39.000  
  21648127.181   113761734.079       -1226.005          37.000  
  21733663.339   114211356.683       -1226.025          49.000  
  21731648.383   114200600.848       -1226.138          35.000  
  21658971.048   113818684.595       -1225.978          38.000  
  21739267.714   114240635.094       -1226.060          39.000  
  21606231.961   113541533.394       -1225.864          37.000  
  21711139.267   114092809.593       -1226.127          41.000  
  21687985.607   113971147.524       -1226.005          39.000  
 25  8 12  8 57 15.6010000  0 24G 5G 1G 2G 3G 4G26G31G23G 7G15G30G22
                                G 6G12G32G21G28G 8G 9G25G19G16G10G13
  21733690.745   114211647.502       -1226.191          49.000  
  21733745.726   114211559.294       -1226.123          49.000  
  21733839.278   114211823.574       -1226.152          49.000  
  21733854.027   114211760.698       -1226.075          49.000  
  21733731.630   114211581.746       -1226.093          49.000  
  21695941.505   114012968.765       -1226.119          38.000  
  21831923.941   114727548.713       -1226.241          38.000  
  21697995.009   114023740.777       -1226.249          38.000  
  21733861.406   114212072.810       -1226.184          47.000  
  21700923.873   114039114.811       -1226.160          38.000  
  21721731.233   114148475.336       -1226.118          41.000  
  21868256.319   114918449.256       -1226.208          39.000  
  21733739.979   114211803.294       -1226.104          49.000  
  21870318.177                       -1226.434          38.000  
  21763054.576   114365927.194       -1226.122          39.000  
  21768330.504   114393359.693       -1226.007          39.000  
  21648173.834   113761979.301       -1226.146          37.000  
  21733709.892   114211601.909       -1226.156          49.000  
  21731695.034   114200846.056       -1226.102          35.000  
  21659017.712   113818929.808       -1226.122          38.000  
  21739314.382   114240880.326       -1226.112          39.000  
  21606278.585   113541778.623       -1226.041          37.000  
  21711185.875   114093054.817       -1226.078          41.000  
  21688032.265   113971392.749       -1226.144          39.000  
 25  8 12  8 57 15.8010000  0 24G 5G 1G 2G 3G 4G26G31G23G 7G15G30G22
                                G 6G12G32G21G28G 8G 9G25G19G16G10G13
  21733737.428   114211892.705       -1226.086          49.000  
  21733792.393   114211804.496       -1226.053          49.000  
  21733885.606   114212068.782       -1226.110          49.000  
  21733900.691   114212005.909       -1226.044          49.000  
  21733778.284   114211826.956       -1226.110          49.000  
  21695988.161   114013213.968       -1226.034          39.000  
  21831970.607   114727793.919       -1226.143          38.000  
  21698041.647   114023985.981       -1226.165          38.000  
  21733908.028   114212318.013       -1226.031          47.000  
  21700970.500   114039360.011       -1226.176          38.000  
  21721777.947   114148720.538       -1226.102          41.000  
  21868302.922   114918694.465       -1226.182          38.000  
  21733786.632   114212048.503       -1226.023          49.000  
  21870364.876                       -1226.434          38.000  
  21763101.202   114366172.406       -1226.069          39.000  
  21768377.163   114393604.902       -1226.033          39.000  
  21648220.495   113762224.510       -1226.053          37.000  
  21733756.080   114211847.117       -1226.090          49.000  
  21731741.684   114201091.255       -1226.097          34.000  
  21659064.339   113819175.017       -1226.022          38.000  
  21739361.016   114241125.531       -1226.094          39.000  
  21606325.154   113542023.833       -1226.110          37.000  
  21711232.475   114093300.022       -1226.107          41.000  
  21688078.902   113971637.957       -1226.042          39.000  
 25  8 12  8 57 16.0010000  0 24G 5G 1G 2G 3G 4G26G31G23G 7G15G30G22
                                G 6G12G32G21G28G 8G 9G25G19G16G10G13
  21733784.178   114212137.951       -1226.351          49.000  
  21733839.089   114212049.741       -1226.305          49.000  
  21733931.747   114212314.026       -1226.359          49.000  
  21733947.373   114212251.151       -1226.260          49.000  
  21733824.944   114212072.199       -1226.318          49.000  
  21696034.830   114013459.216       -1226.332          39.000  
  21832017.335   114728039.159       -1226.306          38.000  
  21698088.288   114024231.223       -1226.326          38.000  
  21733954.682   114212563.258       -1226.385          47.000  
  21701017.186   114039605.255       -1226.312          38.000  
  21721824.591   114148965.781       -1226.313          41.000  
  21868349.620   114918939.705       -1226.342          38.000  
  21733833.301   114212293.743       -1226.254          49.000  
  21870412.647                       -1226.434          38.000  
  21763147.910   114366417.649       -1226.400          39.000  
  21768423.810   114393850.147       -1226.284          39.000  
  21648267.183   113762469.755       -1226.318          37.000  
  21733802.431   114212092.358       -1226.307          49.000  
  21731788.407   114201336.501       -1226.293          34.000  
  21659111.009   113819420.262       -1226.324          38.000  
  21739407.707   114241370.776       -1226.351          39.000  
  21606371.836   113542269.082       -1226.403          37.000  
  21711279.109   114093545.264       -1226.279          41.000  
  21688125.590   113971883.203       -1226.365          39.000  
 25  8 12  8 57 16.2010000  0 24G 5G 1G 2G 3G 4G26G31G23G 7G15G30G22
                                G 6G12G32G21G28G 8G 9G25G19G16G10G13
  21733830.978   114212383.146       -1226.111          49.000  
  21733885.793   114212294.943       -1226.156          49.000  
  21733977.889   114212559.229       -1226.168          49.000  
  21733994.043   114212496.353       -1226.095          49.000  
  21733871.596   114212317.399       -1226.101          49.000  
  21696081.446   114013704.419       -1226.208          39.000  
  21832064.002   114728284.358       -1226.129          38.000  
  21698134.957   114024476.419       -1226.111          38.000  
  21734001.337   114212808.458       -1226.133          47.000  
  21701063.857   114039850.456       -1226.128          38.000  
  21721871.323   114149210.984       -1226.163          41.000  
  21868396.251   114919184.904       -1226.129          38.000  
  21733879.953   114212538.946       -1226.100          49.000  
  21870460.611                       -1226.434          38.000  
  21763194.519   114366662.851       -1226.156          39.000  
  21768470.455   114394095.355       -1226.200          39.000  
  21648313.854   113762714.949       -1226.167          37.000  
  21733849.098   114212337.559       -1226.117          49.000  
  21731835.084   114201581.715       -1226.178          34.000  
  21659157.686   113819665.458       -1226.069          38.000  
  21739454.362   114241615.977       -1226.183          39.000  
  21606418.519   113542514.280       -1226.168          37.000  
  21711325.698   114093790.468       -1226.161          41.000  
  21688172.192   113972128.400       -1226.144          39.000  
 25  8 12  8 57 16.4010000  0 24G 5G 1G 2G 3G 4G26G31G23G 7G15G30G22
                                G 6G12G32G21G28G 8G 9G25G19G16G10G13
  21733877.856   114212628.347       -1225.933          49.000  
  21733932.432   114212540.144       -1226.028          49.000  
  21734024.260   114212804.423       -1225.920          49.000  
  21734040.705   114212741.553       -1226.028          49.000  
  21733918.230   114212562.603       -1226.044          49.000  
  21696128.126   114013949.605       -1225.715          39.000  
  21832110.704   114728529.557       -1225.974          38.000  
  21698181.634   114024721.614       -1225.831          38.000  
  21734048.000   114213053.653       -1225.936          47.000  
  21701110.523   114040095.640       -1225.701          38.000  
  21721917.917   114149456.186       -1226.034          41.000  
  21868442.958   114919430.106       -1226.021          38.000  
  21733926.593   114212784.150       -1226.105          49.000  
  21870508.909                       -1226.434          38.000  
  21763241.192   114366908.050       -1226.007          39.000  
  21768517.088   114394340.555       -1226.095          39.000  
  21648360.511   113762960.153       -1226.066          37.000  
  21733895.834   114212582.758       -1225.919          49.000  
  21731881.735   114201826.914       -1225.963          34.000  
  21659204.325   113819910.673       -1226.198          38.000  
  21739501.046   114241861.178       -1226.078          39.000  
  21606465.120   113542759.478       -1225.953          37.000  
  21711372.289   114094035.659       -1225.828          41.000  
  21688218.823   113972373.603       -1226.011          39.000  
 25  8 12  8 57 16.6010000  0 24G 5G 1G 2G 3G 4G26G31G23G 7G15G30G22
                                G 6G12G32G21G28G 8G 9G25G19G16G10G13
  21733924.219   114212873.567       -1226.246          49.000  
  21733979.126   114212785.361       -1226.262          49.000  
  21734071.459   114213049.640       -1226.261          49.000  
  21734087.368   114212986.771       -1226.221          49.000  
  21733964.850   114212807.819       -1226.208          49.000  
  21696174.792   114014194.825       -1226.350          38.000  
  21832157.415   114728774.773       -1226.288          38.000  
  21698228.241   114024966.834       -1226.417          38.000  
  21734094.697   114213298.873       -1226.233          47.000  
  21701157.209   114040340.860       -1226.426          38.000  
  21721964.612   114149701.407       -1226.246          41.000  
  21868489.608   114919675.325       -1226.234          38.000  
  21733973.242   114213029.365       -1226.219          49.000  
  21870552.717                       -1226.434          38.000  
  21763287.801   114367153.271       -1226.211          39.000  
  21768563.720   114394585.770       -1226.202          39.000  
  21648407.146   113763205.372       -1226.200          36.000  
  21733941.961   114212827.977       -1226.300          49.000  
  21731928.419   114202072.130       -1226.327          34.000  
  21659250.989   113820155.893       -1226.160          38.000  
  21739547.721   114242106.393       -1226.195          39.000  
  21606511.802   113543004.698       -1226.300          37.000  
  21711418.885   114094280.880       -1226.312          41.000  
  21688265.431   113972618.820       -1226.188          39.000  
 25  8 12  8 57 16.8010000  0 24G 5G 1G 2G 3G 4G26G31G23G 7G15G30G22
                                G 6G12G32G21G28G 8G 9G25G19G16G10G13
  21733970.760   114213118.767       -1226.097          49.000  
  21734025.737   114213030.565       -1226.089          49.000  
  21734118.627   114213294.841       -1226.049          49.000  
  21734134.036   114213231.976       -1226.115          49.000  
  21734011.485   114213053.023       -1226.041          49.000  
  21696221.448   114014440.031       -1226.240          38.000  
  21832204.124   114729019.972       -1226.056          38.000  
  21698274.858   114025212.024       -1226.058          38.000  
  21734141.382   114213544.075       -1226.062          47.000  
  21701203.873   114040586.056       -1226.151          38.000  
  21722011.242   114149946.614       -1226.208          41.000  
  21868536.276   114919920.528       -1226.049          38.000  
  21734019.898   114213274.572       -1226.152          49.000  
  21870598.991                       -1226.434          38.000  
  21763334.459   114367398.480       -1226.219          39.000  
  21768610.366   114394830.980       -1226.169          39.000  
  21648453.806   113763450.577       -1226.177          36.000  
  21733987.962   114213073.176       -1226.057          49.000  
  21731975.103   114202317.336       -1226.271          34.000  
  21659297.678   113820401.097       -1226.101          38.000  
  21739594.436   114242351.596       -1226.104          39.000  
  21606558.456   113543249.897       -1226.068          37.000  
  21711465.507   114094526.083       -1226.169          41.000  
  21688312.101   113972864.023       -1226.053          39.000  
 25  8 12  8 57 17.0010000  0 25G 5G 1G 2G 3G 4G26G31G23G 7G15G30G22
                                G 6G12G18G32G21G28G 8G 9G25G19G16G10
                                G13
  21734017.245   114213363.992       -1226.198          49.000  
  21734072.404   114213275.789       -1226.194          49.000  
  21734165.594   114213540.067       -1226.217          49.000  
  21734180.698   114213477.198       -1226.191          49.000  
  21734058.131   114213298.248       -1226.218          49.000  
  21696268.085   114014685.256       -1226.099          38.000  
  21832250.802   114729265.195       -1226.211          38.000  
  21698321.557   114025457.254       -1226.198          38.000  
  21734188.021   114213789.301       -1226.250          47.000  
  21701250.547   114040831.279       -1226.125          38.000  
  21722057.940   114150191.842       -1226.129          41.000  
  21868582.927   114920165.751       -1226.176          38.000  
  21734066.531   114213519.792       -1226.179          49.000  
  21870645.149                       -1226.434          38.000  
  21572335.713   113363389.0242      -2226.397          36.000  
  21763381.106   114367643.706       -1226.195          39.000  
  21768657.022   114395076.205       -1226.118          39.000  
  21648500.458   113763695.796       -1226.152          36.000  
  21734034.204   114213318.402       -1226.224          49.000  
  21732021.803   114202562.560       -1226.091          34.000  
  21659344.309   113820646.317       -1226.240          38.000  
  21739641.068   114242596.821       -1226.171          39.000  
  21606605.089   113543495.121       -1226.245          37.000  
  21711512.117   114094771.312       -1226.176          41.000  
  21688358.726   113973109.249       -1226.245          39.000  
 25  8 12  8 57 17.2010000  0 25G 5G 1G 2G 3G 4G26G31G23G 7G15G30G22
                                G 6G12G18G32G21G28G 8G 9G25G19G16G10
                                G13
  21734063.841   114213609.189       -1226.100          49.000  
  21734119.058   114213520.988       -1226.099          49.000  
  21734212.331   114213785.264       -1226.072          49.000  
  21734227.362   114213722.399       -1226.151          49.000  
  21734104.782   114213543.446       -1226.119          49.000  
  21696314.741   114014930.456       -1226.072          38.000  
  21832297.459   114729510.392       -1226.060          38.000  
  21698368.206   114025702.449       -1226.100          38.000  
  21734234.683   114214034.497       -1226.074          47.000  
  21701297.186   114041076.480       -1226.106          38.000  
  21722104.539   114150437.040       -1226.101          41.000  
  21868629.638   114920410.951       -1226.188          38.000  
  21734113.188   114213764.994       -1226.157          49.000  
  21870691.339                       -1226.434          38.000  
  21572379.547   113363834.2082      -2226.032          36.000  
  21763427.800   114367888.904       -1226.154          38.000  
  21768703.678   114395321.408       -1226.123          39.000  
  21648547.149   113763940.999       -1226.219          36.000  
  21734080.459   114213563.598       -1226.113          49.000  
  21732068.490   114202807.760       -1226.046          34.000  
  21659390.973   113820891.516       -1226.166          38.000  
  21739687.756   114242842.017       -1226.074          39.000  
  21606651.668   113543740.317       -1226.028          37.000  
  21711558.717   114095016.510       -1226.139          41.000  
  21688405.394   113973354.448       -1226.158          39.000  
 25  8 12  8 57 17.4010000  0 25G 5G 1G 2G 3G 4G26G31G23G 7G15G30G22
                                G 6G12G18G32G21G28G 8G 9G25G19G16G10
                                G13
  21734110.669   114213854.405       -1225.996          49.000  
  21734165.689   114213766.207       -1226.007          49.000  
  21734258.576   114214030.485       -1226.000          49.000  
  21734274.028   114213967.601       -1226.033          49.000  
  21734151.414   114213788.665       -1226.029          49.000  
  21696361.358   114015175.683       -1226.049          38.000  
  21832344.097   114729755.612       -1226.056          38.000  
  21698414.842   114025947.645       -1225.924          38.000  
  21734281.369   114214279.725       -1225.989          47.000  
  21701343.875   114041321.727       -1225.986          38.000  
  21722151.254   114150682.271       -1225.980          40.000  
  21868676.272   114920656.160       -1226.071          38.000  
  21734159.839   114214010.213       -1226.035          49.000  
  21870737.963                       -1226.434          38.000  
  21572446.205   113364279.4152      -2225.991          36.000  
  21763474.479   114368134.122       -1225.988          39.000  
  21768750.321   114395566.627       -1225.988          39.000  
  21648593.819   113764186.190       -1225.909          36.000  
  21734127.037   114213808.819       -1226.021          49.000  
  21732115.119   114203052.972       -1226.028          34.000  
  21659437.673   113821136.716       -1225.986          38.000  
  21739734.411   114243087.225       -1225.969          39.000  
  21606698.297   113543985.534       -1226.050          37.000  
  21711605.309   114095261.730       -1226.006          41.000  
  21688451.994   113973599.662       -1226.018          39.000  
 25  8 12  8 57 17.6010000  0 25G 5G 1G 2G 3G 4G26G31G23G 7G15G30G22
                                G 6G12G18G32G21G28G 8G 9G25G19G16G10
                                G13
  21734157.707   114214099.648       -1226.239          49.000  
  21734212.377   114214011.445       -1226.200          49.000  
  21734304.590   114214275.722       -1226.194          49.000  
  21734320.708   114214212.837       -1226.075          49.000  
  21734198.077   114214033.901       -1226.140          49.000  
  21696408.067   114015420.921       -1226.279          38.000  
  21832390.701   114730000.848       -1226.173          38.000  
  21698461.491   114026192.889       -1226.124          38.000  
  21734328.035   114214524.967       -1226.304          47.000  
  21701390.552   114041566.963       -1226.293          38.000  
  21722197.866   114150927.506       -1226.180          40.000  
  21868722.990   114920901.398       -1226.161          38.000  
  21734206.519   114214255.448       -1226.122          49.000  
  21870785.086                       -1226.434          38.000  
  21572512.714   113364724.6502      -2226.159          35.000  
  21763521.206   114368379.359       -1226.149          39.000  
  21768796.981   114395811.867       -1226.206          39.000  
  21648640.447   113764431.439       -1226.185          36.000  
  21734173.950   114214054.058       -1226.194          49.000  
  21732161.737   114203298.212       -1226.171          34.000  
  21659484.354   113821381.960       -1226.145          38.000  
  21739781.107   114243332.466       -1226.152          39.000  
  21606744.911   113544230.768       -1226.180          37.000  
  21711651.926   114095506.967       -1226.152          41.000  
  21688498.685   113973844.904       -1226.213          40.000  
 25  8 12  8 57 17.8010000  0 25G 5G 1G 2G 3G 4G26G31G23G 7G15G30G22
                                G 6G12G18G32G21G28G 8G 9G25G19G16G10
                                G13
  21734204.776   114214344.859       -1226.322          49.000  
  21734259.046   114214256.655       -1226.376          49.000  
  21734350.655   114214520.939       -1226.428          49.000  
  21734367.391   114214458.056       -1226.312          49.000  
  21734244.750   114214279.118       -1226.367          49.000  
  21696454.713   114015666.134       -1226.637          39.000  
  21832437.350   114730246.063       -1226.246          38.000  
  21698508.102   114026438.106       -1226.354          37.000  
  21734374.720   114214770.175       -1226.377          47.000  
  21701437.207   114041812.174       -1226.290          38.000  
  21722244.569   114151172.722       -1226.697          40.000  
  21868769.610   114921146.614       -1226.267          38.000  
  21734253.179   114214500.667       -1226.305          49.000  
  21870834.657                       -1226.434          38.000  
  21572538.715   113365169.8662      -2226.117          35.000  
  21763567.811   114368624.572       -1226.395          39.000  
  21768843.577   114396057.082       -1226.588          39.000  
  21648687.134   113764676.655       -1226.453          35.000  
  21734220.901   114214299.271       -1226.300          49.000  
  21732208.401   114203543.433       -1227.026          34.000  
  21659531.039   113821627.175       -1226.260          38.000  
  21739827.758   114243577.685       -1226.505          39.000  
  21606791.550   113544475.981       -1226.078          38.000  
  21711698.499   114095752.185       -1226.554          41.000  
  21688545.343   113974090.115       -1226.296          40.000  
 25  8 12  8 57 18.0010000  0 25G 5G 1G 2G 3G 4G26G31G23G 7G15G30G22
                                G 6G12G18G32G21G28G 8G 9G25G19G16G10
                                G13
  21734252.109   114214590.078       -1225.911          49.000  
  21734305.722   114214501.870       -1225.900          49.000  
  21734396.633   114214766.152       -1225.881          49.000  
  21734414.069   114214703.270       -1225.901          49.000  
  21734291.357   114214524.331       -1225.895          49.000  
  21696501.364   114015911.337       -1225.745          39.000  
  21832483.978   114730491.284       -1225.979          37.000  
  21698554.801   114026683.319       -1225.886          37.000  
  21734421.329   114215015.391       -1225.883          47.000  
  21701483.859   114042057.395       -1225.939          39.000  
  21722291.185   114151417.914       -1225.659          40.000  
  21868816.306   114921391.833       -1225.953          38.000  
  21734299.798   114214745.883       -1225.927          49.000  
  21870879.609                       -1226.434          38.000  
  21572572.518   113365615.0902      -2225.980          35.000  
  21763614.496   114368869.782       -1225.825          39.000  
  21768890.224   114396302.282       -1225.723          39.000  
  21648733.785   113764921.863       -1225.897          35.000  
  21734267.954   114214544.493       -1225.957          49.000  
  21732255.092   114203788.609       -1225.353          34.000  
  21659577.684   113821872.399       -1225.981          39.000  
  21739874.441   114243822.888       -1225.868          39.000  
  21606838.169   113544721.220       -1226.187          38.000  
  21711745.137   114095997.389       -1225.801          41.000  
  21688592.036   113974335.334       -1225.906          40.000  
 25  8 12  8 57 18.2010000  0 25G 5G 1G 2G 3G 4G26G31G23G 7G15G30G22
                                G 6G12G18G32G21G28G 8G 9G25G19G16G10
                                G13
  21734299.362   114214835.279       -1226.028          49.000  
  21734352.408   114214747.072       -1225.994          49.000  
  21734442.580   114215011.354       -1225.961          49.000  
  21734460.737   114214948.480       -1226.140          49.000  
  21734338.004   114214769.534       -1225.989          49.000  
  21696547.996   114016156.571       -1226.462          39.000  
  21832530.631   114730736.494       -1226.279          37.000  
  21698601.442   114026928.539       -1226.324          37.000  
  21734467.975   114215260.584       -1225.896          47.000  
  21701530.519   114042302.584       -1225.809          39.000  
  21722337.899   114151663.112       -1225.620          40.000  
  21868862.954   114921637.034       -1226.055          38.000  
  21734346.454   114214991.076       -1225.864          49.000  
  21870926.318                       -1226.434          38.000  
  21572616.452   113366060.2912      -2226.179          34.000  
  21763661.119   114369114.975       -1225.790          39.000  
  21768936.860   114396547.486       -1225.758          39.000  
  21648780.416   113765167.086       -1226.433          35.000  
  21734314.719   114214789.691       -1226.068          49.000  
  21732301.758   114204033.860       -1226.328          35.000  
  21659624.366   113822117.593       -1226.023          39.000  
  21739921.076   114244068.107       -1226.238          39.000  
  21606884.834   113544966.398       -1225.974          38.000  
  21711791.711   114096242.585       -1225.735          41.000  
  21688638.656   113974580.534       -1226.035          40.000  
 25  8 12  8 57 18.4010000  0 25G 5G 1G 2G 3G 4G26G31G23G 7G15G30G22
                                G 6G12G18G32G21G28G 8G 9G25G19G16G10
                                G13
  21734346.450   114215080.488       -1226.272          49.000  
  21734399.168   114214992.284       -1226.302          49.000  
  21734489.721   114215256.563       -1226.304          49.000  
  21734507.401   114215193.689       -1226.172          49.000  
  21734384.642   114215014.745       -1226.218          49.000  
  21696594.686   114016401.779       -1225.964          38.000  
  21832577.254   114730981.694       -1226.143          37.000  
  21698648.109   114027173.746       -1226.071          37.000  
  21734514.594   114215505.793       -1226.322          47.000  
  21701577.178   114042547.796       -1226.394          39.000  
  21722384.521   114151908.331       -1226.448          41.000  
  21868909.644   114921882.241       -1226.185          38.000  
  21734393.115   114215236.290       -1226.202          49.000  
  21870974.871                       -1226.434          38.000  
  21572661.429   113366505.4922      -2226.137          35.000  
  21763707.794   114369360.184       -1226.322          39.000  
  21768983.509   114396792.705       -1226.292          39.000  
  21648827.086   113765412.296       -1225.984          35.000  
  21734360.847   114215034.897       -1226.248          49.000  
  21732348.451   114204279.070       -1226.014          35.000  
  21659671.002   113822362.801       -1226.288          38.000  
  21739967.758   114244313.322       -1226.132          39.000  
  21606931.465   113545211.599       -1226.340          38.000  
  21711838.347   114096487.802       -1226.279          41.000  
  21688685.347   113974825.747       -1226.317          40.000  
 25  8 12  8 57 18.6010000  0 25G 5G 1G 2G 3G 4G26G31G23G 7G15G30G22
                                G 6G12G18G32G21G28G 8G 9G25G19G16G10
                                G13
  21734393.389   114215325.698       -1226.105          49.000  
  21734445.838   114215237.494       -1226.125          49.000  
  21734536.860   114215501.770       -1226.066          49.000  
  21734554.073   114215438.903       -1226.123          49.000  
  21734431.256   114215259.961       -1226.135          49.000  
  21696641.323   114016646.998       -1226.035          38.000  
  21832623.897   114731226.918       -1226.267          37.000  
  21698694.766   114027418.972       -1226.172          37.000  
  21734561.259   114215751.001       -1226.093          47.000  
  21701623.882   114042793.002       -1226.125          39.000  
  21722431.192   114152153.524       -1225.983          41.000  
  21868956.280   114922127.454       -1226.068          38.000  
  21734439.724   114215481.502       -1226.110          49.000  
  21871020.705                       -1226.434          38.000  
  21572707.946   113366950.7142      -2226.239          35.000  
  21763754.446   114369605.390       -1226.031          39.000  
  21769030.128   114397037.905       -1225.978          39.000  
  21648873.729   113765657.519       -1226.034          36.000  
  21734407.186   114215280.110       -1226.104          49.000  
  21732395.139   114204524.285       -1226.016          35.000  
  21659717.672   113822608.019       -1226.189          38.000  
  21740014.427   114244558.535       -1226.044          39.000  
  21606978.106   113545456.813       -1226.212          37.000  
  21711884.965   114096733.002       -1225.939          41.000  
  21688731.966   113975070.957       -1226.146          40.000  
 25  8 12  8 57 18.8010000  0 25G 5G 1G 2G 3G 4G26G31G23G 7G15G30G22
                                G 6G12G18G32G21G28G 8G 9G25G19G16G10
                                G13
  21734440.299   114215570.927       -1226.090          49.000  
  21734492.521   114215482.719       -1226.079          49.000  
  21734584.017   114215746.999       -1226.117          49.000  
  21734600.755   114215684.128       -1226.100          49.000  
  21734477.907   114215505.185       -1226.099          49.000  
  21696688.016   114016892.227       -1226.151          38.000  
  21832670.561   114731472.138       -1226.080          37.000  
  21698741.428   114027664.192       -1226.107          37.000  
  21734607.917   114215996.232       -1226.116          47.000  
  21701670.537   114043038.226       -1226.060          39.000  
  21722477.864   114152398.759       -1226.156          41.000  
  21869002.992   114922372.681       -1226.118          38.000  
  21734486.348   114215726.726       -1226.115          49.000  
  21871067.484                       -1226.434          38.000  
  21572762.573   113367395.9312      -2226.099          35.000  
  21763801.153   114369850.623       -1226.149          39.000  
  21769076.818   114397283.143       -1226.206          39.000  
  21648920.389   113765902.740       -1226.029          36.000  
  21734453.756   114215525.335       -1226.084          49.000  
  21732441.791   114204769.515       -1226.144          35.000  
  21659764.323   113822853.237       -1226.014          38.000  
  21740061.112   114244803.764       -1226.110          39.000  
  21607024.745   113545702.034       -1226.047          37.000  
  21711931.611   114096978.240       -1226.222          41.000  
  21688778.619   113975316.183       -1226.073          40.000  
 25  8 12  8 57 19.0010000  0 25G 5G 1G 2G 3G 4G26G31G23G 7G15G30G22
                                G 6G12G18G32G21G28G 8G 9G25G19G16G10
                                G13
  21734487.101   114215816.141       -1226.035          49.000  
  21734539.177   114215727.933       -1226.022          49.000  
  21734631.054   114215992.211       -1226.041          49.000  
  21734647.417   114215929.342       -1226.007          49.000  
  21734524.559   114215750.397       -1225.983          49.000  
  21696734.647   114017137.434       -1226.051          38.000  
  21832717.247   114731717.358       -1226.013          37.000  
  21698788.103   114027909.413       -1226.045          37.000  
  21734654.613   114216241.447       -1226.099          47.000  
  21701717.228   114043283.441       -1225.967          39.000  
  21722524.578   114152643.962       -1226.088          41.000  
  21869049.630   114922617.893       -1226.036          39.000  
  21734532.982   114215971.935       -1225.958          49.000  
  21871115.035                       -1226.434          38.000  
  21572817.937   113367841.1562      -2226.113          35.000  
  21763847.798   114370095.829       -1226.025          39.000  
  21769123.446   114397528.340       -1225.986          38.000  
  21648967.066   113766147.962       -1226.044          36.000  
  21734500.328   114215770.550       -1226.074          49.000  
  21732488.526   114205014.716       -1225.974          35.000  
  21659810.969   113823098.452       -1225.956          38.000  
  21740107.770   114245048.980       -1226.094          39.000  
  21607071.409   113545947.249       -1225.929          37.000  
  21711978.225   114097223.440       -1226.039          41.000  
  21688825.246   113975561.400       -1226.040          40.000  
 25  8 12  8 57 19.2010000  0 25G 5G 1G 2G 3G 4G26G31G23G 7G15G30G22
                                G 6G12G18G32G21G28G 8G 9G25G19G16G10
                                G13
  21734533.475   114216061.356       -1226.166          49.000  
  21734585.883   114215973.149       -1226.067          49.000  
  21734677.674   114216237.430       -1226.096          49.000  
  21734694.089   114216174.555       -1226.097          49.000  
  21734571.199   114215995.604       -1226.011          49.000  
  21696781.356   114017382.612       -1225.942          38.000  
  21832763.945   114731962.561       -1226.097          37.000  
  21698834.764   114028154.629       -1226.127          37.000  
  21734701.262   114216486.658       -1226.095          47.000  
  21701763.882   114043528.659       -1226.050          39.000  
  21722571.215   114152889.188       -1226.044          41.000  
  21869096.328   114922863.103       -1226.063          39.000  
  21734579.630   114216217.147       -1226.057          49.000  
  21871162.522                       -1226.434          38.000  
  21572861.728   113368286.3652      -2226.232          35.000  
  21763894.449   114370341.050       -1226.060          39.000  
  21769170.092   114397773.552       -1226.047          38.000  
  21649013.691   113766393.146       -1226.099          36.000  
  21734547.146   114216015.767       -1226.165          49.000  
  21732535.204   114205259.914       -1226.045          35.000  
  21659857.635   113823343.668       -1226.134          38.000  
  21740154.412   114245294.169       -1226.083          39.000  
  21607118.026   113546192.483       -1226.161          37.000  
  21712024.824   114097468.672       -1226.030          41.000  
  21688871.941   113975806.608       -1226.080          40.000  
 25  8 12  8 57 19.4010000  0 25G 5G 1G 2G 3G 4G26G31G23G 7G15G30G22
                                G 6G12G18G32G21G28G 8G 9G25G19G16G10
                                G13
  21734579.583   114216306.545       -1225.905          49.000  
  21734632.538   114216218.339       -1225.953          49.000  
  21734724.112   114216482.620       -1225.919          49.000  
  21734740.750   114216419.746       -1225.839          49.000  
  21734617.842   114216240.797       -1225.872          49.000  
  21696827.983   114017627.819       -1225.853          38.000  
  21832810.609   114732207.757       -1225.917          37.000  
  21698881.438   114028399.815       -1225.952          38.000  
  21734747.910   114216731.850       -1225.891          47.000  
  21701810.545   114043773.851       -1225.884          38.000  
  21722617.885   114153134.383       -1226.012          41.000  
  21869142.975   114923108.300       -1225.922          38.000  
  21734626.241   114216462.341       -1225.883          49.000  
  21871207.934                       -1226.434          38.000  
  21572903.720   113368731.548       -2225.881          35.000  
  21763941.090   114370586.244       -1225.934          39.000  
  21769216.661   114398018.751       -1226.018          38.000  
  21649060.299   113766638.342       -1225.900          36.000  
  21734594.022   114216260.954       -1225.891          49.000  
  21732581.863   114205505.115       -1225.883          35.000  
  21659904.290   113823588.855       -1225.852          38.000  
  21740201.074   114245539.365       -1225.865          39.000  
  21607164.642   113546437.667       -1225.872          37.000  
  21712071.425   114097713.867       -1226.018          41.000  
  21688918.556   113976051.797       -1225.858          39.000  
 25  8 12  8 57 19.6010000  0 25G 5G 1G 2G 3G 4G26G31G23G 7G15G30G22
                                G 6G12G18G32G21G28G 8G 9G25G19G16G10
                                G13
  21734625.822   114216551.743       -1226.096          49.000  
  21734679.228   114216463.540       -1226.127          49.000  
  21734770.655   114216727.817       -1226.102          49.000  
  21734787.411   114216664.945       -1226.071          49.000  
  21734664.489   114216485.993       -1226.029          49.000  
  21696874.702   114017873.023       -1226.201          39.000  
  21832857.278   114732452.952       -1226.112          38.000  
  21698928.107   114028645.015       -1226.061          38.000  
  21734794.573   114216977.054       -1226.106          47.000  
  21701857.209   114044019.052       -1226.154          38.000  
  21722664.526   114153379.586       -1226.147          41.000  
  21869189.698   114923353.494       -1226.041          38.000  
  21734672.906   114216707.538       -1226.082          49.000  
  21871254.852                       -1226.434          38.000  
  21572949.615   113369176.751       -2226.051          35.000  
  21763987.777   114370831.447       -1226.140          39.000  
  21769263.344   114398263.954       -1226.184          38.000  
  21649106.963   113766883.538       -1226.029          37.000  
  21734640.704   114216506.153       -1226.082          49.000  
  21732628.543   114205750.317       -1226.146          34.000  
  21659950.967   113823834.053       -1226.063          38.000  
  21740247.763   114245784.570       -1226.144          39.000  
  21607211.290   113546682.864       -1226.101          37.000  
  21712118.027   114097959.067       -1226.178          41.000  
  21688965.217   113976296.995       -1226.057          39.000  
 25  8 12  8 57 19.8010000  0 25G 5G 1G 2G 3G 4G26G31G23G 7G15G30G22
                                G 6G12G18G32G21G28G 8G 9G25G19G16G10
                                G13
  21734672.161   114216796.937       -1226.027          49.000  
  21734725.897   114216708.730       -1226.101          49.000  
  21734817.288   114216973.012       -1225.999          49.000  
  21734834.080   114216910.139       -1226.066          49.000  
  21734711.130   114216731.192       -1226.090          49.000  
  21696921.329   114018118.217       -1226.259          39.000  
  21832903.918   114732698.144       -1225.995          38.000  
  21698974.764   114028890.209       -1226.100          38.000  
  21734841.246   114217222.248       -1226.171          47.000  
  21701903.861   114044264.245       -1226.106          38.000  
  21722711.214   114153624.782       -1226.331          41.000  
  21869236.328   114923598.690       -1226.072          38.000  
  21734719.550   114216952.734       -1226.084          49.000  
  21871301.763                       -1227.686          38.000  
  21573015.486   113369621.937       -2226.034          35.000  
  21764034.413   114371076.638       -1226.173          39.000  
  21769309.965   114398509.148       -1226.283          38.000  
  21649153.604   113767128.736       -1226.077          37.000  
  21734687.365   114216751.350       -1226.058          49.000  
  21732675.192   114205995.514       -1226.282          34.000  
  21659997.604   113824079.246       -1225.924          38.000  
  21740294.399   114246029.760       -1226.146          39.000  
  21607257.893   113546928.057       -1225.895          37.000  
  21712164.619   114098204.263       -1226.263          41.000  
  21689011.812   113976542.191       -1226.023          39.000  
 25  8 12  8 57 20.0010000  0 25G 5G 1G 2G 3G 4G26G31G23G 7G15G30G22
                                G 6G12G18G32G21G28G 8G 9G25G19G16G10
                                G13
  21734718.992   114217042.147       -1225.892          49.000  
  21734772.520   114216953.936       -1225.865          49.000  
  21734863.873   114217218.224       -1225.948          49.000  
  21734880.750   114217155.352       -1226.027          49.000  
  21734757.768   114216976.399       -1225.961          49.000  
  21696968.038   114018363.442       -1226.328          39.000  
  21832950.603   114732943.367       -1226.179          38.000  
  21699021.457   114029135.409       -1225.787          38.000  
  21734887.879   114217467.458       -1225.990          47.000  
  21701950.497   114044509.443       -1225.677          38.000  
  21722757.828   114153869.983       -1225.875          41.000  
  21869283.022   114923843.904       -1226.024          38.000  
  21734766.185   114217197.944       -1225.980          49.000  
  21871347.841   114934708.2012      -1225.444          37.000  
  21573081.927   113370067.150       -2225.967          35.000  
  21764081.081   114371321.847       -1225.909          39.000  
  21769356.644   114398754.358       -1226.013          38.000  
  21649200.307   113767373.955       -1226.145          37.000  
  21734733.873   114216996.556       -1225.913          49.000  
  21732721.868   114206240.720       -1225.974          34.000  
  21660044.240   113824324.466       -1226.106          38.000  
  21740341.086   114246274.978       -1226.125          39.000  
  21607304.508   113547173.265       -1225.731          37.000  
  21712211.240   114098449.464       -1225.869          41.000  
  21689058.502   113976787.403       -1226.029          39.000  
 25  8 12  8 57 20.2010000  0 25G 5G 1G 2G 3G 4G26G31G23G 7G15G30G22
                                G 6G12G18G32G21G28G 8G 9G25G19G16G10
                                G13
  21734766.112   114217287.358       -1226.183          49.000  
  21734819.189   114217199.146       -1226.157          49.000  
  21734910.892   114217463.432       -1226.144          49.000  
  21734927.425   114217400.560       -1226.057          49.000  
  21734804.431   114217221.608       -1226.099          49.000  
  21697014.672   114018608.649       -1225.912          39.000  
  21832997.270   114733188.580       -1226.113          38.000  
  21699068.115   114029380.621       -1226.188          38.000  
  21734934.532   114217712.664       -1226.119          46.000  
  21701997.164   114044754.655       -1226.215          38.000  
  21722804.508   114154115.192       -1226.249          41.000  
  21869329.699   114924089.113       -1226.178          38.000  
  21734812.825   114217443.149       -1226.072          49.000  
  21871393.211   114934953.4262      -1226.252          38.000  
  21573147.840   113370512.363       -2226.198          35.000  
  21764127.730   114371567.057       -1226.108          39.000  
  21769403.253   114398999.562       -1226.187          39.000  
  21649246.963   113767619.166       -1225.992          37.000  
  21734780.305   114217241.764       -1226.150          49.000  
  21732768.463   114206485.932       -1226.239          34.000  
  21660090.917   113824569.673       -1226.040          38.000  
  21740387.747   114246520.186       -1226.021          39.000  
  21607351.171   113547418.479       -1226.302          37.000  
  21712257.829   114098694.674       -1226.189          41.000  
  21689105.087   113977032.612       -1226.057          39.000  
 25  8 12  8 57 20.4010000  0 25G 5G 1G 2G 3G 4G26G31G23G 7G15G30G22
                                G 6G12G18G32G21G28G 8G 9G25G19G16G10
                                G13
  21734813.162   114217532.563       -1226.188          49.000  
  21734865.906   114217444.353       -1226.154          49.000  
  21734957.867   114217708.637       -1226.166          49.000  
  21734974.100   114217645.771       -1226.184          49.000  
  21734851.090   114217466.814       -1226.172          49.000  
  21697061.374   114018853.862       -1226.090          38.000  
  21833043.897   114733433.789       -1226.157          38.000  
  21699114.745   114029625.825       -1226.207          38.000  
  21734981.171   114217957.873       -1226.179          46.000  
  21702043.829   114044999.854       -1226.138          38.000  
  21722851.121   114154360.386       -1226.138          41.000  
  21869376.382   114924334.319       -1226.187          38.000  
  21734859.492   114217688.358       -1226.154          49.000  
  21871439.440   114935198.6282      -1226.162          38.000  
  21573214.971   113370957.574       -2226.262          35.000  
  21764174.417   114371812.260       -1226.149          39.000  
  21769449.954   114399244.761       -1226.151          39.000  
  21649293.591   113767864.378       -1226.199          37.000  
  21734826.839   114217486.968       -1226.141          49.000  
  21732815.105   114206731.130       -1226.155          34.000  
  21660137.588   113824814.888       -1226.190          38.000  
  21740434.457   114246765.395       -1226.100          39.000  
  21607397.881   113547663.679       -1226.194          37.000  
  21712304.456   114098939.869       -1226.105          41.000  
  21689151.719   113977277.823       -1226.178          39.000  
 25  8 12  8 57 20.6010000  0 25G 5G 1G 2G 3G 4G26G31G23G 7G15G30G22
                                G 6G12G18G32G21G28G 8G 9G25G19G16G10
                                G13
  21734860.049   114217777.762       -1225.916          49.000  
  21734912.509   114217689.554       -1225.861          49.000  
  21735004.714   114217953.837       -1225.923          49.000  
  21735020.758   114217890.970       -1225.914          49.000  
  21734897.693   114217712.014       -1225.906          49.000  
  21697108.007   114019099.067       -1225.928          38.000  
  21833090.551   114733678.989       -1225.990          38.000  
  21699161.462   114029871.023       -1225.907          38.000  
  21735027.837   114218203.073       -1225.902          46.000  
  21702090.490   114045245.059       -1225.824          38.000  
  21722897.817   114154605.598       -1225.901          41.000  
  21869423.038   114924579.523       -1225.922          38.000  
  21734906.109   114217933.559       -1225.922          49.000  
  21871485.403   114935443.8322      -1225.923          38.000  
  21573288.506   113371402.782       -2225.991          34.000  
  21764221.070   114372057.466       -1225.905          39.000  
  21769496.547   114399489.969       -1225.874          39.000  
  21649340.256   113768109.579       -1225.975          37.000  
  21734873.306   114217732.168       -1225.916          49.000  
  21732861.811   114206976.337       -1225.918          34.000  
  21660184.226   113825060.084       -1225.927          38.000  
  21740481.099   114247010.600       -1225.931          39.000  
  21607444.477   113547908.877       -1225.864          37.000  
  21712351.059   114099185.082       -1225.935          41.000  
  21689198.296   113977523.021       -1225.896          39.000  
 25  8 12  8 57 20.8010000  0 25G 5G 1G 2G 3G 4G26G31G23G 7G15G30G22
                                G 6G12G18G32G21G28G 8G 9G25G19G16G10
                                G13
  21734906.784   114218022.971       -1226.130          49.000  
  21734959.181   114217934.763       -1226.125          49.000  
  21735051.461   114218199.046       -1226.138          49.000  
  21735067.427   114218136.179       -1226.124          49.000  
  21734944.363   114217957.225       -1226.089          49.000  
  21697154.686   114019344.279       -1226.139          38.000  
  21833137.190   114733924.197       -1226.123          38.000  
  21699208.133   114030116.232       -1226.023          38.000  
  21735074.492   114218448.286       -1226.115          47.000  
  21702137.156   114045490.273       -1226.180          38.000  
  21722944.440   114154850.811       -1226.250          41.000  
  21869469.729   114924824.737       -1226.227          39.000  
  21734952.774   114218178.770       -1226.129          49.000  
  21871531.601   114935689.0382      -1226.112          38.000  
  21573369.909   113371848.003       -2226.369          34.000  
  21764267.729   114372302.678       -1226.140          38.000  
  21769543.204   114399735.185       -1226.257          39.000  
  21649386.921   113768354.790       -1226.199          37.000  
  21734919.918   114217977.381       -1226.150          49.000  
  21732908.462   114207221.550       -1226.210          35.000  
  21660230.870   113825305.295       -1226.135          37.000  
  21740527.781   114247255.810       -1226.238          39.000  
  21607491.132   113548154.088       -1226.089          37.000  
  21712397.679   114099430.293       -1226.224          41.000  
  21689244.958   113977768.232       -1226.138          39.000  
 25  8 12  8 57 21.0010000  0 25G 5G 1G 2G 3G 4G26G31G23G 7G15G30G22
                                G 6G12G18G32G21G28G 8G 9G25G19G16G10
                                G13
  21734953.915   114218268.200       -1226.360          49.000  
  21735005.834   114218179.990       -1226.292          49.000  
  21735097.747   114218444.262       -1226.328          49.000  
  21735114.095   114218381.396       -1226.219          49.000  
  21734991.026   114218202.449       -1226.309          49.000  
  21697201.281   114019589.460       -1226.185          40.000  
  21833183.866   114734169.408       -1226.371          38.000  
  21699254.865   114030361.479       -1226.484          37.000  
  21735121.131   114218693.491       -1226.301          47.000  
  21702183.829   114045735.529       -1226.432          38.000  
  21722991.147   114155096.021       -1226.152          40.000  
  21869516.363   114925069.930       -1226.146          38.000  
  21734999.436   114218423.990       -1226.235          49.000  
  21871578.768   114935934.2682      -1226.277          38.000  
  21573454.569   113372293.307       -2226.205          33.000  
  21764314.414   114372547.886       -1226.212          38.000  
  21769589.816   114399980.416       -1226.183          39.000  
  21649433.586   113768599.966       -1226.268          37.000  
  21734966.556   114218222.600       -1226.311          49.000  
  21732955.098   114207466.734       -1226.125          35.000  
  21660277.538   113825550.515       -1226.434          37.000  
  21740574.437   114247501.021       -1226.282          39.000  
  21607537.774   113548399.305       -1226.361          37.000  
  21712444.274   114099675.493       -1226.195          41.000  
  21689291.578   113978013.462       -1226.372          39.000  
 25  8 12  8 57 21.2010000  0 25G 5G 1G 2G 3G 4G26G31G23G 7G15G30G22
                                G 6G12G18G32G21G28G 8G 9G25G19G16G10
                                G13
  21735001.119   114218513.420       -1226.084          49.000  
  21735052.563   114218425.214       -1226.110          49.000  
  21735143.620   114218689.488       -1226.162          49.000  
  21735160.768   114218626.623       -1226.130          49.000  
  21735037.626   114218447.669       -1226.058          49.000  
  21697247.958   114019834.696       -1225.988          40.000  
  21833230.541   114734414.631       -1226.150          38.000  
  21699301.558   114030606.692       -1226.134          37.000  
  21735167.804   114218938.718       -1226.056          47.000  
  21702230.497   114045980.743       -1226.252          39.000  
  21723037.816   114155341.260       -1226.096          40.000  
  21869563.075   114925315.162       -1226.025          38.000  
  21735046.086   114218669.215       -1226.130          49.000  
  21871625.215   114936179.4902      -1226.163          38.000  
  21573538.085   113372738.545       -2226.448          33.000  
  21764361.076   114372793.114       -1226.061          38.000  
  21769636.491   114400225.643       -1226.122          39.000  
  21649480.269   113768845.198       -1226.033          37.000  
  21735013.184   114218467.825       -1226.104          49.000  
  21733001.779   114207711.971       -1226.052          35.000  
  21660324.178   113825795.733       -1226.119          38.000  
  21740621.124   114247746.249       -1226.095          40.000  
  21607584.416   113548644.526       -1226.171          38.000  
  21712490.899   114099920.727       -1226.045          41.000  
  21689338.219   113978258.683       -1226.158          39.000  
 25  8 12  8 57 21.4010000  0 26G 5G 1G 2G 3G 4G26G31G23G 7G15G30G22
                                G 6G12G18G32G21G28G 8G 9G25G19G16G27
                                G10G13
  21735048.292   114218758.627       -1226.121          49.000  
  21735099.192   114218670.420       -1226.152          49.000  
  21735189.585   114218934.689       -1226.050          49.000  
  21735207.432   114218871.826       -1226.053          49.000  
  21735084.248   114218692.871       -1226.035          49.000  
  21697294.592   114020079.906       -1226.166          40.000  
  21833277.217   114734659.827       -1225.978          37.000  
  21699348.268   114030851.895       -1226.062          37.000  
  21735214.473   114219183.921       -1226.068          47.000  
  21702277.163   114046225.940       -1226.018          39.000  
  21723084.520   114155586.469       -1226.373          40.000  
  21869609.717   114925560.365       -1226.176          38.000  
  21735092.734   114218914.415       -1226.044          49.000  
  21871671.356   114936424.6862      -1225.985          37.000  
  21573621.120   113373183.766       -2226.388          32.000  
  21764407.729   114373038.316       -1226.150          38.000  
  21769683.130   114400470.851       -1226.151          39.000  
  21649526.903   113769090.408       -1226.224          37.000  
  21735059.828   114218713.026       -1226.068          49.000  
  21733048.399   114207957.173       -1226.129          35.000  
  21660370.853   113826040.935       -1225.989          38.000  
  21740667.751   114247991.455       -1226.127          40.000  
  21607631.059   113548889.723       -1225.967          38.000  
  21609713.427                       -2226.430          37.000  
  21712537.520   114100165.935       -1226.260          41.000  
  21689384.850   113978503.882       -1226.038          39.000  
 25  8 12  8 57 21.6010000  0 26G 5G 1G 2G 3G 4G26G31G23G 7G15G30G22
                                G 6G12G18G32G21G28G 8G 9G25G19G16G27
                                G10G13
  21735095.427   114219003.845       -1226.134          49.000  
  21735145.851   114218915.638       -1226.118          49.000  
  21735235.647   114219179.913       -1226.166          49.000  
  21735254.099   114219117.047       -1226.152          49.000  
  21735130.890   114218938.097       -1226.165          49.000  
  21697341.310   114020325.116       -1226.040          40.000  
  21833323.910   114734905.062       -1226.228          37.000  
  21699394.943   114031097.126       -1226.228          37.000  
  21735261.120   114219429.144       -1226.158          47.000  
  21702323.825   114046471.171       -1226.165          39.000  
  21723131.138   114155831.675       -1226.136          40.000  
  21869656.378   114925805.581       -1226.139          38.000  
  21735139.391   114219159.638       -1226.139          49.000  
  21871718.329   114936669.9042      -1226.088          37.000  
  21573705.949   113373628.997       -2226.278          31.000  
  21764454.330   114373283.532       -1226.100          38.000  
  21769729.788   114400716.068       -1226.144          38.000  
  21649573.544   113769335.623       -1226.189          37.000  
  21735106.309   114218958.251       -1226.157          49.000  
  21733095.052   114208202.382       -1226.041          35.000  
  21660417.531   113826286.162       -1226.123          38.000  
  21740714.373   114248236.677       -1226.205          40.000  
  21607677.691   113549134.955       -1226.149          38.000  
  21609778.792                       -2226.430          37.000  
  21712584.103   114100411.144       -1226.067          41.000  
  21689431.519   113978749.105       -1226.152          39.000  
 25  8 12  8 57 21.8010000  0 26G 5G 1G 2G 3G 4G26G31G23G 7G15G30G22
                                G 6G12G18G32G21G28G 8G 9G25G19G16G27
                                G10G13
  21735142.159   114219249.065       -1226.165          49.000  
  21735192.550   114219160.853       -1226.060          49.000  
  21735282.023   114219425.137       -1226.265          49.000  
  21735300.764   114219362.264       -1226.093          49.000  
  21735177.507   114219183.316       -1226.133          49.000  
  21697387.966   114020570.333       -1226.151          40.000  
  21833370.547   114735150.281       -1226.196          37.000  
  21699441.602   114031342.333       -1225.952          37.000  
  21735307.799   114219674.370       -1226.252          47.000  
  21702370.483   114046716.362       -1225.559          39.000  
  21723177.820   114156076.883       -1225.953          40.000  
  21869703.021   114926050.809       -1226.362          37.000  
  21735186.021   114219404.852       -1226.041          49.000  
  21871766.053   114936915.1272      -1226.345          37.000  
  21573792.538   113374074.232       -2225.836          31.000  
  21764501.009   114373528.761       -1226.340          38.000  
  21769776.407   114400961.267       -1225.878          38.000  
  21649620.197   113769580.855       -1226.365          37.000  
  21735152.917   114219203.470       -1226.145          49.000  
  21733141.652   114208447.628       -1226.649          35.000  
  21660464.245   113826531.384       -1226.176          37.000  
  21740761.030   114248481.887       -1225.979          40.000  
  21607724.401   113549380.188       -1226.442          38.000  
  21609787.928                       -2226.430          37.000  
  21712630.738   114100656.365       -1226.210          41.000  
  21689478.141   113978994.317       -1226.019          39.000  
 25  8 12  8 57 22.0010000  0 25G 5G 1G 2G 3G 4G26G31G23G 7G15G30G22
                                G 6G12G32G21G28G 8G 9G25G19G16G27G10
                                G13
  21735188.615   114219494.262       -1226.140          49.000  
  21735239.189   114219406.055       -1226.158          49.000  
  21735329.126   114219670.333       -1226.121          49.000  
  21735347.433   114219607.466       -1226.150          49.000  
  21735224.172   114219428.516       -1226.111          49.000  
  21697434.639   114020815.533       -1226.024          38.000  
  21833417.233   114735395.481       -1226.185          38.000  
  21699488.146   114031587.533       -1226.323          37.000  
  21735354.437   114219919.566       -1226.102          47.000  
  21702417.137   114046961.570       -1226.431          38.000  
  21723224.452   114156322.086       -1226.150          41.000  
  21869749.690   114926296.011       -1226.031          38.000  
  21735232.671   114219650.057       -1226.177          49.000  
  21871812.617   114937160.3212      -1225.908          38.000  
  21764547.620   114373773.963       -1226.053          39.000  
  21769823.071   114401206.466       -1226.184          38.000  
  21649666.834   113769826.053       -1225.979          37.000  
  21735199.491   114219448.669       -1226.191          49.000  
  21733188.370   114208692.819       -1225.868          35.000  
  21660510.889   113826776.585       -1226.190          38.000  
  21740807.705   114248727.088       -1226.271          39.000  
  21607771.068   113549625.379       -1226.003          38.000  
  21609824.080                       -2226.430          37.000  
  21712677.353   114100901.568       -1226.064          41.000  
  21689524.814   113979239.519       -1226.189          39.000  
 25  8 12  8 57 22.2010000  0 25G 5G 1G 2G 3G 4G26G31G23G 7G15G30G22
                                G 6G12G32G21G28G 8G 9G25G19G16G27G10
                                G13
  21735235.082   114219739.467       -1225.988          49.000  
  21735285.815   114219651.261       -1226.018          49.000  
  21735376.037   114219915.542       -1226.002          49.000  
  21735394.097   114219852.672       -1226.066          49.000  
  21735270.795   114219673.722       -1226.053          49.000  
  21697481.252   114021060.750       -1226.112          38.000  
  21833463.929   114735640.681       -1226.055          38.000  
  21699534.788   114031832.730       -1226.060          37.000  
  21735401.115   114220164.776       -1226.013          47.000  
  21702463.821   114047206.765       -1226.023          38.000  
  21723271.109   114156567.296       -1226.085          41.000  
  21869796.333   114926541.220       -1226.045          38.000  
  21735279.280   114219895.262       -1226.040          49.000  
  21871858.215   114937405.5432      -1225.959          38.000  
  21764594.290   114374019.179       -1226.063          39.000  
  21769869.688   114401451.675       -1226.046          38.000  
  21649713.520   113770071.261       -1226.055          37.000  
  21735246.316   114219693.872       -1226.008          49.000  
  21733235.028   114208938.039       -1226.085          35.000  
  21660557.569   113827021.785       -1226.001          38.000  
  21740854.380   114248972.291       -1226.047          39.000  
  21607817.742   113549870.591       -1225.914          38.000  
  21609875.939                       -2226.430          37.000  
  21712723.950   114101146.783       -1226.099          41.000  
  21689571.445   113979484.720       -1225.983          39.000  
 25  8 12  8 57 22.4010000  0 25G 5G 1G 2G 3G 4G26G31G23G 7G15G30G22
                                G 6G12G32G21G28G 8G 9G25G19G16G27G10
                                G13
  21735281.671   114219984.687       -1226.105          49.000  
  21735332.454   114219896.482       -1226.162          49.000  
  21735422.935   114220160.764       -1226.099          49.000  
  21735440.766   114220097.890       -1226.138          49.000  
  21735317.448   114219918.940       -1226.130          49.000  
  21697527.949   114021305.967       -1226.144          38.000  
  21833510.612   114735885.903       -1226.132          38.000  
  21699581.425   114032077.952       -1226.195          37.000  
  21735447.786   114220409.995       -1226.118          47.000  
  21702510.463   114047451.986       -1226.139          38.000  
  21723317.761   114156812.511       -1226.078          41.000  
  21869842.998   114926786.440       -1226.128          38.000  
  21735325.944   114220140.482       -1226.151          49.000  
  21871905.204   114937650.7622      -1226.129          38.000  
  21764640.896   114374264.397       -1226.123          39.000  
  21769916.374   114401696.892       -1226.058          39.000  
  21649760.198   113770316.484       -1226.196          37.000  
  21735293.010   114219939.093       -1226.115          49.000  
  21733281.760   114209183.252       -1226.031          35.000  
  21660604.192   113827267.007       -1226.123          38.000  
  21740901.050   114249217.509       -1226.078          39.000  
  21607864.421   113550115.814       -1226.107          37.000  
  21609922.009                       -2226.430          37.000  
  21712770.585   114101391.998       -1226.144          41.000  
  21689618.105   113979729.942       -1226.108          39.000  
 25  8 12  8 57 22.6010000  0 25G 5G 1G 2G 3G 4G26G31G23G 7G15G30G22
                                G 6G12G32G21G28G 8G 9G25G19G16G27G10
                                G13
  21735328.319   114220229.913       -1226.292          49.000  
  21735379.098   114220141.706       -1226.284          49.000  
  21735469.901   114220405.986       -1226.287          49.000  
  21735487.442   114220343.113       -1226.244          49.000  
  21735364.114   114220164.164       -1226.271          49.000  
  21697574.584   114021551.187       -1226.344          38.000  
  21833557.290   114736131.127       -1226.229          38.000  
  21699628.071   114032323.174       -1226.274          37.000  
  21735494.435   114220655.218       -1226.277          46.000  
  21702557.137   114047697.208       -1226.292          38.000  
  21723364.413   114157057.736       -1226.332          41.000  
  21869889.679   114927031.665       -1226.357          38.000  
  21735372.594   114220385.707       -1226.311          49.000  
  21871952.041   114937895.9832      -1226.367          38.000  
  21764687.569   114374509.618       -1226.324          39.000  
  21769963.011   114401942.116       -1226.332          39.000  
  21649806.861   113770561.708       -1226.306          37.000  
  21735339.773   114220184.320       -1226.332          49.000  
  21733328.442   114209428.478       -1226.367          34.000  
  21660650.857   113827512.230       -1226.251          38.000  
  21740947.744   114249462.734       -1226.292          39.000  
  21607911.106   113550361.037       -1226.331          37.000  
  21609963.317                       -2226.430          37.000  
  21712817.198   114101637.220       -1226.271          41.000  
  21689664.758   113979975.164       -1226.271          39.000  
 25  8 12  8 57 22.8010000  0 25G 5G 1G 2G 3G 4G26G31G23G 7G15G30G22
                                G 6G12G32G21G28G 8G 9G25G19G16G27G10
                                G13
  21735375.050   114220475.119       -1226.091          49.000  
  21735425.767   114220386.906       -1226.146          49.000  
  21735517.121   114220651.184       -1226.044          49.000  
  21735534.107   114220588.315       -1226.108          49.000  
  21735410.769   114220409.363       -1226.099          49.000  
  21697621.255   114021796.394       -1226.168          38.000  
  21833603.965   114736376.317       -1226.035          38.000  
  21699674.746   114032568.405       -1226.033          37.000  
  21735541.060   114220900.415       -1226.085          46.000  
  21702603.729   114047942.405       -1226.163          38.000  
  21723411.063   114157302.938       -1226.213          40.000  
  21869936.325   114927276.844       -1226.069          38.000  
  21735419.240   114220630.904       -1226.063          49.000  
  21871998.780   114938141.1732      -1226.185          38.000  
  21764734.185   114374754.822       -1226.206          39.000  
  21770009.674   114402187.320       -1226.189          39.000  
  21649853.477   113770806.886       -1225.990          37.000  
  21735386.484   114220429.523       -1226.088          49.000  
  21733375.128   114209673.681       -1226.156          34.000  
  21660697.479   113827757.423       -1226.082          38.000  
  21740994.415   114249707.941       -1226.091          39.000  
  21607957.767   113550606.234       -1226.036          37.000  
  21610014.601                       -2226.430          37.000  
  21712863.819   114101882.433       -1226.233          41.000  
  21689711.429   113980220.372       -1226.072          39.000  
 25  8 12  8 57 23.0010000  0 26G 5G 1G 2G 3G 4G26G31G23G 7G15G30G22
                                G 6G12G32G21G28G 8G 9G25G19G16G11G27
                                G10G13
  21735421.744   114220720.350       -1226.262          49.000  
  21735472.400   114220632.139       -1226.215          49.000  
  21735564.275   114220896.421       -1226.312          49.000  
  21735580.786   114220833.548       -1226.295          49.000  
  21735457.401   114220654.598       -1226.274          49.000  
  21697667.918   114022041.630       -1226.254          39.000  
  21833650.654   114736621.550       -1226.255          38.000  
  21699721.422   114032813.638       -1226.439          37.000  
  21735587.743   114221145.654       -1226.252          46.000  
  21702650.436   114048187.640       -1226.328          38.000  
  21723457.732   114157548.175       -1226.152          40.000  
  21869983.019   114927522.082       -1226.228          38.000  
  21735465.885   114220876.139       -1226.274          49.000  
  21872045.830   114938386.4052      -1226.210          38.000  
  21764780.886   114375000.055       -1226.200          39.000  
  21770056.310   114402432.552       -1226.141          39.000  
  21649900.135   113771052.131       -1226.246          37.000  
  21735433.263   114220674.759       -1226.293          49.000  
  21733421.786   114209918.921       -1226.259          34.000  
  21660744.168   113828002.660       -1226.224          38.000  
  21741041.089   114249953.175       -1226.271          39.000  
  21608004.375   113550851.467       -1226.276          37.000  
  21762474.514   114362574.7423      -2226.292          38.000  
  21610062.290                       -2226.430          37.000  
  21712910.427   114102127.666       -1226.187          41.000  
  21689758.055   113980465.605       -1226.262          39.000  
 25  8 12  8 57 23.2010000  0 26G 5G 1G 2G 3G 4G26G31G23G 7G15G30G22
                                G 6G12G32G21G28G 8G 9G25G19G16G11G27
                                G10G13
  21735468.223   114220965.566       -1226.062          49.000  
  21735519.019   114220877.357       -1226.060          49.000  
  21735611.537   114221141.636       -1226.086          49.000  
  21735627.457   114221078.763       -1226.027          49.000  
  21735504.032   114220899.813       -1226.022          49.000  
  21697714.585   114022286.846       -1226.061          39.000  
  21833697.322   114736866.765       -1226.027          38.000  
  21699768.106   114033058.850       -1226.094          37.000  
  21735634.364   114221390.870       -1226.056          46.000  
  21702697.039   114048432.856       -1226.075          38.000  
  21723504.389   114157793.396       -1226.093          40.000  
  21870029.702   114927767.301       -1226.060          38.000  
  21735512.537   114221121.353       -1226.016          49.000  
  21872092.455   114938631.6242      -1226.067          37.000  
  21764827.545   114375245.273       -1226.001          39.000  
  21770102.991   114402677.771       -1226.041          39.000  
  21649946.749   113771297.345       -1226.019          37.000  
  21735480.156   114220919.972       -1226.044          49.000  
  21733468.454   114210164.131       -1226.007          34.000  
  21660790.809   113828247.874       -1226.062          38.000  
  21741087.715   114250198.390       -1226.044          39.000  
  21608051.021   113551096.682       -1226.047          37.000  
  21762522.343   114363019.9552      -2226.067          38.000  
  21610108.724                       -2226.430          37.000  
  21712957.047   114102372.887       -1226.086          41.000  
  21689804.713   113980710.823       -1226.041          39.000  
 25  8 12  8 57 23.4010000  0 26G 5G 1G 2G 3G 4G26G31G23G 7G15G30G22
                                G 6G12G32G21G28G 8G 9G25G19G16G11G27
                                G10G13
  21735514.867   114221210.787       -1225.931          49.000  
  21735565.726   114221122.578       -1225.951          49.000  
  21735658.695   114221386.856       -1225.979          49.000  
  21735674.127   114221323.982       -1225.914          49.000  
  21735550.696   114221145.032       -1225.919          49.000  
  21697761.258   114022532.069       -1226.011          39.000  
  21833743.967   114737111.986       -1225.979          38.000  
  21699814.795   114033304.071       -1225.990          37.000  
  21735681.038   114221636.092       -1225.999          46.000  
  21702743.734   114048678.077       -1225.962          38.000  
  21723551.026   114158038.615       -1226.007          40.000  
  21870076.366   114928012.523       -1226.011          38.000  
  21735559.200   114221366.575       -1225.955          49.000  
  21872139.171   114938876.8432      -1226.001          37.000  
  21764874.284   114375490.493       -1225.986          39.000  
  21770149.624   114402922.996       -1225.977          39.000  
  21649993.418   113771542.572       -1226.030          37.000  
  21735527.058   114221165.196       -1225.999          49.000  
  21733515.127   114210409.356       -1225.986          34.000  
  21660837.468   113828493.098       -1226.003          38.000  
  21741134.368   114250443.612       -1225.930          39.000  
  21608097.630   113551341.901       -1225.947          37.000  
  21762572.233   114363465.1762      -2225.992          38.000  
  21610156.600                       -2226.430          37.000  
  21713003.653   114102618.107       -1225.978          41.000  
  21689851.354   113980956.043       -1225.977          39.000  
 25  8 12  8 57 23.6010000  0 26G 5G 1G 2G 3G 4G26G31G23G 7G15G30G22
                                G 6G12G32G21G28G 8G 9G25G19G16G11G27
                                G10G13
  21735561.525   114221456.005       -1226.106          49.000  
  21735612.434   114221367.799       -1226.151          49.000  
  21735705.621   114221632.078       -1226.132          49.000  
  21735720.786   114221569.202       -1226.068          49.000  
  21735597.374   114221390.256       -1226.132          49.000  
  21697807.943   114022777.290       -1226.207          39.000  
  21833790.652   114737357.205       -1226.080          38.000  
  21699861.486   114033549.294       -1226.210          38.000  
  21735727.684   114221881.310       -1226.052          46.000  
  21702790.360   114048923.283       -1225.854          38.000  
  21723597.705   114158283.830       -1226.041          40.000  
  21870123.022   114928257.747       -1226.224          38.000  
  21735605.862   114221611.796       -1226.088          49.000  
  21872185.914   114939122.0662      -1226.200          37.000  
  21764920.963   114375735.713       -1226.073          39.000  
  21770196.240   114403168.215       -1226.115          39.000  
  21650040.075   113771787.799       -1226.326          37.000  
  21735573.896   114221410.414       -1226.093          49.000  
  21733561.778   114210654.576       -1226.150          34.000  
  21660884.103   113828738.320       -1226.150          38.000  
  21741181.019   114250688.841       -1226.223          39.000  
  21608144.227   113551587.123       -1226.099          37.000  
  21762619.266   114363910.3962      -2226.154          38.000  
  21610205.118                       -2226.430          37.000  
  21713050.269   114102863.324       -1226.068          41.000  
  21689898.019   113981201.264       -1226.161          39.000  
 25  8 12  8 57 23.8010000  0 26G 5G 1G 2G 3G 4G26G31G23G 7G15G30G22
                                G 6G12G32G21G28G 8G 9G25G19G16G11G27
                                G10G13
  21735608.010   114221701.237       -1226.185          49.000  
  21735659.137   114221613.027       -1226.112          49.000  
  21735752.958   114221877.308       -1226.166          49.000  
  21735767.459   114221814.436       -1226.134          49.000  
  21735644.004   114221635.488       -1226.113          49.000  
  21697854.585   114023022.523       -1226.182          39.000  
  21833837.343   114737602.438       -1226.018          37.000  
  21699908.133   114033794.518       -1226.042          38.000  
  21735774.359   114222126.542       -1226.251          47.000  
  21702837.087   114049168.516       -1226.403          38.000  
  21723644.344   114158529.065       -1226.442          40.000  
  21870169.692   114928502.981       -1226.205          38.000  
  21735652.507   114221857.027       -1226.108          49.000  
  21872232.239   114939367.3062      -1226.179          37.000  
  21764967.667   114375980.949       -1226.312          39.000  
  21770242.883   114403413.452       -1226.492          39.000  
  21650086.758   113772033.031       -1226.088          37.000  
  21735620.346   114221655.645       -1226.157          49.000  
  21733608.392   114210899.811       -1226.482          34.000  
  21660930.791   113828983.546       -1226.034          38.000  
  21741227.687   114250934.074       -1226.191          39.000  
  21608190.909   113551832.355       -1225.946          37.000  
  21762666.791   114364355.6302      -2226.025          39.000  
  21610254.016                       -2226.430          37.000  
  21713096.893   114103108.559       -1226.344          41.000  
  21689944.669   113981446.497       -1226.125          39.000  
 25  8 12  8 57 24.0010000  0 26G 5G 1G 2G 3G 4G26G31G23G 7G15G30G22
                                G 6G12G32G21G28G 8G 9G25G19G16G11G27
                                G10G13
  21735654.451   114221946.486       -1226.366          49.000  
  21735705.802   114221858.278       -1226.350          49.000  
  21735800.124   114222122.555       -1226.312          49.000  
  21735814.129   114222059.683       -1226.300          49.000  
  21735690.665   114221880.738       -1226.321          49.000  
  21697901.212   114023267.763       -1226.199          39.000  
  21833883.991   114737847.691       -1226.421          37.000  
  21699954.810   114034039.771       -1226.335          38.000  
  21735821.033   114222371.784       -1226.304          47.000  
  21702883.736   114049413.754       -1226.337          38.000  
  21723691.058   114158774.296       -1226.169          40.000  
  21870216.304   114928748.227       -1226.367          38.000  
  21735699.179   114222102.275       -1226.282          49.000  
  21872278.763   114939612.5502      -1226.309          38.000  
  21765014.302   114376226.185       -1226.187          39.000  
  21770289.542   114403658.680       -1226.210          39.000  
  21650133.458   113772278.277       -1226.246          37.000  
  21735666.811   114221900.893       -1226.360          49.000  
  21733655.116   114211145.034       -1226.063          34.000  
  21660977.424   113829228.804       -1226.367          38.000  
  21741274.326   114251179.317       -1226.295          39.000  
  21608237.587   113552077.615       -1226.384          37.000  
  21762712.409   114364800.8842      -2226.383          39.000  
  21610313.513                       -2226.430          37.000  
  21713143.570   114103353.794       -1226.240          41.000  
  21689991.325   113981691.745       -1226.367          39.000  
 25  8 12  8 57 24.2010000  0 26G 5G 1G 2G 3G 4G26G31G23G 7G15G30G22
                                G 6G12G32G21G28G 8G 9G25G19G16G11G27
                                G10G13
  21735700.908   114222191.703       -1226.169          49.000  
  21735752.452   114222103.492       -1226.136          49.000  
  21735847.319   114222367.773       -1226.184          49.000  
  21735860.792   114222304.905       -1226.179          49.000  
  21735737.324   114222125.957       -1226.168          49.000  
  21697947.828   114023512.989       -1226.112          38.000  
  21833930.632   114738092.903       -1226.206          37.000  
  21700001.428   114034284.985       -1226.165          38.000  
  21735867.711   114222617.001       -1226.117          47.000  
  21702930.435   114049658.971       -1226.130          38.000  
  21723737.683   114159019.525       -1226.078          40.000  
  21870262.990   114928993.443       -1226.171          39.000  
  21735745.811   114222347.496       -1226.173          49.000  
  21872325.633   114939857.7732      -1226.222          38.000  
  21765060.985   114376471.411       -1226.134          39.000  
  21770336.152   114403903.906       -1226.094          39.000  
  21650180.110   113772523.498       -1226.188          37.000  
  21735713.242   114222146.111       -1226.182          49.000  
  21733701.789   114211390.271       -1226.157          34.000  
  21661024.128   113829474.019       -1226.243          38.000  
  21741320.994   114251424.536       -1226.143          40.000  
  21608284.240   113552322.831       -1226.295          37.000  
  21762759.240   114365246.1002      -2226.217          39.000  
  21610365.356                       -2226.430          37.000  
  21713190.195   114103599.019       -1226.104          41.000  
  21690037.957   113981936.962       -1226.156          39.000  
 25  8 12  8 57 24.4010000  0 26G 5G 1G 2G 3G 4G26G31G23G 7G15G30G22
                                G 6G12G32G21G28G 8G 9G25G19G16G11G27
                                G10G13
  21735747.593   114222436.945       -1226.117          49.000  
  21735799.137   114222348.738       -1226.149          49.000  
  21735894.308   114222613.016       -1226.141          49.000  
  21735907.469   114222550.144       -1226.132          49.000  
  21735783.992   114222371.200       -1226.157          49.000  
  21697994.494   114023758.233       -1226.173          38.000  
  21833977.326   114738338.145       -1226.118          37.000  
  21700048.109   114034530.232       -1226.165          38.000  
  21735914.387   114222862.249       -1226.100          47.000  
  21702977.059   114049904.219       -1226.169          38.000  
  21723784.382   114159264.773       -1226.101          40.000  
  21870309.631   114929238.686       -1226.117          39.000  
  21735792.466   114222592.736       -1226.124          49.000  
  21872372.291   114940103.0122      -1226.158          38.000  
  21765107.601   114376716.659       -1226.145          39.000  
  21770382.795   114404149.152       -1226.079          39.000  
  21650226.819   113772768.741       -1226.099          37.000  
  21735759.782   114222391.352       -1226.125          49.000  
  21733748.474   114211635.516       -1226.166          34.000  
  21661070.805   113829719.259       -1226.132          38.000  
  21741367.651   114251669.780       -1226.082          40.000  
  21608330.912   113552568.067       -1226.195          37.000  
  21762814.136   114365691.3432      -2226.155          39.000  
  21610414.140                       -2226.430          37.000  
  21713236.841   114103844.265       -1226.132          41.000  
  21690084.612   113982182.207       -1226.130          39.000  
 25  8 12  8 57 24.6010000  0 26G 5G 1G 2G 3G 4G26G31G23G 7G15G30G22
                                G 6G12G32G21G28G 8G 9G25G19G16G11G27
                                G10G13
  21735794.385   114222682.179       -1226.127          49.000  
  21735845.819   114222593.966       -1226.063          49.000  
  21735940.978   114222858.246       -1226.117          49.000  
  21735954.141   114222795.373       -1226.078          49.000  
  21735830.666   114222616.422       -1226.022          49.000  
  21698041.177   114024003.446       -1225.978          39.000  
  21834023.988   114738583.377       -1226.133          37.000  
  21700094.800   114034775.463       -1226.149          38.000  
  21735961.067   114223107.480       -1226.086          47.000  
  21703023.778   114050149.466       -1226.000          38.000  
  21723831.043   114159509.999       -1225.989          40.000  
  21870356.339   114929483.908       -1226.035          39.000  
  21735839.139   114222837.962       -1226.041          49.000  
  21872419.575   114940348.2282      -1226.089          38.000  
  21765154.319   114376961.879       -1226.034          39.000  
  21770429.423   114404394.375       -1225.903          39.000  
  21650273.502   113773013.949       -1225.922          37.000  
  21735806.710   114222636.584       -1226.067          49.000  
  21733795.153   114211880.733       -1225.988          34.000  
  21661117.494   113829964.487       -1226.051          38.000  
  21741414.372   114251915.002       -1226.095          40.000  
  21608377.571   113552813.294       -1226.116          37.000  
  21762884.300   114366136.5542      -2226.093          38.000  
  21610462.630                       -2226.430          37.000  
  21713283.479   114104089.489       -1225.962          41.000  
  21690131.257   113982427.431       -1226.080          39.000  
 25  8 12  8 57 24.8010000  0 26G 5G 1G 2G 3G 4G26G31G23G 7G15G30G22
                                G 6G12G32G21G28G 8G 9G25G19G16G11G27
                                G10G13
  21735841.311   114222927.391       -1226.128          49.000  
  21735892.471   114222839.181       -1226.152          49.000  
  21735987.522   114223103.458       -1226.100          49.000  
  21736000.809   114223040.584       -1226.062          49.000  
  21735877.338   114222861.637       -1226.068          49.000  
  21698087.850   114024248.666       -1226.084          39.000  
  21834070.668   114738828.584       -1226.029          37.000  
  21700141.526   114035020.672       -1226.155          38.000  
  21736007.715   114223352.693       -1226.155          47.000  
  21703070.398   114050394.679       -1226.201          38.000  
  21723877.726   114159755.221       -1226.238          40.000  
  21870402.984   114929729.123       -1226.121          38.000  
  21735885.804   114223083.177       -1226.047          49.000  
  21872465.869   114940592.9451      -1226.052          37.000  
  21765200.932   114377207.096       -1226.160          39.000  
  21770476.083   114404639.600       -1226.210          39.000  
  21650320.150   113773259.171       -1226.069          37.000  
  21735853.466   114222881.797       -1226.122          49.000  
  21733841.798   114212125.954       -1226.178          34.000  
  21661164.140   113830209.700       -1226.088          38.000  
  21741461.001   114252160.216       -1226.127          40.000  
  21608424.241   113553058.503       -1226.003          37.000  
  21762914.433   114366581.7752      -2226.196          38.000  
  21610504.395                       -2226.430          37.000  
  21713330.088   114104334.711       -1226.230          41.000  
  21690177.892   113982672.644       -1226.116          39.000  
 25  8 12  8 57 25.0010000  0 26G 5G 1G 2G 3G 4G26G31G23G 7G15G30G22
                                G 6G12G32G21G28G 8G 9G25G19G16G11G27
                                G10G13
  21735887.953   114223172.605       -1226.149          49.000  
  21735939.116   114223084.391       -1226.136          49.000  
  21736034.025   114223348.672       -1226.135          49.000  
  21736047.475   114223285.798       -1226.108          49.000  
  21735923.991   114223106.848       -1226.116          49.000  
  21698134.512   114024493.874       -1226.184          39.000  
  21834117.350   114739073.804       -1226.100          37.000  
  21700188.177   114035265.889       -1226.207          38.000  
  21736054.429   114223597.902       -1226.125          47.000  
  21703117.093   114050639.882       -1226.046          38.000  
  21723924.364   114160000.423       -1226.248          40.000  
  21870449.650   114929974.334       -1226.144          38.000  
  21735932.444   114223328.390       -1226.096          49.000  
  21872512.509   114940838.152       -1226.107          37.000  
  21765247.626   114377452.303       -1226.130          39.000  
  21770522.739   114404884.798       -1226.143          39.000  
  21650366.785   113773504.391       -1226.298          37.000  
  21735900.009   114223127.010       -1226.123          49.000  
  21733888.430   114212371.155       -1226.212          34.000  
  21661210.825   113830454.911       -1226.099          38.000  
  21741507.674   114252405.428       -1226.163          39.000  
  21608470.900   113553303.722       -1226.071          37.000  
  21762959.178   114367026.9842      -2226.118          38.000  
  21610568.633                       -2226.430          37.000  
  21713376.715   114104579.911       -1226.182          41.000  
  21690224.576   113982917.858       -1226.122          39.000  
 25  8 12  8 57 25.2010000  0 26G 5G 1G 2G 3G 4G26G31G23G 7G15G30G22
                                G 6G12G32G21G28G 8G 9G25G19G16G11G27
                                G10G13
  21735934.600   114223417.821       -1226.188          49.000  
  21735985.816   114223329.608       -1226.200          49.000  
  21736080.598   114223593.887       -1226.180          49.000  
  21736094.147   114223531.015       -1226.146          49.000  
  21735970.650   114223352.064       -1226.167          49.000  
  21698181.148   114024739.090       -1226.143          39.000  
  21834164.028   114739319.022       -1226.210          38.000  
  21700234.824   114035511.102       -1226.190          38.000  
  21736101.049   114223843.120       -1226.152          47.000  
  21703163.745   114050885.104       -1226.158          38.000  
  21723971.070   114160245.639       -1226.172          40.000  
  21870496.302   114930219.548       -1226.088          38.000  
  21735979.107   114223573.606       -1226.151          49.000  
  21872559.341   114941083.371       -1226.115          37.000  
  21765294.227   114377697.518       -1226.095          39.000  
  21770569.391   114405130.019       -1226.184          39.000  
  21650413.451   113773749.598       -1226.179          37.000  
  21735946.648   114223372.226       -1226.178          49.000  
  21733935.114   114212616.365       -1226.000          34.000  
  21661257.468   113830700.128       -1226.112          38.000  
  21741554.335   114252650.641       -1226.149          39.000  
  21608517.526   113553548.938       -1226.112          37.000  
  21763005.444   114367472.2012      -2226.134          38.000  
  21610643.369                       -2226.430          37.000  
  21713423.337   114104825.130       -1226.211          41.000  
  21690271.213   113983163.074       -1226.184          39.000  
 25  8 12  8 57 25.4010000  0 26G 5G 1G 2G 3G 4G26G31G23G 7G15G30G22
                                G 6G12G32G21G28G 8G 9G25G19G16G11G27
                                G10G13
  21735981.291   114223663.021       -1226.143          49.000  
  21736032.525   114223574.814       -1226.191          49.000  
  21736127.013   114223839.090       -1226.147          49.000  
  21736140.820   114223776.219       -1226.124          49.000  
  21736017.293   114223597.271       -1226.178          49.000  
  21698227.810   114024984.292       -1226.094          39.000  
  21834210.667   114739564.215       -1226.041          38.000  
  21700281.483   114035756.284       -1225.806          38.000  
  21736147.719   114224088.327       -1226.206          47.000  
  21703210.480   114051130.316       -1226.365          38.000  
  21724017.684   114160490.859       -1226.377          40.000  
  21870542.999   114930464.761       -1226.218          38.000  
  21736025.782   114223818.816       -1226.287          49.000  
  21872606.260   114941328.595       -1226.515          37.000  
  21765340.900   114377942.732       -1226.223          39.000  
  21770616.057   114405375.230       -1226.240          39.000  
  21650460.106   113773994.798       -1226.135          37.000  
  21735993.399   114223617.427       -1226.155          49.000  
  21733981.770   114212861.572       -1225.975          34.000  
  21661304.126   113830945.344       -1226.377          38.000  
  21741601.005   114252895.837       -1225.955          39.000  
  21608564.166   113553794.145       -1226.232          37.000  
  21763047.189   114367917.419       -2226.405          38.000  
  21610727.291                       -2226.430          34.000  
  21713469.952   114105070.339       -1226.200          41.000  
  21690317.876   113983408.278       -1226.199          39.000  
 25  8 12  8 57 25.6010000  0 26G 5G 1G 2G 3G 4G26G31G23G 7G15G30G22
                                G 6G12G32G21G28G 8G 9G25G19G16G11G27
                                G10G13
  21736028.497   114223908.241       -1226.161          49.000  
  21736079.181   114223820.035       -1226.194          49.000  
  21736172.918   114224084.314       -1226.221          49.000  
  21736187.481   114224021.441       -1226.234          49.000  
  21736063.923   114223842.492       -1226.200          49.000  
  21698274.474   114025229.518       -1226.316          39.000  
  21834257.316   114739809.431       -1226.201          38.000  
  21700328.118   114036001.507       -1226.448          38.000  
  21736194.358   114224333.552       -1226.218          47.000  
  21703257.132   114051375.535       -1226.183          38.000  
  21724064.432   114160736.086       -1226.219          40.000  
  21870589.687   114930709.980       -1226.180          38.000  
  21736072.420   114224064.038       -1226.179          49.000  
  21872652.650   114941573.811       -1226.110          37.000  
  21765387.511   114378187.959       -1226.196          39.000  
  21770662.736   114405620.459       -1226.134          39.000  
  21650506.778   113774240.025       -1226.322          37.000  
  21736039.965   114223862.650       -1226.215          49.000  
  21734028.398   114213106.798       -1226.549          34.000  
  21661350.774   113831190.564       -1226.058          38.000  
  21741647.712   114253141.063       -1226.306          39.000  
  21608610.825   113554039.357       -1226.124          37.000  
  21763079.142   114368362.645       -2226.130          38.000  
  21610810.967                       -2226.430          31.000  
  21713516.614   114105315.566       -1226.215          41.000  
  21690364.506   113983653.498       -1226.228          39.000  
 25  8 12  8 57 25.8010000  0 25G 5G 1G 2G 3G 4G26G31G23G 7G15G30G22
                                G 6G12G32G21G28G 8G 9G25G19G16G11G10
                                G13
  21736075.613   114224153.466       -1226.205          49.000  
  21736125.853   114224065.261       -1226.244          49.000  
  21736218.915   114224329.540       -1226.265          49.000  
  21736234.156   114224266.666       -1226.266          49.000  
  21736110.589   114224087.719       -1226.271          49.000  
  21698321.135   114025474.741       -1226.305          39.000  
  21834303.970   114740054.656       -1226.155          38.000  
  21700374.734   114036246.723       -1226.288          38.000  
  21736241.041   114224578.776       -1226.266          46.000  
  21703303.846   114051620.760       -1226.224          38.000  
  21724111.057   114160981.316       -1226.548          40.000  
  21870636.361   114930955.208       -1226.318          38.000  
  21736119.061   114224309.264       -1226.244          49.000  
  21872699.241   114941819.043       -1226.298          37.000  
  21765434.167   114378433.188       -1226.390          39.000  
  21770709.411   114405865.686       -1226.428          39.000  
  21650553.434   113774485.249       -1226.486          37.000  
  21736086.603   114224107.873       -1226.213          49.000  
  21734075.056   114213352.012       -1226.422          34.000  
  21661397.447   113831435.795       -1226.195          38.000  
  21741694.392   114253386.281       -1226.328          39.000  
  21608657.478   113554284.581       -1226.022          37.000  
  21763119.927   114368807.878       -2226.362          38.000  
  21713563.224   114105560.792       -1226.403          41.000  
  21690411.188   113983898.720       -1226.179          39.000  
 25  8 12  8 57 26.0010000  0 25G 5G 1G 2G 3G 4G26G31G23G 7G15G30G22
                                G 6G12G32G21G28G 8G 9G25G19G16G11G10
                                G13
  21736122.787   114224398.694       -1226.210          49.000  
  21736172.514   114224310.488       -1226.195          49.000  
  21736264.975   114224574.766       -1226.182          49.000  
  21736280.829   114224511.895       -1226.268          49.000  
  21736157.242   114224332.948       -1226.281          49.000  
  21698367.803   114025719.967       -1226.206          39.000  
  21834350.626   114740299.888       -1226.235          38.000  
  21700421.390   114036491.954       -1226.232          38.000  
  21736287.693   114224824.001       -1226.147          46.000  
  21703350.473   114051865.989       -1226.288          38.000  
  21724157.763   114161226.542       -1226.249          40.000  
  21870683.013   114931200.430       -1226.178          38.000  
  21736165.722   114224554.494       -1226.261          49.000  
  21872745.813   114942064.267       -1226.173          37.000  
  21765480.808   114378678.409       -1226.198          39.000  
  21770756.059   114406110.912       -1226.293          39.000  
  21650600.082   113774730.469       -1226.167          37.000  
  21736133.118   114224353.100       -1226.176          49.000  
  21734121.707   114213597.247       -1226.202          34.000  
  21661444.109   113831681.020       -1226.190          38.000  
  21741741.016   114253631.507       -1226.196          39.000  
  21608704.115   113554529.812       -1226.207          37.000  
  21763163.746   114369253.104       -2226.268          39.000  
  21713609.864   114105806.017       -1226.219          41.000  
  21690457.832   113984143.950       -1226.201          39.000  
 25  8 12  8 57 26.2010000  0 25G 5G 1G 2G 3G 4G26G31G23G 7G15G30G22
                                G 6G12G32G21G28G 8G 9G25G19G16G11G10
                                G13
  21736169.987   114224643.927       -1226.115          49.000  
  21736219.139   114224555.717       -1226.100          49.000  
  21736311.243   114224819.997       -1226.086          49.000  
  21736327.514   114224757.123       -1226.080          49.000  
  21736203.871   114224578.174       -1226.090          49.000  
  21698414.482   114025965.201       -1226.139          39.000  
  21834397.304   114740545.118       -1226.121          38.000  
  21700468.048   114036737.181       -1226.050          38.000  
  21736334.370   114225069.234       -1226.107          46.000  
  21703397.154   114052111.214       -1226.104          38.000  
  21724204.363   114161471.771       -1226.133          40.000  
  21870729.743   114931445.665       -1226.139          38.000  
  21736212.362   114224799.721       -1226.074          49.000  
  21872792.434   114942309.500       -1226.132          37.000  
  21765527.501   114378923.638       -1226.068          39.000  
  21770802.701   114406356.138       -1226.149          39.000  
  21650646.733   113774975.700       -1226.045          37.000  
  21736179.703   114224598.333       -1226.113          49.000  
  21734168.387   114213842.480       -1226.161          34.000  
  21661490.792   113831926.253       -1226.093          38.000  
  21741787.679   114253876.739       -1226.107          39.000  
  21608750.763   113554775.046       -1226.071          37.000  
  21763211.360   114369698.334       -2226.101          39.000  
  21713656.510   114106051.247       -1226.068          41.000  
  21690504.488   113984389.177       -1226.069          39.000  
 25  8 12  8 57 26.4010000  0 25G 5G 1G 2G 3G 4G26G31G23G 7G15G30G22
                                G 6G12G32G21G28G 8G 9G25G19G16G11G10
                                G13
  21736216.822   114224889.148       -1226.299          49.000  
  21736265.809   114224800.942       -1226.284          49.000  
  21736358.019   114225065.225       -1226.310          49.000  
  21736374.188   114225002.346       -1226.237          49.000  
  21736250.514   114224823.401       -1226.235          49.000  
  21698461.155   114026210.441       -1226.385          39.000  
  21834443.990   114740790.372       -1226.384          38.000  
  21700514.736   114036982.434       -1226.334          37.000  
  21736381.034   114225314.454       -1226.300          46.000  
  21703443.767   114052356.406       -1226.206          38.000  
  21724251.081   114161716.966       -1226.222          40.000  
  21870776.387   114931690.887       -1226.266          38.000  
  21736259.038   114225044.941       -1226.267          49.000  
  21872839.345   114942554.704       -1226.260          37.000  
  21765574.129   114379168.870       -1226.292          39.000  
  21770849.362   114406601.354       -1226.234          39.000  
  21650693.381   113775220.937       -1226.267          37.000  
  21736226.458   114224843.562       -1226.327          49.000  
  21734215.042   114214087.711       -1226.272          34.000  
  21661537.453   113832171.468       -1226.302          38.000  
  21741834.341   114254121.982       -1226.250          39.000  
  21608797.405   113555020.280       -1226.260          37.000  
  21763267.099   114370143.526       -2226.119          39.000  
  21713703.142   114106296.457       -1226.259          41.000  
  21690551.121   113984634.409       -1226.274          39.000  
 25  8 12  8 57 26.6010000  0 25G 5G 1G 2G 3G 4G26G31G23G 7G15G30G22
                                G 6G12G32G21G28G 8G 9G25G19G16G11G10
                                G13
  21736263.223   114225134.353       -1225.984          49.000  
  21736312.472   114225046.149       -1226.022          49.000  
  21736404.995   114225310.430       -1226.041          49.000  
  21736420.853   114225247.555       -1226.046          49.000  
  21736297.146   114225068.609       -1226.040          49.000  
  21698507.842   114026455.642       -1226.022          39.000  
  21834490.636   114741035.570       -1226.136          37.000  
  21700561.425   114037227.635       -1226.155          37.000  
  21736427.691   114225559.662       -1226.034          46.000  
  21703490.453   114052601.621       -1225.898          38.000  
  21724297.695   114161962.183       -1225.868          40.000  
  21870823.132   114931936.092       -1225.996          38.000  
  21736305.667   114225290.148       -1226.013          49.000  
  21872885.984   114942799.914       -1226.046          38.000  
  21765620.796   114379414.073       -1225.959          39.000  
  21770896.014   114406846.568       -1226.014          39.000  
  21650740.049   113775466.149       -1226.139          37.000  
  21736273.336   114225088.764       -1226.018          49.000  
  21734261.743   114214332.919       -1226.013          35.000  
  21661584.102   113832416.670       -1225.951          38.000  
  21741880.983   114254367.189       -1226.096          39.000  
  21608844.035   113555265.481       -1226.104          37.000  
  21763316.977   114370588.743       -2225.996          39.000  
  21713749.775   114106541.670       -1225.942          41.000  
  21690597.806   113984879.611       -1226.023          39.000  
 25  8 12  8 57 26.8010000  0 25G 5G 1G 2G 3G 4G26G31G23G 7G15G30G22
                                G 6G12G32G21G28G 8G 9G25G19G16G11G10
                                G13
  21736309.779   114225379.590       -1226.140          49.000  
  21736359.154   114225291.386       -1226.165          49.000  
  21736451.908   114225555.666       -1226.187          49.000  
  21736467.528   114225492.791       -1226.179          49.000  
  21736343.818   114225313.845       -1226.194          49.000  
  21698554.474   114026700.884       -1226.223          39.000  
  21834537.310   114741280.802       -1226.124          37.000  
  21700608.178   114037472.870       -1226.180          37.000  
  21736474.316   114225804.900       -1226.179          46.000  
  21703537.077   114052846.863       -1226.178          38.000  
  21724344.404   114162207.430       -1226.302          40.000  
  21870869.788   114932181.331       -1226.178          38.000  
  21736352.328   114225535.384       -1226.166          49.000  
  21872932.736   114943045.145       -1226.147          38.000  
  21765667.426   114379659.312       -1226.102          39.000  
  21770942.616   114407091.806       -1226.183          39.000  
  21650786.687   113775711.385       -1226.235          37.000  
  21736320.205   114225334.002       -1226.173          49.000  
  21734308.396   114214578.157       -1226.184          35.000  
  21661630.783   113832661.909       -1226.132          38.000  
  21741927.653   114254612.423       -1226.110          39.000  
  21608890.683   113555510.714       -1226.127          37.000  
  21763365.807   114371033.977       -2226.234          39.000  
  21713796.429   114106786.909       -1226.187          40.000  
  21690644.451   113985124.848       -1226.100          39.000  
 25  8 12  8 57 27.0010000  0 25G 5G 1G 2G 3G 4G26G31G23G 7G15G30G22
                                G 6G12G32G21G28G 8G 9G25G19G16G11G10
                                G13
  21736356.186   114225624.795       -1226.089          49.000  
  21736405.825   114225536.586       -1226.071          49.000  
  21736498.727   114225800.867       -1226.104          49.000  
  21736514.194   114225737.992       -1226.041          49.000  
  21736390.481   114225559.049       -1226.088          49.000  
  21698601.135   114026946.074       -1225.931          39.000  
  21834583.942   114741526.011       -1226.174          37.000  
  21700654.837   114037718.075       -1226.169          37.000  
  21736520.980   114226050.100       -1226.056          46.000  
  21703583.724   114053092.057       -1225.942          38.000  
  21724391.001   114162452.609       -1225.864          40.000  
  21870916.500   114932426.539       -1226.182          38.000  
  21736398.961   114225780.585       -1226.030          49.000  
  21872979.380   114943290.352       -1226.141          38.000  
  21765714.124   114379904.508       -1226.006          39.000  
  21770989.280   114407336.998       -1225.931          39.000  
  21650833.377   113775956.577       -1225.929          37.000  
  21736367.093   114225579.205       -1226.110          49.000  
  21734355.080   114214823.351       -1225.925          35.000  
  21661677.453   113832907.114       -1226.135          38.000  
  21741974.366   114254857.627       -1226.111          40.000  
  21608937.327   113555755.921       -1226.121          37.000  
  21763412.879   114371479.180       -2226.150          39.000  
  21713843.072   114107032.098       -1225.905          40.000  
  21690691.119   113985370.054       -1226.113          39.000  
 25  8 12  8 57 27.2010000  0 26G 5G 1G 2G 3G 4G26G31G23G 7G15G30G22
                                G 6G12G18G32G21G28G 8G 9G25G19G16G11
                                G10G13
  21736402.603   114225869.998       -1226.278          49.000  
  21736452.448   114225781.789       -1226.230          49.000  
  21736545.611   114226046.069       -1226.238          49.000  
  21736560.860   114225983.200       -1226.315          49.000  
  21736437.136   114225804.253       -1226.235          49.000  
  21698647.781   114027191.282       -1226.100          39.000  
  21834630.565   114741771.204       -1226.058          37.000  
  21700701.501   114037963.281       -1226.365          37.000  
  21736567.649   114226295.304       -1226.189          46.000  
  21703630.362   114053337.286       -1226.584          38.000  
  21724437.680   114162697.829       -1226.162          40.000  
  21870963.084   114932671.739       -1226.276          39.000  
  21736445.627   114226025.792       -1226.254          49.000  
  21873025.968   114943535.549       -1226.251          38.000  
  21574730.265   113375972.5123      -2226.426          35.000  
  21765760.783   114380149.710       -1226.056          39.000  
  21771035.886   114407582.210       -1226.210          39.000  
  21650880.007   113776201.787       -1226.166          37.000  
  21736413.905   114225824.407       -1226.259          49.000  
  21734401.724   114215068.570       -1226.323          35.000  
  21661724.113   113833152.311       -1226.144          38.000  
  21742021.004   114255102.827       -1226.198          40.000  
  21608984.014   113556001.113       -1226.102          37.000  
  21763458.659   114371924.379       -2226.267          39.000  
  21713889.696   114107277.315       -1226.232          40.000  
  21690737.728   113985615.255       -1226.250          39.000  
 25  8 12  8 57 27.4010000  0 26G 5G 1G 2G 3G 4G26G31G23G 7G15G30G22
                                G 6G12G18G32G21G28G 8G 9G25G19G16G11
                                G10G13
  21736449.215   114226115.200       -1226.023          49.000  
  21736499.083   114226026.991       -1226.089          49.000  
  21736592.355   114226291.271       -1226.104          49.000  
  21736607.521   114226228.403       -1226.155          49.000  
  21736483.789   114226049.454       -1226.188          49.000  
  21698694.490   114027436.485       -1226.240          39.000  
  21834677.214   114742016.403       -1226.163          37.000  
  21700748.192   114038208.483       -1226.102          37.000  
  21736614.307   114226540.504       -1226.122          46.000  
  21703677.038   114053582.484       -1226.010          38.000  
  21724484.316   114162943.034       -1226.257          40.000  
  21871009.791   114932916.943       -1226.201          38.000  
  21736492.283   114226270.992       -1226.134          49.000  
  21873072.565   114943780.753       -1225.958          37.000  
  21574778.751   113376417.7102      -2226.091          35.000  
  21765807.491   114380394.914       -1226.290          39.000  
  21771082.558   114407827.414       -1226.233          39.000  
  21650926.692   113776446.992       -1226.287          37.000  
  21736460.390   114226069.609       -1226.084          49.000  
  21734448.396   114215313.772       -1226.155          35.000  
  21661770.792   113833397.513       -1226.096          38.000  
  21742067.689   114255348.026       -1226.143          40.000  
  21609030.637   113556246.313       -1225.996          37.000  
  21763506.075   114372369.588       -2225.963          39.000  
  21713936.338   114107522.520       -1226.200          40.000  
  21690784.412   113985860.456       -1226.136          39.000  
 25  8 12  8 57 27.6010000  0 26G 5G 1G 2G 3G 4G26G31G23G 7G15G30G22
                                G 6G12G18G32G21G28G 8G 9G25G19G16G11
                                G10G13
  21736495.743   114226360.447       -1226.200          49.000  
  21736545.740   114226272.233       -1226.168          49.000  
  21736639.196   114226536.515       -1226.180          49.000  
  21736654.188   114226473.639       -1226.136          49.000  
  21736530.409   114226294.691       -1226.151          49.000  
  21698741.114   114027681.715       -1226.045          39.000  
  21834723.918   114742261.646       -1226.204          37.000  
  21700794.871   114038453.726       -1226.176          37.000  
  21736660.980   114226785.745       -1226.162          46.000  
  21703723.744   114053827.728       -1226.105          38.000  
  21724531.023   114163188.262       -1226.119          40.000  
  21871056.440   114933162.183       -1226.228          38.000  
  21736538.919   114226516.231       -1226.171          49.000  
  21873119.142   114944026.000       -1226.112          37.000  
  21574826.766   113376862.9612      -2226.322          35.000  
  21765854.144   114380640.143       -1226.130          39.000  
  21771129.169   114408072.644       -1226.125          39.000  
  21650973.322   113776692.225       -1226.211          37.000  
  21736506.810   114226314.852       -1226.174          49.000  
  21734495.097   114215559.005       -1226.097          34.000  
  21661817.436   113833642.752       -1226.089          38.000  
  21742114.377   114255593.266       -1226.116          39.000  
  21609077.276   113556491.562       -1226.160          37.000  
  21763552.815   114372814.838       -2226.230          39.000  
  21713982.973   114107767.753       -1226.117          41.000  
  21690831.022   113986105.695       -1226.095          39.000  
 25  8 12  8 57 27.8010000  0 26G 5G 1G 2G 3G 4G26G31G23G 7G15G30G22
                                G 6G12G18G32G21G28G 8G 9G25G19G16G11
                                G10G13
  21736542.193   114226605.667       -1226.179          49.000  
  21736592.468   114226517.454       -1226.167          49.000  
  21736685.950   114226781.736       -1226.172          49.000  
  21736700.859   114226718.863       -1226.140          49.000  
  21736577.061   114226539.914       -1226.160          49.000  
  21698787.830   114027926.939       -1226.140          39.000  
  21834770.620   114742506.868       -1226.172          38.000  
  21700841.560   114038698.950       -1226.129          38.000  
  21736707.626   114227030.967       -1226.179          46.000  
  21703770.414   114054072.946       -1226.107          38.000  
  21724577.646   114163433.481       -1226.122          40.000  
  21871103.162   114933407.401       -1226.196          38.000  
  21736585.575   114226761.453       -1226.132          49.000  
  21873165.772   114944271.221       -1226.196          37.000  
  21574890.387   113377308.1852      -2226.182          35.000  
  21765900.790   114380885.366       -1226.146          39.000  
  21771175.849   114408317.865       -1226.140          39.000  
  21651019.991   113776937.446       -1226.088          37.000  
  21736553.342   114226560.075       -1226.184          49.000  
  21734541.744   114215804.229       -1226.180          34.000  
  21661864.104   113833887.977       -1226.139          38.000  
  21742161.075   114255838.489       -1226.132          39.000  
  21609123.918   113556736.781       -1226.141          37.000  
  21763611.028   114373260.054       -2226.222          39.000  
  21714029.630   114108012.972       -1226.104          41.000  
  21690877.717   113986350.922       -1226.171          39.000  
 25  8 12  8 57 28.0010000  0 26G 5G 1G 2G 3G 4G26G31G23G 7G15G30G22
                                G 6G12G18G32G21G28G 8G 9G25G19G16G11
                                G10G13
  21736588.530   114226850.862       -1225.865          49.000  
  21736639.082   114226762.649       -1225.870          49.000  
  21736732.743   114227026.930       -1225.879          49.000  
  21736747.515   114226964.057       -1225.859          49.000  
  21736623.663   114226785.108       -1225.885          49.000  
  21698834.439   114028172.133       -1225.836          39.000  
  21834817.314   114742752.062       -1225.914          38.000  
  21700888.262   114038944.147       -1225.918          38.000  
  21736754.288   114227276.160       -1225.839          46.000  
  21703817.075   114054318.146       -1225.864          38.000  
  21724624.321   114163678.679       -1225.884          40.000  
  21871149.799   114933652.593       -1225.831          38.000  
  21736632.218   114227006.649       -1225.890          49.000  
  21873212.359   114944516.416       -1225.941          37.000  
  21574952.908   113377753.3792      -2225.863          34.000  
  21765947.421   114381130.561       -1225.863          39.000  
  21771222.489   114408563.058       -1225.898          39.000  
  21651066.598   113777182.641       -1225.865          37.000  
  21736599.880   114226805.267       -1225.853          49.000  
  21734588.459   114216049.423       -1225.891          34.000  
  21661910.752   113834133.169       -1225.811          38.000  
  21742207.704   114256083.683       -1225.824          39.000  
  21609170.588   113556981.976       -1225.864          38.000  
  21763687.188   114373705.230       -2225.762          38.000  
  21714076.245   114108258.168       -1225.839          41.000  
  21690924.334   113986596.115       -1225.886          39.000  
 25  8 12  8 57 28.2010000  0 26G 5G 1G 2G 3G 4G26G31G23G 7G15G30G22
                                G 6G12G18G32G21G28G 8G 9G25G19G16G11
                                G10G13
  21736634.929   114227096.047       -1226.007          49.000  
  21736685.763   114227007.840       -1226.030          49.000  
  21736779.937   114227272.116       -1225.994          49.000  
  21736794.187   114227209.245       -1225.959          49.000  
  21736670.315   114227030.298       -1225.945          49.000  
  21698881.149   114028417.338       -1226.083          39.000  
  21834864.022   114742997.249       -1225.959          38.000  
  21700934.930   114039189.329       -1225.920          38.000  
  21736800.958   114227521.346       -1225.989          46.000  
  21703863.754   114054563.315       -1226.034          38.000  
  21724670.961   114163923.871       -1226.084          40.000  
  21871196.488   114933897.791       -1226.040          38.000  
  21736678.873   114227251.836       -1225.966          49.000  
  21873258.922   114944761.619       -1226.029          37.000  
  21575017.092   113378198.5522      -2226.122          34.000  
  21765994.097   114381375.757       -1226.036          39.000  
  21771269.124   114408808.253       -1226.064          39.000  
  21651113.224   113777427.845       -1226.042          37.000  
  21736646.380   114227050.452       -1225.994          49.000  
  21734635.111   114216294.613       -1225.933          34.000  
  21661957.406   113834378.363       -1225.955          38.000  
  21742254.374   114256328.881       -1226.018          39.000  
  21609217.238   113557227.172       -1225.925          38.000  
  21763770.573   114374150.418       -2225.924          38.000  
  21714122.877   114108503.359       -1226.041          41.000  
  21690971.015   113986841.308       -1226.042          39.000  
 25  8 12  8 57 28.4010000  0 26G 5G 1G 2G 3G 4G26G31G23G 7G15G30G22
                                G 6G12G18G32G21G28G 8G 9G25G19G16G11
                                G10G13
  21736681.295   114227341.261       -1226.146          49.000  
  21736732.388   114227253.051       -1226.134          49.000  
  21736827.261   114227517.329       -1226.121          49.000  
  21736840.852   114227454.457       -1226.075          49.000  
  21736716.973   114227275.512       -1226.107          49.000  
  21698927.785   114028662.543       -1226.150          39.000  
  21834910.682   114743242.462       -1226.147          37.000  
  21700981.591   114039434.548       -1226.226          37.000  
  21736847.630   114227766.562       -1226.158          46.000  
  21703910.404   114054808.528       -1226.055          38.000  
  21724717.682   114164169.077       -1226.082          40.000  
  21871243.080   114934143.003       -1226.193          38.000  
  21736725.523   114227497.049       -1226.088          49.000  
  21873305.521   114945006.825       -1226.082          38.000  
  21575083.825   113378643.7692      -2226.108          34.000  
  21766040.767   114381620.968       -1226.121          39.000  
  21771315.761   114409053.464       -1226.101          39.000  
  21651159.870   113777673.052       -1226.168          37.000  
  21736692.723   114227295.666       -1226.127          49.000  
  21734681.754   114216539.825       -1226.105          34.000  
  21662004.099   113834623.575       -1226.167          38.000  
  21742301.002   114256574.091       -1226.141          39.000  
  21609263.927   113557472.387       -1226.166          37.000  
  21763854.473   114374595.610       -2226.135          36.000  
  21714169.531   114108748.570       -1226.135          41.000  
  21691017.644   113987086.520       -1226.198          39.000  
 25  8 12  8 57 28.6010000  0 26G 5G 1G 2G 3G 4G26G31G23G 7G15G30G22
                                G 6G12G18G32G21G28G 8G 9G25G19G16G11
                                G10G13
  21736727.717   114227586.471       -1226.199          49.000  
  21736779.146   114227498.264       -1226.224          49.000  
  21736874.600   114227762.539       -1226.191          49.000  
  21736887.518   114227699.670       -1226.184          49.000  
  21736763.629   114227520.724       -1226.211          49.000  
  21698974.464   114028907.753       -1226.217          39.000  
  21834957.379   114743487.670       -1226.202          37.000  
  21701028.228   114039679.758       -1226.200          38.000  
  21736894.300   114228011.771       -1226.245          47.000  
  21703957.093   114055053.741       -1226.239          38.000  
  21724764.299   114164414.288       -1226.252          41.000  
  21871289.774   114934388.211       -1226.232          39.000  
  21736772.195   114227742.262       -1226.196          49.000  
  21873352.139   114945252.034       -1226.252          38.000  
  21575161.836   113379088.9832      -2226.125          34.000  
  21766087.427   114381866.179       -1226.217          39.000  
  21771362.416   114409298.676       -1226.229          39.000  
  21651206.571   113777918.271       -1226.257          37.000  
  21736739.129   114227540.880       -1226.223          49.000  
  21734728.427   114216785.037       -1226.279          34.000  
  21662050.756   113834868.787       -1226.219          38.000  
  21742347.707   114256819.307       -1226.211          39.000  
  21609310.630   113557717.594       -1226.227          37.000  
  21763939.822   114375040.788       -2226.022          36.000  
  21714216.127   114108993.778       -1226.218          41.000  
  21691064.330   113987331.727       -1226.179          39.000  
 25  8 12  8 57 28.8010000  0 26G 5G 1G 2G 3G 4G26G31G23G 7G15G30G22
                                G 6G12G18G32G21G28G 8G 9G25G19G16G11
                                G10G13
  21736774.073   114227831.703       -1226.221          49.000  
  21736825.819   114227743.494       -1226.243          49.000  
  21736921.798   114228007.771       -1226.268          49.000  
  21736934.189   114227944.902       -1226.248          49.000  
  21736810.265   114227765.956       -1226.267          49.000  
  21699021.111   114029152.986       -1226.293          39.000  
  21835004.081   114743732.904       -1226.193          37.000  
  21701074.902   114039924.988       -1226.217          38.000  
  21736940.985   114228257.003       -1226.221          47.000  
  21704003.801   114055298.974       -1226.281          38.000  
  21724811.036   114164659.523       -1226.322          41.000  
  21871336.434   114934633.441       -1226.223          39.000  
  21736818.836   114227987.493       -1226.261          49.000  
  21873398.733   114945497.265       -1226.223          38.000  
  21575245.484   113379534.2302      -2226.257          34.000  
  21766134.076   114382111.412       -1226.321          39.000  
  21771409.053   114409543.911       -1226.367          39.000  
  21651253.215   113778163.497       -1226.207          37.000  
  21736785.477   114227786.110       -1226.228          49.000  
  21734775.152   114217030.272       -1226.361          34.000  
  21662097.444   113835114.016       -1226.223          38.000  
  21742394.390   114257064.536       -1226.267          39.000  
  21609357.304   113557962.826       -1226.207          37.000  
  21764025.798   114375485.988       -2225.834          35.000  
  21714262.709   114109239.015       -1226.361          41.000  
  21691110.964   113987576.963       -1226.255          39.000  
 25  8 12  8 57 29.0010000  0 27G 5G 1G 2G 3G 4G26G31G23G 7G15G30G22
                                G 6G12G18G32G21G28G 8G 9G25G19G16G11
                                G24G10G13
  21736820.425   114228076.935       -1226.121          49.000  
  21736872.486   114227988.726       -1226.067          49.000  
  21736968.789   114228253.003       -1226.108          49.000  
  21736980.874   114228190.133       -1226.102          49.000  
  21736856.891   114228011.187       -1226.056          49.000  
  21699067.815   114029398.217       -1225.959          38.000  
  21835050.741   114743978.134       -1226.135          37.000  
  21701121.586   114040170.216       -1226.022          38.000  
  21736987.657   114228502.238       -1226.147          47.000  
  21704050.465   114055544.218       -1226.313          38.000  
  21724857.637   114164904.760       -1226.079          41.000  
  21871383.124   114934878.671       -1226.029          39.000  
  21736865.466   114228232.722       -1226.042          49.000  
  21873445.290   114945742.492       -1225.956          38.000  
  21575329.484   113379979.4712      -2226.131          34.000  
  21766180.740   114382356.640       -1226.017          39.000  
  21771455.716   114409789.142       -1226.021          39.000  
  21651299.917   113778408.724       -1225.935          37.000  
  21736831.957   114228031.343       -1226.128          49.000  
  21734821.833   114217275.508       -1226.205          34.000  
  21662144.103   113835359.250       -1226.135          38.000  
  21742441.049   114257309.762       -1225.989          39.000  
  21609403.900   113558208.047       -1226.027          37.000  
  21764119.866   114375931.168       -2225.792          32.000  
  21676514.977   113910854.7192      -1226.290          38.000  
  21714309.348   114109484.251       -1226.067          41.000  
  21691157.635   113987822.194       -1226.067          39.000  
 25  8 12  8 57 29.2010000  0 26G 5G 1G 2G 3G 4G26G31G23G 7G15G30G22
                                G 6G12G32G21G28G 8G 9G25G19G16G11G24
                                G10G13
  21736866.996   114228322.167       -1226.160          49.000  
  21736919.133   114228233.959       -1226.187          49.000  
  21737015.261   114228498.237       -1226.173          49.000  
  21737027.539   114228435.365       -1226.154          49.000  
  21736903.554   114228256.419       -1226.180          49.000  
  21699114.454   114029643.453       -1226.290          39.000  
  21835097.381   114744223.367       -1226.167          37.000  
  21701168.228   114040415.453       -1226.284          38.000  
  21737034.364   114228747.470       -1226.161          46.000  
  21704097.089   114055789.449       -1226.030          38.000  
  21724904.326   114165149.994       -1226.160          40.000  
  21871429.793   114935123.907       -1226.226          39.000  
  21736912.114   114228477.955       -1226.160          49.000  
  21873491.899   114945987.727       -1226.241          38.000  
  21766227.406   114382601.873       -1226.208          39.000  
  21771502.330   114410034.377       -1226.221          39.000  
  21651346.621   113778653.953       -1226.243          37.000  
  21736878.765   114228276.575       -1226.156          49.000  
  21734868.498   114217520.739       -1226.182          34.000  
  21662190.780   113835604.481       -1226.241          38.000  
  21742487.698   114257554.998       -1226.304          39.000  
  21609450.570   113558453.282       -1226.232          37.000  
  21764201.036   114376376.381       -2226.202          32.000  
  21676562.774   113911099.9532      -1226.122          38.000  
  21714356.005   114109729.487       -1226.206          41.000  
  21691204.246   113988067.427       -1226.219          39.000  
 25  8 12  8 57 29.4010000  0 26G 5G 1G 2G 3G 4G26G31G23G 7G15G30G22
                                G 6G12G32G21G28G 8G 9G25G19G16G11G24
                                G10G13
  21736913.533   114228567.383       -1226.107          49.000  
  21736965.827   114228479.173       -1226.095          49.000  
  21737061.757   114228743.452       -1226.095          49.000  
  21737074.216   114228680.580       -1226.083          49.000  
  21736950.201   114228501.633       -1226.069          49.000  
  21699161.162   114029888.665       -1226.149          39.000  
  21835144.064   114744468.583       -1226.122          38.000  
  21701214.910   114040660.662       -1226.053          38.000  
  21737080.989   114228992.687       -1226.108          46.000  
  21704143.776   114056034.671       -1226.147          38.000  
  21724950.969   114165395.210       -1226.140          40.000  
  21871476.487   114935369.118       -1226.069          38.000  
  21736958.755   114228723.171       -1226.089          49.000  
  21873538.505   114946232.940       -1226.093          37.000  
  21766274.089   114382847.089       -1226.082          39.000  
  21771549.002   114410279.590       -1226.095          39.000  
  21651393.294   113778899.164       -1226.096          37.000  
  21736925.580   114228521.791       -1226.082          49.000  
  21734915.180   114217765.955       -1226.129          34.000  
  21662237.449   113835849.694       -1226.107          38.000  
  21742534.342   114257800.208       -1226.116          39.000  
  21609497.159   113558698.492       -1226.068          38.000  
  21764276.849   114376821.596       -2226.111          31.000  
  21676609.232   113911345.1742      -1226.139          38.000  
  21714402.622   114109974.700       -1226.102          41.000  
  21691250.890   113988312.638       -1226.071          39.000  
 25  8 12  8 57 29.6010000  0 25G 5G 1G 2G 3G 4G26G31G23G 7G15G30G22
                                G 6G12G32G21G28G 8G 9G25G19G16G24G10
                                G13
  21736960.045   114228812.607       -1226.163          49.000  
  21737012.499   114228724.398       -1226.149          49.000  
  21737108.463   114228988.677       -1226.176          49.000  
  21737120.882   114228925.802       -1226.110          49.000  
  21736996.856   114228746.856       -1226.116          49.000  
  21699207.789   114030133.888       -1226.155          39.000  
  21835190.723   114744713.807       -1226.108          38.000  
  21701261.619   114040905.890       -1226.150          38.000  
  21737127.671   114229237.911       -1226.143          46.000  
  21704190.452   114056279.893       -1226.138          38.000  
  21724997.685   114165640.432       -1226.108          40.000  
  21871523.144   114935614.343       -1226.122          38.000  
  21737005.395   114228968.395       -1226.122          49.000  
  21873585.148   114946478.163       -1226.140          37.000  
  21766320.757   114383092.315       -1226.160          39.000  
  21771595.632   114410524.813       -1226.116          39.000  
  21651439.941   113779144.389       -1226.149          37.000  
  21736972.415   114228767.016       -1226.168          49.000  
  21734961.855   114218011.175       -1226.110          34.000  
  21662284.111   113836094.917       -1226.129          38.000  
  21742580.986   114258045.433       -1226.125          40.000  
  21609543.797   113558943.719       -1226.143          38.000  
  21676655.592   113911590.3982      -1226.261          38.000  
  21714449.265   114110219.925       -1226.202          41.000  
  21691297.496   113988557.866       -1226.208          39.000  
 25  8 12  8 57 29.8010000  0 25G 5G 1G 2G 3G 4G26G31G23G 7G15G30G22
                                G 6G12G32G21G28G 8G 9G25G19G16G24G10
                                G13
  21737006.725   114229057.831       -1226.102          49.000  
  21737059.214   114228969.621       -1226.151          49.000  
  21737155.166   114229233.899       -1226.097          49.000  
  21737167.556   114229171.026       -1226.111          49.000  
  21737043.522   114228992.079       -1226.110          49.000  
  21699254.479   114030379.108       -1226.278          39.000  
  21835237.437   114744959.030       -1226.056          38.000  
  21701308.325   114041151.112       -1226.157          38.000  
  21737174.354   114229483.136       -1226.182          46.000  
  21704237.112   114056525.119       -1226.249          38.000  
  21725044.352   114165885.658       -1226.400          40.000  
  21871569.848   114935859.568       -1226.182          38.000  
  21737052.054   114229213.618       -1226.130          49.000  
  21873631.732   114946723.388       -1226.213          37.000  
  21766367.468   114383337.537       -1226.244          39.000  
  21771642.344   114410770.042       -1226.375          39.000  
  21651486.645   113779389.612       -1226.171          37.000  
  21737019.142   114229012.240       -1226.123          49.000  
  21735008.502   114218256.399       -1226.359          34.000  
  21662330.770   113836340.142       -1226.118          38.000  
  21742627.659   114258290.659       -1226.217          39.000  
  21609590.460   113559188.943       -1226.023          38.000  
  21676701.881   113911835.6192      -1226.251          38.000  
  21714495.908   114110465.147       -1226.299          41.000  
  21691344.204   113988803.091       -1226.182          39.000  
 25  8 12  8 57 30.0010000  0 25G 5G 1G 2G 3G 4G26G31G23G 7G15G30G22
                                G 6G12G32G21G28G 8G 9G25G19G16G24G10
                                G13
  21737053.410   114229303.047       -1226.221          49.000  
  21737105.868   114229214.837       -1226.202          49.000  
  21737201.953   114229479.116       -1226.210          49.000  
  21737214.218   114229416.244       -1226.187          49.000  
  21737090.169   114229237.300       -1226.172          49.000  
  21699301.093   114030624.327       -1226.134          39.000  
  21835284.098   114745204.252       -1226.272          38.000  
  21701354.999   114041396.335       -1226.300          38.000  
  21737221.025   114229728.345       -1226.152          46.000  
  21704283.741   114056770.308       -1226.127          38.000  
  21725091.011   114166130.852       -1225.961          40.000  
  21871616.501   114936104.788       -1226.238          38.000  
  21737098.700   114229458.837       -1226.173          49.000  
  21873678.339   114946968.612       -1226.207          37.000  
  21766414.129   114383582.756       -1226.221          39.000  
  21771688.936   114411015.246       -1226.112          39.000  
  21651533.281   113779634.841       -1226.194          37.000  
  21737065.613   114229257.453       -1226.210          49.000  
  21735055.187   114218501.604       -1226.090          34.000  
  21662377.411   113836585.364       -1226.239          38.000  
  21742674.305   114258535.884       -1226.240          39.000  
  21609637.132   113559434.177       -1226.312          38.000  
  21676748.098   113912080.8162      -1226.149          38.000  
  21714542.556   114110710.350       -1226.056          41.000  
  21691390.805   113989048.307       -1226.232          39.000  
 25  8 12  8 57 30.2010000  0 25G 5G 1G 2G 3G 4G26G31G23G 7G15G30G22
                                G 6G12G32G21G28G 8G 9G25G19G16G24G10
                                G13
  21737100.069   114229548.264       -1225.940          49.000  
  21737152.489   114229460.055       -1225.920          49.000  
  21737248.760   114229724.332       -1225.907          49.000  
  21737260.889   114229661.461       -1225.956          49.000  
  21737136.811   114229482.517       -1225.962          49.000  
  21699347.802   114030869.544       -1225.852          39.000  
  21835330.780   114745449.468       -1226.012          37.000  
  21701401.664   114041641.548       -1225.935          38.000  
  21737267.687   114229973.566       -1225.945          47.000  
  21704330.393   114057015.535       -1225.924          38.000  
  21725137.633   114166376.080       -1225.824          40.000  
  21871663.151   114936350.004       -1225.974          38.000  
  21737145.331   114229704.054       -1225.940          49.000  
  21873724.951   114947213.829       -1225.977          38.000  
  21766460.774   114383827.972       -1225.887          39.000  
  21771735.603   114411260.470       -1225.912          39.000  
  21651579.960   113779880.055       -1225.895          37.000  
  21737111.921   114229502.671       -1225.940          49.000  
  21735101.879   114218746.824       -1225.818          34.000  
  21662424.105   113836830.580       -1225.973          38.000  
  21742720.966   114258781.098       -1225.981          39.000  
  21609683.794   113559679.385       -1225.968          38.000  
  21676795.221   113912326.0402      -1225.869          38.000  
  21714589.199   114110955.576       -1225.891          41.000  
  21691437.497   113989293.523       -1225.974          39.000  
 25  8 12  8 57 30.4010000  0 25G 5G 1G 2G 3G 4G26G31G23G 7G15G30G22
                                G 6G12G32G21G28G 8G 9G25G19G16G24G10
                                G13
  21737146.611   114229793.478       -1226.189          49.000  
  21737199.116   114229705.271       -1226.189          49.000  
  21737295.487   114229969.549       -1226.208          49.000  
  21737307.556   114229906.675       -1226.135          49.000  
  21737183.475   114229727.733       -1226.147          49.000  
  21699394.449   114031114.765       -1226.240          39.000  
  21835377.442   114745694.680       -1226.251          37.000  
  21701448.316   114041886.766       -1226.210          38.000  
  21737314.346   114230218.780       -1226.202          47.000  
  21704377.086   114057260.749       -1226.167          38.000  
  21725184.350   114166621.305       -1226.222          40.000  
  21871709.813   114936595.216       -1226.104          39.000  
  21737191.986   114229949.270       -1226.176          49.000  
  21873771.556   114947459.042       -1226.184          38.000  
  21766507.446   114384073.192       -1226.190          39.000  
  21771782.214   114411505.687       -1226.130          39.000  
  21651626.616   113780125.276       -1226.205          37.000  
  21737158.490   114229747.886       -1226.222          49.000  
  21735148.475   114218992.044       -1226.161          34.000  
  21662470.740   113837075.790       -1226.173          38.000  
  21742767.585   114259026.310       -1226.171          40.000  
  21609730.423   113559924.594       -1226.155          37.000  
  21676841.677   113912571.2582      -1226.273          38.000  
  21714635.850   114111200.795       -1226.199          41.000  
  21691484.113   113989538.735       -1226.136          39.000  
 25  8 12  8 57 30.6010000  0 25G 5G 1G 2G 3G 4G26G31G23G 7G15G30G22
                                G 6G12G32G21G28G 8G 9G25G19G16G24G10
                                G13
  21737193.004   114230038.691       -1226.036          49.000  
  21737245.756   114229950.482       -1226.038          49.000  
  21737342.388   114230214.760       -1225.996          49.000  
  21737354.227   114230151.886       -1225.997          49.000  
  21737230.113   114229972.943       -1225.985          49.000  
  21699441.148   114031359.970       -1225.946          39.000  
  21835424.114   114745939.895       -1226.108          37.000  
  21701494.990   114042131.975       -1226.029          38.000  
  21737361.010   114230463.994       -1226.049          47.000  
  21704423.740   114057505.956       -1225.869          38.000  
  21725230.971   114166866.506       -1225.894          40.000  
  21871756.474   114936840.430       -1225.961          39.000  
  21737238.618   114230194.479       -1225.964          49.000  
  21873818.143   114947704.255       -1226.003          38.000  
  21766554.114   114384318.400       -1225.985          39.000  
  21771828.887   114411750.892       -1225.864          39.000  
  21651673.264   113780370.483       -1226.012          37.000  
  21737204.976   114229993.097       -1226.024          49.000  
  21735195.157   114219237.246       -1225.846          34.000  
  21662517.421   113837321.006       -1226.083          38.000  
  21742814.241   114259271.524       -1226.003          40.000  
  21609777.067   113560169.814       -1226.045          37.000  
  21676888.667   113912816.4662      -1226.051          38.000  
  21714682.482   114111445.998       -1225.858          41.000  
  21691530.789   113989783.950       -1226.050          39.000  
 25  8 12  8 57 30.8010000  0 25G 5G 1G 2G 3G 4G26G31G23G 7G15G30G22
                                G 6G12G32G21G28G 8G 9G25G19G16G24G10
                                G13
  21737239.405   114230283.904       -1226.182          49.000  
  21737292.422   114230195.696       -1226.213          49.000  
  21737388.958   114230459.980       -1226.285          49.000  
  21737400.891   114230397.100       -1226.133          49.000  
  21737276.774   114230218.157       -1226.111          49.000  
  21699487.768   114031605.184       -1226.078          38.000  
  21835470.754   114746185.107       -1226.199          37.000  
  21701541.649   114042377.182       -1226.078          38.000  
  21737407.718   114230709.211       -1226.285          47.000  
  21704470.437   114057751.203       -1226.713          38.000  
  21725277.672   114167111.740       -1226.461          40.000  
  21871803.127   114937085.655       -1226.357          39.000  
  21737285.283   114230439.695       -1226.172          49.000  
  21873864.751   114947949.467       -1226.125          38.000  
  21766600.765   114384563.612       -1226.099          39.000  
  21771875.526   114411996.111       -1226.171          39.000  
  21651719.921   113780615.705       -1226.282          37.000  
  21737251.669   114230238.312       -1226.221          49.000  
  21735241.789   114219482.473       -1226.208          34.000  
  21662564.086   113837566.213       -1226.116          38.000  
  21742860.901   114259516.730       -1226.012          40.000  
  21609823.714   113560415.025       -1226.147          37.000  
  21676935.141   113913061.6902      -1226.379          38.000  
  21714729.123   114111691.224       -1226.248          41.000  
  21691577.416   113990029.155       -1226.008          39.000  
 25  8 12  8 57 31.0010000  0 25G 5G 1G 2G 3G 4G26G31G23G 7G15G30G22
                                G 6G12G32G21G28G 8G 9G25G19G16G24G10
                                G13
  21737285.956   114230529.089       -1225.789          49.000  
  21737339.077   114230440.882       -1225.781          49.000  
  21737434.819   114230705.162       -1225.743          49.000  
  21737447.552   114230642.287       -1225.787          49.000  
  21737323.418   114230463.342       -1225.802          49.000  
  21699534.445   114031850.368       -1225.942          39.000  
  21835517.406   114746430.292       -1225.717          38.000  
  21701588.268   114042622.361       -1225.894          38.000  
  21737454.323   114230954.398       -1225.774          47.000  
  21704517.074   114057996.388       -1225.547          38.000  
  21725324.295   114167356.928       -1225.818          40.000  
  21871849.793   114937330.837       -1225.724          38.000  
  21737331.934   114230684.882       -1225.787          49.000  
  21873911.370   114948194.654       -1225.889          38.000  
  21766647.412   114384808.797       -1225.922          39.000  
  21771922.181   114412241.300       -1225.886          39.000  
  21651766.583   113780860.888       -1225.796          37.000  
  21737298.454   114230483.497       -1225.757          49.000  
  21735288.432   114219727.671       -1225.975          34.000  
  21662610.693   113837811.399       -1225.787          38.000  
  21742907.579   114259761.915       -1225.930          39.000  
  21609870.344   113560660.207       -1225.782          37.000  
  21676981.979   113913306.8772      -1225.685          38.000  
  21714775.763   114111936.411       -1225.851          41.000  
  21691624.096   113990274.342       -1225.854          39.000  
 25  8 12  8 57 31.2010000  0 25G 5G 1G 2G 3G 4G26G31G23G 7G15G30G22
                                G 6G12G32G21G28G 8G 9G25G19G16G24G10
                                G13
  21737332.515   114230774.282       -1226.033          49.000  
  21737385.734   114230686.074       -1226.028          49.000  
  21737480.709   114230950.359       -1226.024          49.000  
  21737494.230   114230887.480       -1225.967          49.000  
  21737370.094   114230708.533       -1225.988          49.000  
  21699581.084   114032095.556       -1226.116          39.000  
  21835564.080   114746675.489       -1226.003          38.000  
  21701634.956   114042867.551       -1226.029          38.000  
  21737500.971   114231199.590       -1225.994          47.000  
  21704563.746   114058241.593       -1226.022          38.000  
  21725371.005   114167602.114       -1226.051          40.000  
  21871896.430   114937576.031       -1225.988          38.000  
  21737378.622   114230930.074       -1226.001          49.000  
  21873957.971   114948439.846       -1226.107          37.000  
  21766694.070   114385053.982       -1226.052          39.000  
  21771968.793   114412486.478       -1225.980          39.000  
  21651813.233   113781106.082       -1226.055          37.000  
  21737345.207   114230728.692       -1226.031          49.000  
  21735335.066   114219972.846       -1226.062          34.000  
  21662657.337   113838056.593       -1226.018          38.000  
  21742954.239   114260007.099       -1226.012          39.000  
  21609917.016   113560905.401       -1225.833          37.000  
  21677028.483   113913552.0752      -1226.030          38.000  
  21714822.379   114112181.598       -1226.051          41.000  
  21691670.730   113990519.533       -1225.991          39.000  
 25  8 12  8 57 31.4010000  0 25G 5G 1G 2G 3G 4G26G31G23G 7G15G30G22
                                G 6G12G32G21G28G 8G 9G25G19G16G24G10
                                G13
  21737379.159   114231019.479       -1225.961          49.000  
  21737432.374   114230931.270       -1225.917          49.000  
  21737526.764   114231195.555       -1225.955          49.000  
  21737540.902   114231132.678       -1225.916          49.000  
  21737416.732   114230953.731       -1225.948          49.000  
  21699627.770   114032340.750       -1225.950          39.000  
  21835610.756   114746920.685       -1225.980          38.000  
  21701681.662   114043112.747       -1225.948          38.000  
  21737547.625   114231444.788       -1225.974          47.000  
  21704610.405   114058486.789       -1226.041          38.000  
  21725417.621   114167847.313       -1225.928          41.000  
  21871943.120   114937821.227       -1225.916          38.000  
  21737425.268   114231175.271       -1225.923          49.000  
  21874004.592   114948685.044       -1225.955          37.000  
  21766740.751   114385299.180       -1225.936          39.000  
  21772015.445   114412731.682       -1225.990          39.000  
  21651859.959   113781351.277       -1225.972          37.000  
  21737391.952   114230973.887       -1225.948          49.000  
  21735381.750   114220218.046       -1225.995          34.000  
  21662703.975   113838301.789       -1225.967          38.000  
  21743000.859   114260252.295       -1225.919          39.000  
  21609963.688   113561150.603       -1225.951          37.000  
  21677075.122   113913797.270       -1225.997          38.000  
  21714869.037   114112426.796       -1225.957          41.000  
  21691717.394   113990764.730       -1225.923          39.000  
 25  8 12  8 57 31.6010000  0 25G 5G 1G 2G 3G 4G26G31G23G 7G15G30G22
                                G 6G12G32G21G28G 8G 9G25G19G16G24G10
                                G13
  21737425.782   114231264.670       -1226.100          49.000  
  21737478.991   114231176.463       -1226.091          49.000  
  21737572.895   114231440.747       -1226.100          49.000  
  21737587.566   114231377.869       -1226.031          49.000  
  21737463.386   114231198.923       -1226.066          49.000  
  21699674.380   114032585.945       -1226.113          39.000  
  21835657.455   114747165.875       -1226.022          38.000  
  21701728.292   114043357.945       -1226.143          38.000  
  21737594.297   114231689.979       -1226.091          47.000  
  21704657.094   114058731.980       -1226.099          38.000  
  21725464.298   114168092.514       -1226.184          40.000  
  21871989.749   114938066.424       -1226.151          38.000  
  21737471.927   114231420.463       -1226.052          49.000  
  21874051.185   114948930.231       -1226.101          37.000  
  21766787.444   114385544.374       -1226.115          39.000  
  21772062.023   114412976.879       -1226.119          39.000  
  21651906.647   113781596.475       -1226.128          37.000  
  21737438.766   114231219.079       -1226.091          49.000  
  21735428.420   114220463.245       -1226.152          34.000  
  21662750.622   113838546.976       -1226.041          38.000  
  21743047.548   114260497.491       -1226.056          39.000  
  21610010.344   113561395.786       -1226.040          37.000  
  21677121.685   113914042.458       -1226.035          38.000  
  21714915.668   114112671.992       -1226.125          41.000  
  21691764.037   113991009.920       -1226.019          39.000  
 25  8 12  8 57 31.8010000  0 25G 5G 1G 2G 3G 4G26G31G23G 7G15G30G22
                                G 6G12G32G21G28G 8G 9G25G19G16G24G10
                                G13
  21737472.611   114231509.855       -1225.938          49.000  
  21737525.651   114231421.649       -1226.005          49.000  
  21737619.461   114231685.933       -1225.990          49.000  
  21737634.225   114231623.067       -1226.051          49.000  
  21737510.028   114231444.116       -1226.033          49.000  
  21699721.067   114032831.177       -1226.218          39.000  
  21835704.119   114747411.084       -1225.953          38.000  
  21701774.888   114043603.122       -1225.990          38.000  
  21737640.929   114231935.171       -1226.008          46.000  
  21704703.751   114058977.158       -1226.112          38.000  
  21725510.953   114168337.692       -1226.229          41.000  
  21872036.413   114938311.619       -1226.031          38.000  
  21737518.557   114231665.658       -1226.058          49.000  
  21874097.760   114949175.428       -1225.999          37.000  
  21766834.092   114385789.563       -1226.116          39.000  
  21772108.697   114413222.068       -1226.240          39.000  
  21651953.327   113781841.684       -1226.132          37.000  
  21737485.395   114231464.264       -1226.013          49.000  
  21735475.075   114220708.437       -1226.183          34.000  
  21662797.291   113838792.182       -1225.878          38.000  
  21743094.216   114260742.697       -1226.125          39.000  
  21610057.009   113561640.965       -1225.786          37.000  
  21677168.308   113914287.610       -1225.850          38.000  
  21714962.320   114112917.181       -1226.235          41.000  
  21691810.730   113991255.119       -1226.011          39.000  
 25  8 12  8 57 32.0010000  0 25G 5G 1G 2G 3G 4G26G31G23G 7G15G30G22
                                G 6G12G32G21G28G 8G 9G25G19G16G24G10
                                G13
  21737519.435   114231755.036       -1225.781          49.000  
  21737572.275   114231666.828       -1225.795          49.000  
  21737666.176   114231931.113       -1225.822          49.000  
  21737680.877   114231868.243       -1225.835          49.000  
  21737556.643   114231689.294       -1225.856          49.000  
  21699767.700   114033076.343       -1225.923          38.000  
  21835750.778   114747656.262       -1225.925          38.000  
  21701821.589   114043848.302       -1225.763          38.000  
  21737687.590   114232180.351       -1225.822          47.000  
  21704750.434   114059222.337       -1225.786          38.000  
  21725557.665   114168582.872       -1225.784          41.000  
  21872083.049   114938556.802       -1225.934          38.000  
  21737565.172   114231910.835       -1225.826          49.000  
  21874144.360   114949420.601       -1225.763          38.000  
  21766880.794   114386034.742       -1225.868          39.000  
  21772155.332   114413467.245       -1225.831          39.000  
  21651999.962   113782086.855       -1225.903          37.000  
  21737532.057   114231709.443       -1225.775          49.000  
  21735521.759   114220953.614       -1225.811          34.000  
  21662843.949   113839037.361       -1225.897          38.000  
  21743140.862   114260987.870       -1225.817          39.000  
  21610103.675   113561886.155       -1225.856          37.000  
  21677214.908   113914532.798       -1225.698          38.000  
  21715008.954   114113162.359       -1225.875          41.000  
  21691857.375   113991500.293       -1225.791          39.000  
 25  8 12  8 57 32.2010000  0 25G 5G 1G 2G 3G 4G26G31G23G 7G15G30G22
                                G 6G12G32G21G28G 8G 9G25G19G16G24G10
                                G13
  21737566.211   114232000.236       -1226.055          49.000  
  21737618.962   114231912.028       -1226.060          49.000  
  21737712.718   114232176.314       -1226.080          49.000  
  21737727.540   114232113.441       -1226.017          49.000  
  21737603.295   114231934.491       -1226.030          49.000  
  21699814.398   114033321.538       -1226.012          38.000  
  21835797.449   114747901.458       -1226.010          38.000  
  21701868.261   114044093.502       -1226.028          38.000  
  21737734.277   114232425.550       -1226.069          47.000  
  21704797.065   114059467.541       -1226.162          38.000  
  21725604.337   114168828.073       -1226.122          41.000  
  21872129.655   114938801.995       -1226.064          39.000  
  21737611.837   114232156.033       -1226.010          49.000  
  21874190.928   114949665.803       -1226.022          38.000  
  21766927.422   114386279.938       -1226.030          39.000  
  21772202.032   114413712.444       -1226.116          39.000  
  21652046.664   113782332.054       -1226.055          37.000  
  21737578.782   114231954.646       -1226.067          49.000  
  21735568.406   114221198.811       -1226.096          34.000  
  21662890.598   113839282.557       -1225.990          38.000  
  21743187.508   114261233.073       -1226.024          39.000  
  21610150.293   113562131.356       -1226.082          37.000  
  21677261.437   113914778.002       -1226.100          39.000  
  21715055.576   114113407.554       -1226.050          41.000  
  21691904.063   113991745.494       -1226.042          39.000  
 25  8 12  8 57 32.4010000  0 25G 5G 1G 2G 3G 4G26G31G23G 7G15G30G22
                                G 6G12G32G21G28G 8G 9G25G19G16G24G10
                                G13
  21737612.993   114232245.428       -1226.079          49.000  
  21737665.647   114232157.218       -1226.082          49.000  
  21737759.202   114232421.504       -1226.122          49.000  
  21737774.196   114232358.634       -1226.073          49.000  
  21737649.936   114232179.685       -1226.086          49.000  
  21699861.021   114033566.729       -1226.073          38.000  
  21835844.084   114748146.652       -1226.058          38.000  
  21701914.896   114044338.694       -1226.107          38.000  
  21737780.961   114232670.742       -1226.086          47.000  
  21704843.732   114059712.724       -1226.023          38.000  
  21725650.996   114169073.257       -1226.117          41.000  
  21872176.316   114939047.186       -1226.035          39.000  
  21737658.495   114232401.226       -1226.079          49.000  
  21874237.535   114949910.995       -1226.088          38.000  
  21766974.095   114386525.127       -1226.040          39.000  
  21772248.627   114413957.626       -1226.085          39.000  
  21652093.309   113782577.246       -1226.133          37.000  
  21737625.449   114232199.837       -1226.101          49.000  
  21735615.081   114221443.993       -1226.035          35.000  
  21662937.253   113839527.756       -1226.091          38.000  
  21743234.190   114261478.263       -1226.147          39.000  
  21610196.922   113562376.546       -1225.990          37.000  
  21677307.998   113915023.195       -1226.118          39.000  
  21715102.242   114113652.738       -1226.057          41.000  
  21691950.704   113991990.689       -1226.145          39.000  
 25  8 12  8 57 32.6010000  0 25G 5G 1G 2G 3G 4G26G31G23G 7G15G30G22
                                G 6G12G32G21G28G 8G 9G25G19G16G24G10
                                G13
  21737659.682   114232490.643       -1226.042          49.000  
  21737712.315   114232402.435       -1226.049          49.000  
  21737805.633   114232666.716       -1225.990          49.000  
  21737820.874   114232603.844       -1225.958          49.000  
  21737696.573   114232424.895       -1225.948          49.000  
  21699907.715   114033811.924       -1225.624          38.000  
  21835890.776   114748391.851       -1225.762          38.000  
  21701961.571   114044583.913       -1226.104          38.000  
  21737827.616   114232915.953       -1225.984          47.000  
  21704890.400   114059957.952       -1226.179          38.000  
  21725697.645   114169318.483       -1226.117          41.000  
  21872222.969   114939292.394       -1225.854          39.000  
  21737705.115   114232646.438       -1225.983          49.000  
  21874284.153   114950156.204       -1225.931          38.000  
  21767020.747   114386770.342       -1225.956          39.000  
  21772295.324   114414202.847       -1225.957          39.000  
  21652139.959   113782822.445       -1225.710          37.000  
  21737672.056   114232445.052       -1226.049          49.000  
  21735661.752   114221689.213       -1225.850          35.000  
  21662983.911   113839772.954       -1225.848          38.000  
  21743280.835   114261723.470       -1225.842          39.000  
  21610243.566   113562621.764       -1226.119          37.000  
  21677354.646   113915268.426       -1226.423          39.000  
  21715148.861   114113897.964       -1226.035          41.000  
  21691997.354   113992235.894       -1225.974          39.000  
 25  8 12  8 57 32.8010000  0 25G 5G 1G 2G 3G 4G26G31G23G 7G15G30G22
                                G 6G12G32G21G28G 8G 9G25G19G16G24G10
                                G13
  21737706.219   114232735.843       -1226.025          49.000  
  21737758.965   114232647.635       -1226.017          49.000  
  21737851.732   114232911.918       -1226.017          49.000  
  21737867.536   114232849.043       -1226.010          49.000  
  21737743.196   114232670.095       -1226.036          49.000  
  21699954.373   114034057.130       -1226.343          38.000  
  21835937.414   114748637.051       -1226.110          38.000  
  21702008.279   114044829.116       -1226.017          38.000  
  21737874.280   114233161.152       -1226.023          46.000  
  21704937.089   114060203.149       -1225.919          38.000  
  21725744.338   114169563.684       -1226.066          41.000  
  21872269.621   114939537.595       -1226.095          39.000  
  21737751.742   114232891.639       -1226.031          49.000  
  21874330.746   114950401.406       -1226.111          38.000  
  21767067.453   114387015.552       -1226.100          39.000  
  21772341.941   114414448.054       -1226.060          39.000  
  21652186.641   113783067.652       -1226.222          37.000  
  21737718.842   114232690.252       -1226.039          49.000  
  21735708.445   114221934.421       -1226.243          34.000  
  21663030.603   113840018.155       -1226.156          38.000  
  21743327.484   114261968.671       -1226.155          39.000  
  21610290.225   113562866.965       -1225.941          37.000  
  21677401.231   113915513.623       -1225.771          39.000  
  21715195.524   114114143.166       -1226.100          41.000  
  21692043.994   113992481.093       -1225.985          39.000  
 25  8 12  8 57 33.0010000  0 25G 5G 1G 2G 3G 4G26G31G23G 7G15G30G22
                                G 6G12G32G21G28G 8G 9G25G19G16G24G10
                                G13
  21737752.911   114232981.055       -1226.084          49.000  
  21737805.574   114232892.845       -1226.073          49.000  
  21737897.905   114233157.132       -1226.124          49.000  
  21737914.192   114233094.254       -1226.106          49.000  
  21737789.833   114232915.305       -1226.060          49.000  
  21700001.039   114034302.319       -1225.970          38.000  
  21835984.060   114748882.263       -1226.144          38.000  
  21702054.952   114045074.328       -1226.104          38.000  
  21737920.929   114233406.363       -1226.099          46.000  
  21704983.716   114060448.363       -1226.057          38.000  
  21725790.951   114169808.883       -1225.942          41.000  
  21872316.280   114939782.799       -1225.980          38.000  
  21737798.376   114233136.849       -1226.079          49.000  
  21874377.312   114950646.616       -1226.144          38.000  
  21767114.091   114387260.747       -1225.903          39.000  
  21772388.603   114414693.246       -1225.850          39.000  
  21652233.309   113783312.853       -1226.102          37.000  
  21737765.564   114232935.463       -1226.063          49.000  
  21735755.087   114222179.605       -1225.771          34.000  
  21663077.247   113840263.362       -1226.105          38.000  
  21743374.122   114262213.870       -1225.985          39.000  
  21610336.864   113563112.190       -1226.252          37.000  
  21677447.792   113915758.848       -1226.094          38.000  
  21715242.123   114114388.364       -1225.922          41.000  
  21692090.611   113992726.309       -1226.158          39.000  
 25  8 12  8 57 33.2010000  0 25G 5G 1G 2G 3G 4G26G31G23G 7G15G30G22
                                G 6G12G32G21G28G 8G 9G25G19G16G24G10
                                G13
  21737799.581   114233226.267       -1226.062          49.000  
  21737852.225   114233138.058       -1226.014          49.000  
  21737944.138   114233402.342       -1226.023          49.000  
  21737960.861   114233339.466       -1225.996          49.000  
  21737836.455   114233160.518       -1225.996          49.000  
  21700047.725   114034547.542       -1225.996          39.000  
  21836030.726   114749127.471       -1226.058          38.000  
  21702101.634   114045319.538       -1225.991          38.000  
  21737967.589   114233651.575       -1226.041          46.000  
  21705030.429   114060693.577       -1226.022          38.000  
  21725837.646   114170054.106       -1225.962          41.000  
  21872362.976   114940028.017       -1226.035          38.000  
  21737845.009   114233382.060       -1226.008          49.000  
  21874423.899   114950891.824       -1226.038          38.000  
  21767160.829   114387505.969       -1225.994          39.000  
  21772435.205   114414938.476       -1226.036          39.000  
  21652279.973   113783558.067       -1225.967          37.000  
  21737812.402   114233180.676       -1226.064          49.000  
  21735801.724   114222424.841       -1226.005          34.000  
  21663123.922   113840508.574       -1226.056          38.000  
  21743420.792   114262459.089       -1226.012          39.000  
  21610383.464   113563357.390       -1226.053          37.000  
  21677494.445   113916004.057       -1226.019          38.000  
  21715288.768   114114633.588       -1226.011          41.000  
  21692137.276   113992971.518       -1226.064          39.000  
 25  8 12  8 57 33.4010000  0 25G 5G 1G 2G 3G 4G26G31G23G 7G15G30G22
                                G 6G12G32G21G28G 8G 9G25G19G16G24G10
                                G13
  21737846.244   114233471.486       -1226.237          49.000  
  21737898.856   114233383.280       -1226.315          49.000  
  21737990.472   114233647.562       -1226.274          49.000  
  21738007.530   114233584.688       -1226.262          49.000  
  21737883.145   114233405.740       -1226.281          49.000  
  21700094.418   114034792.762       -1226.401          39.000  
  21836077.378   114749372.691       -1226.211          38.000  
  21702148.300   114045564.762       -1226.287          38.000  
  21738014.269   114233896.797       -1226.288          46.000  
  21705077.103   114060938.800       -1226.312          38.000  
  21725884.322   114170299.332       -1226.444          41.000  
  21872409.640   114940273.241       -1226.326          38.000  
  21737891.694   114233627.282       -1226.246          49.000  
  21874470.471   114951137.044       -1226.221          38.000  
  21767207.497   114387751.192       -1226.340          39.000  
  21772481.864   114415183.697       -1226.378          39.000  
  21652326.626   113783803.290       -1226.365          37.000  
  21737859.113   114233425.895       -1226.237          49.000  
  21735848.359   114222670.058       -1226.440          34.000  
  21663170.570   113840753.793       -1226.249          38.000  
  21743467.447   114262704.310       -1226.281          39.000  
  21610430.136   113563602.613       -1226.234          37.000  
  21677541.087   113916249.276       -1226.150          38.000  
  21715335.401   114114878.812       -1226.426          41.000  
  21692183.919   113993216.735       -1226.237          39.000  
 25  8 12  8 57 33.6010000  0 25G 5G 1G 2G 3G 4G26G31G23G 7G15G30G22
                                G 6G12G32G21G28G 8G 9G25G19G16G24G10
                                G13
  21737893.250   114233716.668       -1225.948          49.000  
  21737945.518   114233628.456       -1225.902          49.000  
  21738036.591   114233892.745       -1225.952          49.000  
  21738054.198   114233829.869       -1226.000          49.000  
  21737929.800   114233650.925       -1225.969          49.000  
  21700141.016   114035037.926       -1225.929          39.000  
  21836124.025   114749617.869       -1226.021          38.000  
  21702194.969   114045809.916       -1225.970          38.000  
  21738060.928   114234141.981       -1225.950          46.000  
  21705123.812   114061183.985       -1226.016          38.000  
  21725930.988   114170544.512       -1225.927          41.000  
  21872456.294   114940518.429       -1225.988          38.000  
  21737938.348   114233872.473       -1225.992          49.000  
  21874517.078   114951382.250       -1225.942          38.000  
  21767254.157   114387996.379       -1225.927          39.000  
  21772528.496   114415428.870       -1225.822          39.000  
  21652373.265   113784048.472       -1226.040          37.000  
  21737905.719   114233671.077       -1225.974          49.000  
  21735894.994   114222915.175       -1225.500          34.000  
  21663217.211   113840998.999       -1226.018          38.000  
  21743514.115   114262949.478       -1225.922          39.000  
  21610476.779   113563847.805       -1226.042          37.000  
  21677587.728   113916494.458       -1225.922          38.000  
  21715382.062   114115123.991       -1225.896          41.000  
  21692230.568   113993461.920       -1225.933          39.000  
 25  8 12  8 57 33.8010000  0 26G 5G 1G 2G 3G 4G26G31G23G 7G15G30G22
                                G 6G20G12G32G21G28G 8G 9G25G19G16G24
                                G10G13
  21737940.641   114233961.890       -1226.093          49.000  
  21737992.195   114233873.677       -1226.082          49.000  
  21738082.549   114234137.963       -1226.102          49.000  
  21738100.867   114234075.086       -1226.138          49.000  
  21737976.458   114233896.142       -1226.104          49.000  
  21700187.687   114035283.145       -1226.063          39.000  
  21836170.709   114749863.087       -1226.095          38.000  
  21702241.633   114046055.139       -1226.021          38.000  
  21738107.575   114234387.199       -1226.110          46.000  
  21705170.398   114061429.202       -1226.085          38.000  
  21725977.682   114170789.728       -1226.139          41.000  
  21872502.934   114940763.644       -1226.151          38.000  
  21737985.011   114234117.688       -1226.130          49.000  
  21872817.306   114942430.5192      -2226.139          38.000  
  21874563.675   114951627.463       -1226.193          38.000  
  21767300.810   114388241.592       -1226.151          39.000  
  21772575.170   114415674.090       -1226.190          39.000  
  21652419.927   113784293.690       -1226.099          36.000  
  21737952.213   114233916.298       -1226.101          49.000  
  21735941.682   114223160.405       -1225.916          34.000  
  21663263.899   113841244.214       -1226.176          38.000  
  21743560.781   114263194.700       -1226.108          39.000  
  21610523.457   113564093.025       -1226.101          37.000  
  21677634.287   113916739.680       -1226.116          38.000  
  21715428.711   114115369.209       -1226.100          41.000  
  21692277.215   113993707.138       -1226.068          40.000  
 25  8 12  8 57 34.0010000  0 26G 5G 1G 2G 3G 4G26G31G23G 7G15G30G22
                                G 6G20G12G32G21G28G 8G 9G25G19G16G24
                                G10G13
  21737987.972   114234207.095       -1226.107          49.000  
  21738038.848   114234118.883       -1226.119          49.000  
  21738128.612   114234383.168       -1226.079          49.000  
  21738147.527   114234320.291       -1226.046          49.000  
  21738023.130   114234141.347       -1226.060          49.000  
  21700234.348   114035528.350       -1226.113          39.000  
  21836217.389   114750108.296       -1226.051          38.000  
  21702288.284   114046300.343       -1226.095          38.000  
  21738154.224   114234632.405       -1226.125          46.000  
  21705217.097   114061674.408       -1226.093          38.000  
  21726024.335   114171034.931       -1226.083          41.000  
  21872549.611   114941008.849       -1226.046          38.000  
  21738031.669   114234362.892       -1226.060          49.000  
  21872866.094   114942875.7202      -2226.068          38.000  
  21874610.285   114951872.668       -1226.061          38.000  
  21767347.471   114388486.795       -1226.068          38.000  
  21772621.808   114415919.297       -1226.091          39.000  
  21652466.649   113784538.894       -1226.080          36.000  
  21737998.861   114234161.503       -1226.107          49.000  
  21735988.309   114223405.620       -1226.284          34.000  
  21663310.562   113841489.417       -1226.053          38.000  
  21743607.462   114263439.906       -1226.115          39.000  
  21610570.142   113564338.232       -1226.127          37.000  
  21677680.852   113916984.883       -1226.079          38.000  
  21715475.357   114115614.417       -1226.100          41.000  
  21692323.865   113993952.347       -1226.111          40.000  
 25  8 12  8 57 34.2010000  0 26G 5G 1G 2G 3G 4G26G31G23G 7G15G30G22
                                G 6G20G12G32G21G28G 8G 9G25G19G16G24
                                G10G13
  21738035.127   114234452.315       -1226.093          49.000  
  21738085.487   114234364.103       -1226.079          49.000  
  21738174.670   114234628.389       -1226.085          49.000  
  21738194.199   114234565.513       -1226.078          49.000  
  21738069.774   114234386.568       -1226.073          49.000  
  21700281.008   114035773.576       -1226.110          38.000  
  21836264.080   114750353.518       -1226.123          38.000  
  21702334.948   114046545.565       -1226.072          38.000  
  21738200.883   114234877.626       -1226.106          46.000  
  21705263.710   114061919.628       -1226.093          38.000  
  21726071.035   114171280.158       -1226.165          41.000  
  21872596.255   114941254.068       -1226.093          38.000  
  21738078.320   114234608.113       -1226.073          49.000  
  21872914.708   114943320.9412      -2225.986          38.000  
  21874656.877   114952117.890       -1226.052          38.000  
  21767394.123   114388732.021       -1226.125          38.000  
  21772668.474   114416164.523       -1226.144          39.000  
  21652513.319   113784784.111       -1226.061          36.000  
  21738045.484   114234406.722       -1226.073          49.000  
  21736034.970   114223650.843       -1226.132          34.000  
  21663357.200   113841734.636       -1226.039          38.000  
  21743654.138   114263685.129       -1226.099          39.000  
  21610616.813   113564583.447       -1226.029          37.000  
  21677727.462   113917230.106       -1225.996          38.000  
  21715522.013   114115859.641       -1226.091          41.000  
  21692370.514   113994197.562       -1226.055          40.000  
 25  8 12  8 57 34.4010000  0 26G 5G 1G 2G 3G 4G26G31G23G 7G15G30G22
                                G 6G20G12G32G21G28G 8G 9G25G19G16G24
                                G10G13
  21738082.114   114234697.528       -1226.090          49.000  
  21738132.188   114234609.319       -1226.130          49.000  
  21738221.017   114234873.605       -1226.157          49.000  
  21738240.871   114234810.727       -1226.090          49.000  
  21738116.416   114234631.783       -1226.117          49.000  
  21700327.624   114036018.800       -1226.375          38.000  
  21836310.747   114750598.743       -1226.315          38.000  
  21702381.547   114046790.793       -1226.383          38.000  
  21738247.547   114235122.841       -1226.135          46.000  
  21705310.400   114062164.825       -1225.763          38.000  
  21726117.669   114171525.365       -1226.031          41.000  
  21872642.940   114941499.278       -1225.995          38.000  
  21738124.980   114234853.323       -1225.991          49.000  
  21872962.004   114943766.1502      -2225.931          38.000  
  21874703.489   114952363.090       -1225.769          38.000  
  21767440.830   114388977.234       -1226.118          38.000  
  21772715.152   114416409.724       -1225.887          39.000  
  21652559.996   113785029.338       -1226.381          36.000  
  21738092.192   114234651.939       -1226.136          49.000  
  21736081.606   114223896.086       -1226.702          34.000  
  21663403.872   113841979.849       -1226.014          38.000  
  21743700.787   114263930.354       -1226.361          39.000  
  21610663.479   113564828.668       -1226.078          37.000  
  21677774.015   113917475.314       -1225.914          38.000  
  21715568.670   114116104.841       -1225.851          41.000  
  21692417.174   113994442.780       -1226.129          40.000  
 25  8 12  8 57 34.6010000  0 26G 5G 1G 2G 3G 4G26G31G23G 7G15G30G22
                                G 6G20G12G32G21G28G 8G 9G25G19G16G24
                                G10G13
  21738128.399   114234942.775       -1226.238          49.000  
  21738178.825   114234854.566       -1226.199          49.000  
  21738268.083   114235118.851       -1226.158          49.000  
  21738287.543   114235055.971       -1226.152          49.000  
  21738163.087   114234877.029       -1226.160          49.000  
  21700374.274   114036264.043       -1226.147          38.000  
  21836357.441   114750843.991       -1226.146          38.000  
  21702428.241   114047036.042       -1226.100          37.000  
  21738294.224   114235368.087       -1226.193          46.000  
  21705357.011   114062410.069       -1226.395          38.000  
  21726164.356   114171770.609       -1226.285          41.000  
  21872689.575   114941744.525       -1226.178          38.000  
  21738171.656   114235098.567       -1226.166          49.000  
  21873006.842   114944211.3992      -2226.241          38.000  
  21874750.106   114952608.335       -1226.483          38.000  
  21767487.427   114389222.483       -1226.177          39.000  
  21772761.865   114416654.970       -1226.202          39.000  
  21652606.683   113785274.583       -1226.055          36.000  
  21738138.872   114234897.184       -1226.187          49.000  
  21736128.343   114224141.326       -1225.989          34.000  
  21663450.527   113842225.092       -1226.172          38.000  
  21743747.452   114264175.597       -1226.061          39.000  
  21610710.231   113565073.914       -1226.298          37.000  
  21677820.587   113917720.559       -1226.370          38.000  
  21715615.343   114116350.089       -1226.316          41.000  
  21692463.822   113994688.029       -1226.145          40.000  
 25  8 12  8 57 34.8010000  0 26G 5G 1G 2G 3G 4G26G31G23G 7G15G30G22
                                G 6G20G12G32G21G28G 8G 9G25G19G16G24
                                G10G13
  21738174.750   114235187.977       -1225.879          49.000  
  21738225.487   114235099.772       -1225.898          49.000  
  21738314.980   114235364.057       -1225.884          49.000  
  21738334.218   114235301.177       -1225.858          49.000  
  21738209.719   114235122.233       -1225.846          49.000  
  21700420.929   114036509.257       -1226.013          38.000  
  21836404.122   114751089.196       -1225.818          38.000  
  21702474.899   114047281.247       -1225.845          37.000  
  21738340.891   114235613.291       -1225.892          46.000  
  21705403.693   114062655.266       -1225.916          38.000  
  21726210.977   114172015.818       -1226.047          41.000  
  21872736.281   114941989.730       -1225.879          38.000  
  21738218.290   114235343.772       -1225.852          49.000  
  21873052.553   114944656.6072      -2225.978          38.000  
  21874796.739   114952853.533       -1225.975          38.000  
  21767534.103   114389467.692       -1225.997          39.000  
  21772808.525   114416900.178       -1226.000          39.000  
  21652653.314   113785519.792       -1225.845          36.000  
  21738185.619   114235142.390       -1225.885          49.000  
  21736175.005   114224386.548       -1226.090          34.000  
  21663497.206   113842470.297       -1225.870          38.000  
  21743794.152   114264420.809       -1225.917          39.000  
  21610756.897   113565319.113       -1225.879          37.000  
  21677867.166   113917965.755       -1225.854          39.000  
  21715662.003   114116595.298       -1226.052          41.000  
  21692510.493   113994933.233       -1225.842          40.000  
 25  8 12  8 57 35.0010000  0 26G 5G 1G 2G 3G 4G26G31G23G 7G15G30G22
                                G 6G20G12G32G21G28G 8G 9G25G19G16G24
                                G10G13
  21738221.218   114235433.203       -1226.239          49.000  
  21738272.181   114235344.999       -1226.204          49.000  
  21738361.832   114235609.283       -1226.205          49.000  
  21738380.886   114235546.404       -1226.151          49.000  
  21738256.397   114235367.460       -1226.179          49.000  
  21700467.576   114036754.484       -1226.163          38.000  
  21836450.761   114751334.425       -1226.276          38.000  
  21702521.582   114047526.474       -1226.224          38.000  
  21738387.544   114235858.519       -1226.238          46.000  
  21705450.342   114062900.494       -1226.124          38.000  
  21726257.632   114172261.047       -1226.128          41.000  
  21872782.961   114942234.958       -1226.196          39.000  
  21738264.965   114235589.000       -1226.158          49.000  
  21873102.163   114945101.8272      -2226.234          38.000  
  21874843.404   114953098.756       -1226.215          38.000  
  21767580.748   114389712.918       -1226.176          39.000  
  21772855.177   114417145.409       -1226.117          39.000  
  21652699.965   113785765.017       -1226.168          36.000  
  21738232.671   114235387.616       -1226.230          49.000  
  21736221.676   114224631.771       -1226.072          34.000  
  21663543.870   113842715.520       -1226.226          38.000  
  21743840.796   114264666.034       -1226.178          39.000  
  21610803.583   113565564.336       -1226.261          37.000  
  21677913.757   113918210.981       -1226.198          39.000  
  21715708.662   114116840.524       -1226.144          41.000  
  21692557.135   113995178.459       -1226.199          40.000  
 25  8 12  8 57 35.2010000  0 26G 5G 1G 2G 3G 4G26G31G23G 7G15G30G22
                                G 6G20G12G32G21G28G 8G 9G25G19G16G24
                                G10G13
  21738267.588   114235678.408       -1226.053          49.000  
  21738318.841   114235590.205       -1226.066          49.000  
  21738408.661   114235854.487       -1226.042          49.000  
  21738427.564   114235791.612       -1226.066          49.000  
  21738303.034   114235612.668       -1226.066          49.000  
  21700514.238   114036999.690       -1226.041          38.000  
  21836497.448   114751579.627       -1226.028          38.000  
  21702568.233   114047771.679       -1226.040          38.000  
  21738434.184   114236103.722       -1226.055          46.000  
  21705497.060   114063145.701       -1226.100          38.000  
  21726304.266   114172506.255       -1226.118          41.000  
  21872829.685   114942480.164       -1226.074          39.000  
  21738311.610   114235834.207       -1226.058          49.000  
  21873162.507   114945547.0232      -2226.028          38.000  
  21874890.074   114953343.960       -1226.069          38.000  
  21767627.426   114389958.124       -1226.047          39.000  
  21772901.827   114417390.617       -1226.119          39.000  
  21652746.641   113786010.221       -1226.024          36.000  
  21738279.685   114235632.821       -1226.061          49.000  
  21736268.325   114224876.984       -1226.208          34.000  
  21663590.564   113842960.724       -1226.041          38.000  
  21743887.498   114264911.240       -1226.049          39.000  
  21610850.189   113565809.543       -1226.113          37.000  
  21677960.375   113918456.188       -1226.067          39.000  
  21715755.287   114117085.730       -1226.040          41.000  
  21692603.788   113995423.664       -1226.080          39.000  
 25  8 12  8 57 35.4010000  0 26G 5G 1G 2G 3G 4G26G31G23G 7G15G30G22
                                G 6G20G12G32G21G28G 8G 9G25G19G16G24
                                G10G13
  21738314.246   114235923.638       -1226.062          49.000  
  21738365.485   114235835.433       -1226.042          49.000  
  21738455.091   114236099.714       -1226.056          49.000  
  21738474.230   114236036.833       -1226.049          49.000  
  21738349.670   114235857.894       -1226.064          49.000  
  21700560.893   114037244.907       -1225.999          39.000  
  21836544.085   114751824.840       -1225.999          38.000  
  21702614.932   114048016.901       -1226.047          38.000  
  21738480.827   114236348.946       -1226.017          46.000  
  21705543.689   114063390.957       -1226.104          38.000  
  21726350.950   114172751.481       -1226.044          41.000  
  21872876.335   114942725.384       -1226.028          39.000  
  21738358.245   114236079.433       -1226.039          49.000  
  21873220.054   114945992.2452      -2226.052          38.000  
  21874936.699   114953589.190       -1226.069          38.000  
  21767674.033   114390203.339       -1226.061          39.000  
  21772948.461   114417635.851       -1226.106          39.000  
  21652793.308   113786255.428       -1225.951          36.000  
  21738326.720   114235878.048       -1226.035          49.000  
  21736314.990   114225122.219       -1226.047          34.000  
  21663637.205   113843205.941       -1226.038          38.000  
  21743934.152   114265156.463       -1226.024          39.000  
  21610896.819   113566054.751       -1226.072          37.000  
  21678006.970   113918701.449       -1226.172          39.000  
  21715801.943   114117330.948       -1226.011          41.000  
  21692650.427   113995668.886       -1226.007          39.000  
 25  8 12  8 57 35.6010000  0 26G 5G 1G 2G 3G 4G26G31G23G 7G15G30G22
                                G 6G20G12G32G21G28G 8G 9G25G19G16G24
                                G10G13
  21738360.896   114236168.856       -1226.152          49.000  
  21738412.143   114236080.652       -1226.152          49.000  
  21738501.229   114236344.934       -1226.165          49.000  
  21738520.896   114236282.051       -1226.093          49.000  
  21738396.329   114236103.111       -1226.107          49.000  
  21700607.551   114037490.127       -1226.060          39.000  
  21836590.728   114752070.064       -1226.178          38.000  
  21702661.629   114048262.123       -1226.167          38.000  
  21738527.476   114236594.168       -1226.193          46.000  
  21705590.369   114063636.168       -1226.250          38.000  
  21726397.593   114172996.701       -1226.154          40.000  
  21872923.010   114942970.608       -1226.191          39.000  
  21738404.890   114236324.652       -1226.115          49.000  
  21873279.259   114946437.4532      -2226.158          38.000  
  21874983.367   114953834.410       -1226.191          38.000  
  21767720.739   114390448.560       -1226.112          39.000  
  21772995.100   114417881.064       -1226.115          39.000  
  21652839.958   113786500.652       -1226.116          36.000  
  21738373.859   114236123.268       -1226.172          49.000  
  21736361.629   114225367.435       -1226.227          34.000  
  21663683.876   113843451.165       -1226.165          38.000  
  21743980.806   114265401.684       -1226.187          39.000  
  21610943.429   113566299.970       -1226.040          37.000  
  21678053.582   113918946.660       -1226.309          39.000  
  21715848.604   114117576.170       -1226.133          41.000  
  21692697.091   113995914.106       -1226.105          40.000  
 25  8 12  8 57 35.8010000  0 26G 5G 1G 2G 3G 4G26G31G23G 7G15G30G22
                                G 6G20G12G32G21G28G 8G 9G25G19G16G24
                                G10G13
  21738407.812   114236414.069       -1225.868          49.000  
  21738458.804   114236325.865       -1225.935          49.000  
  21738547.384   114236590.145       -1225.881          49.000  
  21738567.567   114236527.263       -1225.918          49.000  
  21738442.964   114236348.323       -1225.912          49.000  
  21700654.177   114037735.345       -1226.156          39.000  
  21836637.410   114752315.272       -1225.796          38.000  
  21702708.287   114048507.330       -1225.803          37.000  
  21738574.129   114236839.377       -1225.884          46.000  
  21705637.027   114063881.376       -1225.859          38.000  
  21726444.294   114173241.911       -1226.124          40.000  
  21872969.626   114943215.815       -1225.854          38.000  
  21738451.521   114236569.864       -1225.911          49.000  
  21873349.902   114946882.6422      -2225.731          37.000  
  21875029.969   114954079.620       -1225.966          38.000  
  21767767.357   114390693.772       -1225.996          39.000  
  21773041.739   114418126.282       -1226.122          39.000  
  21652886.619   113786745.859       -1225.862          36.000  
  21738420.816   114236368.479       -1225.869          49.000  
  21736408.329   114225612.645       -1226.233          34.000  
  21663730.518   113843696.374       -1225.924          38.000  
  21744027.463   114265646.893       -1225.958          39.000  
  21610990.154   113566545.188       -1225.773          37.000  
  21678100.215   113919191.863       -1225.698          39.000  
  21715895.216   114117821.383       -1226.163          41.000  
  21692743.715   113996159.319       -1225.868          40.000  
 25  8 12  8 57 36.0010000  0 26G 5G 1G 2G 3G 4G26G31G23G 7G15G30G22
                                G 6G20G12G32G21G28G 8G 9G25G19G16G24
                                G10G13
  21738454.652   114236659.277       -1226.298          49.000  
  21738505.460   114236571.072       -1226.239          49.000  
  21738593.622   114236835.355       -1226.277          49.000  
  21738614.243   114236772.472       -1226.194          49.000  
  21738489.639   114236593.531       -1226.206          49.000  
  21700700.840   114037980.539       -1226.097          39.000  
  21836684.093   114752560.487       -1226.268          38.000  
  21702754.875   114048752.544       -1226.290          37.000  
  21738620.794   114237084.587       -1226.244          46.000  
  21705683.699   114064126.586       -1226.206          38.000  
  21726490.901   114173487.102       -1226.008          40.000  
  21873016.325   114943461.025       -1226.306          38.000  
  21738498.196   114236815.071       -1226.213          49.000  
  21873430.288   114947327.8212      -2226.068          35.000  
  21875076.585   114954324.825       -1226.150          37.000  
  21767814.064   114390938.974       -1226.169          39.000  
  21773088.413   114418371.477       -1226.151          39.000  
  21652933.262   113786991.068       -1226.208          36.000  
  21738467.866   114236613.691       -1226.304          49.000  
  21736454.988   114225857.835       -1225.983          34.000  
  21663777.185   113843941.580       -1226.240          38.000  
  21744074.163   114265892.099       -1226.227          39.000  
  21611036.798   113566790.406       -1226.390          37.000  
  21678146.826   113919437.088       -1226.432          39.000  
  21715941.857   114118066.572       -1226.050          41.000  
  21692790.404   113996404.532       -1226.323          40.000  
 25  8 12  8 57 36.2010000  0 26G 5G 1G 2G 3G 4G26G31G23G 7G15G30G22
                                G 6G20G12G32G21G28G 8G 9G25G19G16G24
                                G10G13
  21738501.420   114236904.482       -1226.125          49.000  
  21738552.117   114236816.281       -1226.130          49.000  
  21738639.903   114237080.562       -1226.184          49.000  
  21738660.913   114237017.684       -1226.196          49.000  
  21738536.283   114236838.740       -1226.117          49.000  
  21700747.526   114038225.766       -1226.313          39.000  
  21836730.744   114752805.704       -1226.416          38.000  
  21702801.486   114048997.750       -1226.191          37.000  
  21738667.474   114237329.796       -1226.158          46.000  
  21705730.342   114064371.783       -1225.891          38.000  
  21726537.602   114173732.321       -1226.001          40.000  
  21873062.973   114943706.239       -1226.310          38.000  
  21738544.852   114237060.282       -1226.156          49.000  
  21873515.525   114947772.9852      -2226.001          34.000  
  21875123.208   114954570.040       -1226.163          37.000  
  21767860.653   114391184.194       -1226.302          39.000  
  21773135.077   114418616.688       -1226.018          39.000  
  21652979.906   113787236.286       -1226.339          36.000  
  21738514.826   114236858.894       -1226.125          49.000  
  21736501.630   114226103.047       -1225.850          34.000  
  21663823.835   113844186.797       -1226.290          38.000  
  21744120.844   114266137.312       -1226.171          39.000  
  21611083.416   113567035.614       -1226.428          37.000  
  21678193.404   113919682.273       -1225.909          39.000  
  21715988.512   114118311.800       -1226.194          41.000  
  21692837.003   113996649.740       -1226.256          40.000  
