     2.10           OBSERVATION DATA    M (MIXED)           RINEX VERSION / TYPE
RTKCONV 2.4.2                           20200423 123750 UTC PGM / RUN BY / DATE 
log: C:\Users\ygc\Desktop\差分分量估计\54所实验程序\54所实  COMMENT             
format: u-blox                                              COMMENT             
                                                            MARKER NAME         
                                                            MARKER NUMBER       
                                                            OBSERVER / AGENCY   
                                                            REC # / TYPE / VERS 
                                                            ANT # / TYPE        
        0.0000        0.0000        0.0000                  APPROX POSITION XYZ 
        0.0000        0.0000        0.0000                  ANTENNA: DELTA H/E/N
     1     1                                                WAVELENGTH FACT L1/2
     4    C1    L1    D1    S1                              # / TYPES OF OBSERV 
  2025     8    12     9     9   44.4010000     GPS         TIME OF FIRST OBS   
  2025     8    12     9    12   39.2010000     GPS         TIME OF LAST OBS    
                                                            END OF HEADER       
 25  8 12  9  9 44.4010000  0 28G 5G 1G30G 3G 4G17G19G 7G12G22G25G 6
                                G18G29G24G21G23G26G 8G32G15G14G31G 2
                                G28G11G 9G10
  21908276.848   115129130.851       -1224.337          49.000  
  21908335.850   115129042.682       -1224.427          48.000  
  22012956.905   115678893.180       -1224.301          38.000  
  21908456.307   115129244.056       -1224.381          51.000  
  21908315.746   115129065.128       -1224.422          51.000  
  21906590.674   115119950.086       -1224.352          37.000  
  21970756.375   115457142.698       -1224.479          39.000  
  21908459.777   115129556.219       -1224.307          46.000  
  21788476.558   114499258.507       -1224.425          38.000  
  22042847.656   115835961.648       -1224.576          38.000  
  22010921.190   115668174.647       -1224.368          34.000  
  21908334.424   115129286.647       -1224.397          50.000  
  21767966.891   114391485.889       -1224.418          39.000  
  21745107.943   114271346.992       -1224.348          38.000  
  21915560.065   115166940.533       -1224.254          37.000  
  21942917.993   115310809.061       -1224.332          38.000  
  21754193.769   114318996.591       -1224.467          39.000  
  21906296.940   115118368.484       -1224.505          34.000  
  21908340.883   115129085.322       -1224.409          49.000  
  21927389.202   115229224.558       -1224.333          35.000  
  21854709.785   114847292.560       -1224.458          38.000  
  21828336.598   114708694.558       -1224.424          37.000  
  22023221.593   115732808.909       -1224.469          34.000  
  21908289.802   115129066.967       -1224.383          49.000  
  21917421.724   115176844.175       -1224.395          37.000  
  21944383.140   115318553.581       -1224.323          39.000  
  21850019.282   114822641.603       -1224.369          40.000  
  22048416.214   115865216.566       -1224.333          39.000  
 25  8 12  9  9 44.6010000  0 28G 5G 1G30G 3G 4G17G19G 7G12G22G25G 6
                                G18G29G24G21G23G26G 8G32G15G14G31G 2
                                G28G11G 9G10
  21908323.470   115129375.736       -1224.289          49.000  
  21908382.447   115129287.562       -1224.324          48.000  
  22013003.548   115679138.074       -1224.299          39.000  
  21908503.706   115129488.938       -1224.311          51.000  
  21908362.391   115129310.010       -1224.293          51.000  
  21906637.300   115120194.968       -1224.535          37.000  
  21970802.968   115457387.577       -1224.343          39.000  
  21908506.370   115129801.111       -1224.307          45.000  
  21788523.167   114499503.387       -1224.312          38.000  
  22042894.202   115836206.508       -1224.303          38.000  
  22010967.862   115668419.525       -1224.334          33.000  
  21908381.072   115129531.529       -1224.272          50.000  
  21768013.546   114391730.774       -1224.309          38.000  
  21745154.596   114271591.876       -1224.263          38.000  
  21915606.729   115167185.421       -1224.267          37.000  
  21942964.536   115311053.956       -1224.254          38.000  
  21754240.402   114319241.479       -1224.427          39.000  
  21906343.599   115118613.378       -1224.812          34.000  
  21908387.477   115129330.202       -1224.286          49.000  
  21927435.790   115229469.451       -1224.272          35.000  
  21854756.360   114847537.440       -1224.419          38.000  
  21828383.166   114708939.434       -1224.213          37.000  
  22023268.174   115733053.790       -1224.130          34.000  
  21908336.431   115129311.850       -1224.299          48.000  
  21917468.301   115177089.059       -1224.442          37.000  
  21944429.722   115318798.462       -1224.272          38.000  
  21850065.876   114822886.486       -1224.283          39.000  
  22048462.794   115865461.452       -1224.341          39.000  
 25  8 12  9  9 44.8010000  0 28G 5G 1G30G 3G 4G17G19G 7G12G22G25G 6
                                G18G29G24G21G23G26G 8G32G15G14G31G 2
                                G28G11G 9G10
  21908370.094   115129620.606       -1224.394          49.000  
  21908429.031   115129532.432       -1224.382          48.000  
  22013050.115   115679382.944       -1224.498          39.000  
  21908551.129   115129733.808       -1224.396          51.000  
  21908409.090   115129554.880       -1224.389          51.000  
  21906683.886   115120439.828       -1224.314          37.000  
  21970849.569   115457632.449       -1224.424          38.000  
  21908552.935   115130045.973       -1224.390          45.000  
  21788569.726   114499748.258       -1224.437          38.000  
  22042940.836   115836451.386       -1224.312          38.000  
  22011014.465   115668664.404       -1224.455          33.000  
  21908427.754   115129776.400       -1224.375          50.000  
  21768060.131   114391975.641       -1224.351          38.000  
  21745201.197   114271836.747       -1224.407          38.000  
  21915653.278   115167430.284       -1224.310          37.000  
  21943011.163   115311298.828       -1224.402          38.000  
  21754286.951   114319486.344       -1224.369          39.000  
  21906390.250   115118858.237       -1224.469          34.000  
  21908434.088   115129575.072       -1224.389          49.000  
  21927482.388   115229714.315       -1224.332          35.000  
  21854802.948   114847782.305       -1224.304          38.000  
  21828429.764   114709184.301       -1224.279          37.000  
  22023314.826   115733298.679       -1224.569          34.000  
  21908383.018   115129556.720       -1224.342          48.000  
  21917514.936   115177333.919       -1224.413          37.000  
  21944476.296   115319043.333       -1224.443          38.000  
  21850112.479   114823131.350       -1224.279          39.000  
  22048509.370   115865706.322       -1224.381          39.000  
 25  8 12  9  9 45.0010000  0 28G 5G 1G30G 3G 4G17G19G 7G12G22G25G 6
                                G18G29G24G21G23G26G 8G32G15G14G31G 2
                                G28G11G 9G10
  21908416.690   115129865.466       -1224.403          49.000  
  21908475.613   115129777.292       -1224.324          48.000  
  22013096.746   115679627.784       -1224.074          39.000  
  21908598.562   115129978.663       -1224.267          51.000  
  21908455.421   115129799.736       -1224.286          51.000  
  21906730.448   115120684.694       -1224.435          37.000  
  21970896.162   115457877.296       -1224.200          38.000  
  21908599.522   115130290.826       -1224.208          45.000  
  21788616.311   114499993.117       -1224.358          38.000  
  22042987.447   115836696.239       -1224.306          38.000  
  22011060.971   115668909.248       -1224.197          33.000  
  21908474.358   115130021.255       -1224.273          51.000  
  21768106.713   114392220.497       -1224.199          38.000  
  21745247.774   114272081.608       -1224.379          38.000  
  21915699.882   115167675.145       -1224.172          37.000  
  21943057.773   115311543.671       -1224.150          38.000  
  21754333.536   114319731.198       -1224.323          39.000  
  21906436.826   115119103.094       -1224.343          34.000  
  21908480.666   115129819.929       -1224.332          50.000  
  21927529.011   115229959.169       -1224.113          34.000  
  21854849.563   114848027.173       -1224.475          38.000  
  21828476.384   114709429.164       -1224.330          37.000  
  22023361.463   115733543.522       -1224.362          34.000  
  21908429.608   115129801.578       -1224.320          48.000  
  21917561.514   115177578.781       -1224.324          37.000  
  21944522.852   115319288.192       -1224.353          38.000  
  21850159.075   114823376.214       -1224.269          39.000  
  22048555.925   115865951.173       -1224.200          39.000  
 25  8 12  9  9 45.2010000  0 28G 5G 1G30G 3G 4G17G19G 7G12G22G25G 6
                                G18G29G24G21G23G26G 8G32G15G14G31G 2
                                G28G11G 9G10
  21908463.303   115130110.326       -1224.510          49.000  
  21908522.285   115130022.151       -1224.471          48.000  
  22013143.352   115679872.654       -1224.233          39.000  
  21908645.778   115130223.526       -1224.401          51.000  
  21908501.823   115130044.600       -1224.441          51.000  
  21906777.075   115120929.544       -1224.339          37.000  
  21970942.772   115458122.166       -1224.520          38.000  
  21908646.147   115130535.688       -1224.215          45.000  
  21788662.906   114500237.985       -1224.692          39.000  
  22043034.014   115836941.097       -1224.254          38.000  
  22011107.484   115669154.128       -1224.421          33.000  
  21908520.906   115130266.118       -1224.387          51.000  
  21768153.292   114392465.356       -1224.308          38.000  
  21745294.330   114272326.477       -1224.623          38.000  
  21915746.556   115167920.004       -1224.178          37.000  
  21943104.403   115311788.545       -1224.358          38.000  
  21754380.090   114319976.060       -1224.415          39.000  
  21906483.411   115119347.934       -1224.088          33.000  
  21908527.224   115130064.798       -1224.576          50.000  
  21927575.648   115230204.084       -1225.308          34.000  
  21854896.151   114848272.010       -1224.203          38.000  
  21828523.002   114709674.015       -1224.197          37.000  
  22023408.080   115733788.395       -1224.556          34.000  
  21908476.183   115130046.446       -1224.449          48.000  
  21917608.154   115177823.651       -1224.498          37.000  
  21944569.443   115319533.060       -1224.607          38.000  
  21850205.650   114823621.062       -1224.238          39.000  
  22048602.530   115866196.050       -1224.653          39.000  
 25  8 12  9  9 45.4010000  0 28G 5G 1G30G 3G 4G17G19G 7G12G22G25G 6
                                G18G29G24G21G23G26G 8G32G15G14G31G 2
                                G28G11G 9G10
  21908509.922   115130355.184       -1224.462          49.000  
  21908568.891   115130267.018       -1224.470          48.000  
  22013189.956   115680117.521       -1224.651          39.000  
  21908692.328   115130468.381       -1224.400          51.000  
  21908548.346   115130289.455       -1224.381          51.000  
  21906823.682   115121174.398       -1224.421          37.000  
  21970989.392   115458367.021       -1224.403          38.000  
  21908692.746   115130780.551       -1224.541          45.000  
  21788709.507   114500482.845       -1224.205          39.000  
  22043080.603   115837185.951       -1224.458          38.000  
  22011154.011   115669398.992       -1224.504          33.000  
  21908567.427   115130510.979       -1224.477          51.000  
  21768199.891   114392710.199       -1224.539          38.000  
  21745340.926   114272571.334       -1224.171          38.000  
  21915793.145   115168164.854       -1224.577          37.000  
  21943151.028   115312033.408       -1224.584          38.000  
  21754426.713   114320220.919       -1224.633          39.000  
  21906529.964   115119592.786       -1224.639          33.000  
  21908573.851   115130309.650       -1224.422          49.000  
  21927622.246   115230448.944       -1224.116          34.000  
  21854942.739   114848516.863       -1224.469          38.000  
  21828569.588   114709918.878       -1224.520          37.000  
  22023454.764   115734033.235       -1224.199          34.000  
  21908522.821   115130291.297       -1224.244          48.000  
  21917654.756   115178068.515       -1224.503          37.000  
  21944616.042   115319777.918       -1224.059          38.000  
  21850252.221   114823865.919       -1224.521          39.000  
  22048649.158   115866440.907       -1224.212          39.000  
 25  8 12  9  9 45.6010000  0 28G 5G 1G30G 3G 4G17G19G 7G12G22G25G 6
                                G18G29G24G21G23G26G 8G32G15G14G31G 2
                                G28G11G 9G10
  21908556.505   115130600.032       -1224.083          49.000  
  21908615.441   115130511.861       -1224.098          48.000  
  22013236.520   115680362.351       -1224.006          39.000  
  21908738.883   115130713.232       -1224.119          51.000  
  21908594.807   115130534.308       -1224.039          51.000  
  21906870.322   115121419.250       -1224.125          37.000  
  21971036.023   115458611.869       -1223.975          38.000  
  21908739.372   115131025.387       -1224.013          45.000  
  21788756.147   114500727.703       -1224.110          39.000  
  22043127.212   115837430.797       -1223.984          38.000  
  22011200.611   115669643.827       -1224.001          33.000  
  21908613.880   115130755.825       -1224.127          51.000  
  21768246.508   114392955.053       -1224.126          39.000  
  21745387.526   114272816.194       -1224.147          38.000  
  21915839.752   115168409.705       -1224.184          37.000  
  21943197.676   115312278.250       -1224.205          38.000  
  21754473.302   114320465.765       -1224.229          39.000  
  21906576.513   115119837.626       -1224.056          33.000  
  21908620.441   115130554.508       -1224.142          49.000  
  21927668.796   115230693.808       -1224.114          34.000  
  21854989.344   114848761.718       -1224.095          38.000  
  21828616.184   114710163.730       -1224.213          37.000  
  22023501.333   115734278.107       -1224.079          34.000  
  21908569.414   115130536.163       -1224.205          48.000  
  21917701.376   115178313.362       -1224.302          36.000  
  21944662.639   115320022.774       -1224.121          38.000  
  21850298.794   114824110.767       -1224.113          39.000  
  22048695.750   115866685.761       -1223.989          39.000  
 25  8 12  9  9 45.8010000  0 28G 5G 1G30G 3G 4G17G19G 7G12G22G25G 6
                                G18G29G24G21G23G26G 8G32G15G14G31G 2
                                G28G11G 9G10
  21908603.137   115130844.878       -1224.279          49.000  
  21908662.029   115130756.701       -1224.106          48.000  
  22013283.138   115680607.196       -1224.206          39.000  
  21908785.413   115130958.069       -1224.217          51.000  
  21908641.674   115130779.143       -1224.262          51.000  
  21906916.890   115121664.086       -1224.103          37.000  
  21971082.625   115458856.701       -1224.102          38.000  
  21908785.963   115131270.230       -1224.176          45.000  
  21788802.787   114500972.540       -1224.220          39.000  
  22043173.841   115837675.641       -1224.247          39.000  
  22011247.200   115669888.650       -1224.078          34.000  
  21908660.466   115131000.662       -1224.200          51.000  
  21768293.101   114393199.889       -1224.143          39.000  
  21745434.128   114273061.025       -1224.135          37.000  
  21915886.350   115168654.536       -1224.119          37.000  
  21943244.243   115312523.079       -1224.220          38.000  
  21754519.930   114320710.597       -1224.188          39.000  
  21906623.104   115120082.449       -1224.265          33.000  
  21908667.044   115130799.340       -1224.292          49.000  
  21927715.411   115230938.637       -1224.207          34.000  
  21855035.921   114849006.557       -1224.102          38.000  
  21828662.816   114710408.571       -1224.312          37.000  
  22023547.896   115734522.940       -1224.236          34.000  
  21908615.945   115130780.994       -1224.219          48.000  
  21917747.969   115178558.200       -1224.216          36.000  
  21944709.194   115320267.623       -1224.289          38.000  
  21850345.436   114824355.604       -1224.219          40.000  
  22048742.338   115866930.601       -1224.177          39.000  
 25  8 12  9  9 46.0010000  0 28G 5G 1G30G 3G 4G17G19G 7G12G22G25G 6
                                G18G29G24G21G23G26G 8G32G15G14G31G 2
                                G28G11G 9G10
  21908649.718   115131089.727       -1224.244          49.000  
  21908708.645   115131001.556       -1224.176          48.000  
  22013329.713   115680852.041       -1224.125          39.000  
  21908831.746   115131202.925       -1224.260          51.000  
  21908688.316   115131023.993       -1224.224          51.000  
  21906963.482   115121908.945       -1224.275          37.000  
  21971129.266   115459101.556       -1224.095          38.000  
  21908832.552   115131515.091       -1224.336          45.000  
  21788849.393   114501217.396       -1224.244          39.000  
  22043220.425   115837920.492       -1224.295          39.000  
  22011293.845   115670133.507       -1224.255          34.000  
  21908706.987   115131245.514       -1224.150          51.000  
  21768339.685   114393444.748       -1224.329          39.000  
  21745480.706   114273305.883       -1224.180          37.000  
  21915932.951   115168899.394       -1224.256          37.000  
  21943290.886   115312767.936       -1224.223          37.000  
  21754566.517   114320955.451       -1224.243          40.000  
  21906669.691   115120327.309       -1224.243          33.000  
  21908713.596   115131044.193       -1224.242          49.000  
  21927761.989   115231183.491       -1224.188          34.000  
  21855082.515   114849251.415       -1224.326          38.000  
  21828709.442   114710653.416       -1224.187          37.000  
  22023594.508   115734767.799       -1224.527          34.000  
  21908662.524   115131025.846       -1224.309          48.000  
  21917794.552   115178803.050       -1224.089          36.000  
  21944755.834   115320512.475       -1224.227          38.000  
  21850392.010   114824600.460       -1224.281          39.000  
  22048788.915   115867175.458       -1224.274          39.000  
 25  8 12  9  9 46.2010000  0 28G 5G 1G30G 3G 4G17G19G 7G12G22G25G 6
                                G18G29G24G21G23G26G 8G32G15G14G31G 2
                                G28G11G 9G10
  21908696.321   115131334.574       -1224.257          49.000  
  21908755.229   115131246.407       -1224.374          48.000  
  22013376.289   115681096.900       -1224.173          39.000  
  21908877.823   115131447.773       -1224.271          51.000  
  21908734.646   115131268.849       -1224.205          51.000  
  21907010.048   115122153.743       -1224.236          37.000  
  21971175.862   115459346.388       -1224.186          38.000  
  21908879.164   115131759.944       -1224.274          45.000  
  21788895.994   114501462.230       -1224.272          39.000  
  22043267.050   115838165.313       -1224.186          39.000  
  22011340.473   115670378.303       -1224.112          34.000  
  21908753.588   115131490.371       -1224.253          51.000  
  21768386.306   114393689.623       -1224.207          39.000  
  21745527.307   114273550.730       -1224.336          37.000  
  21915979.561   115169144.296       -1224.465          37.000  
  21943337.431   115313012.817       -1224.242          38.000  
  21754613.073   114321200.305       -1224.260          39.000  
  21906716.265   115120572.187       -1224.321          36.000  
  21908760.246   115131289.036       -1224.139          49.000  
  21927808.571   115231428.289       -1224.157          34.000  
  21855129.133   114849496.299       -1224.386          38.000  
  21828756.015   114710898.296       -1224.330          37.000  
  22023641.083   115735012.658       -1224.358          34.000  
  21908709.126   115131270.687       -1224.239          48.000  
  21917841.102   115179047.848       -1224.192          36.000  
  21944802.377   115320757.304       -1224.281          38.000  
  21850438.626   114824845.321       -1224.282          39.000  
  22048835.476   115867420.287       -1224.089          39.000  
 25  8 12  9  9 46.4010000  0 28G 5G 1G30G 3G 4G17G19G 7G12G22G25G 6
                                G18G29G24G21G23G26G 8G32G15G14G31G 2
                                G28G11G 9G10
  21908742.958   115131579.411       -1224.323          49.000  
  21908801.886   115131491.235       -1224.306          48.000  
  22013422.950   115681341.739       -1224.412          38.000  
  21908923.954   115131692.606       -1224.311          51.000  
  21908781.007   115131513.683       -1224.369          51.000  
  21907056.646   115122398.576       -1224.028          37.000  
  21971222.422   115459591.226       -1224.251          38.000  
  21908925.783   115132004.779       -1224.309          45.000  
  21788942.509   114501707.068       -1224.231          39.000  
  22043313.630   115838410.156       -1224.249          39.000  
  22011387.146   115670623.155       -1224.400          34.000  
  21908800.311   115131735.207       -1224.367          51.000  
  21768432.919   114393934.453       -1224.480          39.000  
  21745573.847   114273795.564       -1224.464          38.000  
  21916026.113   115169389.114       -1224.349          37.000  
  21943384.072   115313257.646       -1224.451          38.000  
  21754659.644   114321445.140       -1224.407          39.000  
  21906762.876   115120817.013       -1224.398          36.000  
  21908806.943   115131533.878       -1224.412          50.000  
  21927855.140   115231673.135       -1224.136          34.000  
  21855175.699   114849741.120       -1224.412          38.000  
  21828802.609   114711143.124       -1224.457          37.000  
  22023687.663   115735257.473       -1224.243          35.000  
  21908755.722   115131515.522       -1224.350          48.000  
  21917887.701   115179292.686       -1224.166          36.000  
  21944848.983   115321002.138       -1224.260          38.000  
  21850485.219   114825090.157       -1224.373          39.000  
  22048882.056   115867665.127       -1224.129          39.000  
 25  8 12  9  9 46.6010000  0 28G 5G 1G30G 3G 4G17G19G 7G12G22G25G 6
                                G18G29G24G21G23G26G 8G32G15G14G31G 2
                                G28G11G 9G10
  21908789.581   115131824.245       -1224.065          49.000  
  21908848.472   115131736.073       -1224.203          48.000  
  22013469.570   115681586.566       -1224.066          39.000  
  21908970.158   115131937.446       -1224.155          51.000  
  21908827.142   115131758.524       -1224.208          51.000  
  21907103.245   115122643.429       -1224.056          37.000  
  21971269.039   115459836.057       -1224.053          39.000  
  21908972.377   115132249.616       -1224.063          46.000  
  21788989.095   114501951.914       -1224.244          39.000  
  22043360.226   115838654.993       -1224.203          39.000  
  22011433.893   115670867.994       -1224.145          35.000  
  21908846.932   115131980.036       -1224.027          51.000  
  21768479.508   114394179.283       -1223.960          39.000  
  21745620.474   114274040.407       -1224.113          38.000  
  21916072.672   115169633.950       -1224.043          37.000  
  21943430.603   115313502.482       -1224.216          38.000  
  21754706.300   114321689.975       -1224.031          39.000  
  21906809.401   115121061.857       -1224.162          36.000  
  21908853.495   115131778.714       -1224.151          50.000  
  21927901.768   115231917.983       -1224.344          35.000  
  21855222.321   114849985.962       -1224.021          38.000  
  21828849.203   114711387.967       -1224.199          37.000  
  22023734.246   115735502.315       -1224.024          35.000  
  21908802.314   115131760.359       -1224.151          48.000  
  21917934.310   115179537.533       -1224.133          36.000  
  21944895.538   115321246.974       -1223.928          38.000  
  21850531.756   114825334.992       -1224.207          40.000  
  22048928.623   115867909.964       -1224.130          39.000  
 25  8 12  9  9 46.8010000  0 28G 5G 1G30G 3G 4G17G19G 7G12G22G25G 6
                                G18G29G24G21G23G26G 8G32G15G14G31G 2
                                G28G11G 9G10
  21908836.206   115132069.107       -1224.427          49.000  
  21908895.094   115131980.933       -1224.404          48.000  
  22013516.191   115681831.432       -1224.438          39.000  
  21909016.743   115132182.306       -1224.410          51.000  
  21908873.460   115132003.377       -1224.321          51.000  
  21907149.839   115122888.286       -1224.476          37.000  
  21971315.618   115460080.919       -1224.357          39.000  
  21909018.970   115132494.478       -1224.433          46.000  
  21789035.666   114502196.763       -1224.368          39.000  
  22043406.865   115838899.853       -1224.438          39.000  
  22011480.542   115671112.841       -1224.216          35.000  
  21908893.572   115132224.903       -1224.436          51.000  
  21768526.129   114394424.149       -1224.358          39.000  
  21745667.051   114274285.258       -1224.365          38.000  
  21916119.265   115169878.820       -1224.549          37.000  
  21943477.235   115313747.346       -1224.513          38.000  
  21754752.910   114321934.834       -1224.282          39.000  
  21906856.080   115121306.720       -1224.484          36.000  
  21908900.106   115132023.573       -1224.384          50.000  
  21927948.387   115232162.840       -1224.591          35.000  
  21855268.921   114850230.824       -1224.298          38.000  
  21828895.768   114711632.821       -1224.264          37.000  
  22023780.816   115735747.177       -1224.302          35.000  
  21908848.876   115132005.217       -1224.345          49.000  
  21917980.913   115179782.391       -1224.396          36.000  
  21944942.146   115321491.839       -1224.284          38.000  
  21850578.366   114825579.850       -1224.480          40.000  
  22048975.254   115868154.834       -1224.453          39.000  
 25  8 12  9  9 47.0010000  0 28G 5G 1G30G 3G 4G17G19G 7G12G22G25G 6
                                G18G29G24G21G23G26G 8G32G15G14G31G 2
                                G28G11G 9G10
  21908882.812   115132313.942       -1224.449          49.000  
  21908941.686   115132225.773       -1224.415          48.000  
  22013562.769   115682076.262       -1224.218          39.000  
  21909063.480   115132427.147       -1224.441          51.000  
  21908919.690   115132248.221       -1224.397          51.000  
  21907196.509   115123133.149       -1224.917          37.000  
  21971362.206   115460325.779       -1224.826          39.000  
  21909065.540   115132739.307       -1224.356          46.000  
  21789082.246   114502441.616       -1224.479          39.000  
  22043453.462   115839144.706       -1224.663          39.000  
  22011527.180   115671357.720       -1225.159          35.000  
  21908940.280   115132469.732       -1224.319          51.000  
  21768572.714   114394668.970       -1224.062          39.000  
  21745713.681   114274530.107       -1224.644          38.000  
  21916165.851   115170123.643       -1224.027          37.000  
  21943523.781   115313992.163       -1223.935          38.000  
  21754799.518   114322179.671       -1224.269          39.000  
  21906902.654   115121551.549       -1224.306          36.000  
  21908946.734   115132268.412       -1224.448          50.000  
  21927994.961   115232407.689       -1224.664          35.000  
  21855315.471   114850475.642       -1224.193          38.000  
  21828942.414   114711877.648       -1224.235          37.000  
  22023827.391   115735992.026       -1224.471          36.000  
  21908895.487   115132250.061       -1224.420          49.000  
  21918027.492   115180027.246       -1224.834          37.000  
  21944988.719   115321736.693       -1224.723          38.000  
  21850624.954   114825824.674       -1224.167          40.000  
  22049021.808   115868399.659       -1224.245          39.000  
 25  8 12  9  9 47.2010000  0 27G 5G 1G30G 3G 4G17G19G 7G12G22G 6G18
                                G29G24G21G23G26G 8G32G15G14G31G 2G28
                                G11G 9G10
  21908929.411   115132558.771       -1224.135          49.000  
  21908988.264   115132470.602       -1224.028          48.000  
  22013609.320   115682321.093       -1224.225          39.000  
  21909111.098   115132671.976       -1224.145          51.000  
  21908965.962   115132493.049       -1224.147          51.000  
  21907243.113   115123377.988       -1223.818          39.000  
  21971408.779   115460570.604       -1223.862          39.000  
  21909112.167   115132984.127       -1224.074          46.000  
  21789128.842   114502686.441       -1224.001          39.000  
  22043500.085   115839389.532       -1224.072          39.000  
  21908986.578   115132714.563       -1224.133          51.000  
  21768619.300   114394913.797       -1224.183          38.000  
  21745760.247   114274774.941       -1224.188          38.000  
  21916212.420   115170368.467       -1224.148          37.000  
  21943570.396   115314236.997       -1224.342          38.000  
  21754846.107   114322424.502       -1224.172          39.000  
  21906949.202   115121796.387       -1224.144          33.000  
  21908993.384   115132513.241       -1224.083          50.000  
  21928041.527   115232652.519       -1223.892          35.000  
  21855362.062   114850720.467       -1224.243          38.000  
  21828989.018   114712122.472       -1224.143          37.000  
  22023873.951   115736236.855       -1224.106          35.000  
  21908942.069   115132494.890       -1224.069          48.000  
  21918074.076   115180272.075       -1223.979          37.000  
  21945035.339   115321981.513       -1223.886          38.000  
  21850671.543   114826069.513       -1224.310          40.000  
  22049068.428   115868644.494       -1224.138          39.000  
 25  8 12  9  9 47.4010000  0 27G 5G 1G30G 3G 4G17G19G 7G12G22G 6G18
                                G29G24G21G23G26G 8G32G15G14G31G 2G28
                                G11G 9G10
  21908976.040   115132803.608       -1224.402          49.000  
  21909034.884   115132715.440       -1224.387          48.000  
  22013655.900   115682565.923       -1224.323          39.000  
  21909158.679   115132916.812       -1224.375          51.000  
  21909012.118   115132737.885       -1224.421          51.000  
  21907289.728   115123622.840       -1224.436          39.000  
  21971455.397   115460815.450       -1224.444          39.000  
  21909158.776   115133228.968       -1224.493          46.000  
  21789175.499   114502931.280       -1224.323          39.000  
  22043546.679   115839634.373       -1224.349          39.000  
  21909032.885   115132959.401       -1224.388          51.000  
  21768665.847   114395158.631       -1224.391          38.000  
  21745806.845   114275019.776       -1224.452          38.000  
  21916259.023   115170613.299       -1224.278          36.000  
  21943616.982   115314481.829       -1224.496          38.000  
  21754892.751   114322669.338       -1224.460          39.000  
  21906995.764   115122041.220       -1224.403          33.000  
  21909039.988   115132758.076       -1224.350          50.000  
  21928088.082   115232897.364       -1224.462          35.000  
  21855408.667   114850965.299       -1224.393          38.000  
  21829035.638   114712367.310       -1224.309          37.000  
  22023920.520   115736481.688       -1224.470          35.000  
  21908988.683   115132739.729       -1224.433          48.000  
  21918120.654   115180516.921       -1224.532          37.000  
  21945081.914   115322226.356       -1224.312          38.000  
  21850718.151   114826314.341       -1224.481          39.000  
  22049115.030   115868889.332       -1224.476          39.000  
 25  8 12  9  9 47.6010000  0 27G 5G 1G30G 3G 4G17G19G 7G12G22G 6G18
                                G29G24G21G23G26G 8G32G15G14G31G 2G28
                                G11G 9G10
  21909022.660   115133048.437       -1224.226          49.000  
  21909081.488   115132960.272       -1224.290          48.000  
  22013702.485   115682810.754       -1224.247          39.000  
  21909206.275   115133161.640       -1224.229          51.000  
  21909058.472   115132982.715       -1224.179          51.000  
  21907336.331   115123867.664       -1224.205          39.000  
  21971501.989   115461060.275       -1224.135          38.000  
  21909205.382   115133473.794       -1224.222          46.000  
  21789222.106   114503176.108       -1224.196          39.000  
  22043593.315   115839879.206       -1224.245          39.000  
  21909079.215   115133204.231       -1224.219          51.000  
  21768712.436   114395403.461       -1224.156          38.000  
  21745853.436   114275264.598       -1224.099          39.000  
  21916305.602   115170858.123       -1224.113          36.000  
  21943663.558   115314726.654       -1224.166          38.000  
  21754939.339   114322914.172       -1224.307          39.000  
  21907042.388   115122286.053       -1224.321          33.000  
  21909086.593   115133002.910       -1224.272          50.000  
  21928134.655   115233142.189       -1224.236          35.000  
  21855455.239   114851210.124       -1224.149          38.000  
  21829082.200   114712612.136       -1224.226          37.000  
  22023967.132   115736726.513       -1224.008          34.000  
  21909035.270   115132984.557       -1224.267          48.000  
  21918167.316   115180761.745       -1224.185          37.000  
  21945128.538   115322471.190       -1224.292          39.000  
  21850764.702   114826559.167       -1224.115          39.000  
  22049161.663   115869134.160       -1224.221          39.000  
 25  8 12  9  9 47.8010000  0 27G 5G 1G30G 3G 4G17G19G 7G12G22G 6G18
                                G29G24G21G23G26G 8G32G15G14G31G 2G28
                                G11G 9G10
  21909069.275   115133293.270       -1224.138          49.000  
  21909128.090   115133205.107       -1224.251          48.000  
  22013749.013   115683055.591       -1224.310          39.000  
  21909253.718   115133406.474       -1224.200          51.000  
  21909104.691   115133227.551       -1224.223          51.000  
  21907382.973   115124112.502       -1224.210          39.000  
  21971548.642   115461305.116       -1224.465          38.000  
  21909251.977   115133718.626       -1224.123          45.000  
  21789268.658   114503420.946       -1224.222          39.000  
  22043639.923   115840124.042       -1224.192          39.000  
  21909125.500   115133449.067       -1224.252          51.000  
  21768759.051   114395648.302       -1224.365          38.000  
  21745900.090   114275509.443       -1224.105          39.000  
  21916352.222   115171102.963       -1224.165          36.000  
  21943710.181   115314971.491       -1224.405          38.000  
  21754985.955   114323159.008       -1224.346          39.000  
  21907088.940   115122530.890       -1224.336          33.000  
  21909133.157   115133247.744       -1224.126          50.000  
  21928181.257   115233387.028       -1224.410          35.000  
  21855501.830   114851454.960       -1223.907          38.000  
  21829128.777   114712856.974       -1224.153          37.000  
  22024013.760   115736971.355       -1224.263          34.000  
  21909081.810   115133229.390       -1224.118          48.000  
  21918213.931   115181006.588       -1224.168          37.000  
  21945175.137   115322716.020       -1224.035          39.000  
  21850811.314   114826804.008       -1224.258          39.000  
  22049208.210   115869379.000       -1224.225          39.000  
 25  8 12  9  9 48.0010000  0 27G 5G 1G30G 3G 4G17G19G 7G12G22G 6G18
                                G29G24G21G23G26G 8G32G15G14G31G 2G28
                                G11G 9G10
  21909115.905   115133538.108       -1224.180          49.000  
  21909174.677   115133449.931       -1224.056          48.000  
  22013795.629   115683300.429       -1224.037          39.000  
  21909300.924   115133651.311       -1224.076          51.000  
  21909150.919   115133472.387       -1224.109          51.000  
  21907429.556   115124357.309       -1224.026          39.000  
  21971595.316   115461549.941       -1224.018          38.000  
  21909298.552   115133963.475       -1224.034          45.000  
  21789315.271   114503665.758       -1224.092          39.000  
  22043686.530   115840368.866       -1224.034          39.000  
  21909172.082   115133693.895       -1224.073          51.000  
  21768805.616   114395893.144       -1224.095          38.000  
  21745946.638   114275754.276       -1224.252          38.000  
  21916398.782   115171347.811       -1224.055          36.000  
  21943756.785   115315216.325       -1223.978          38.000  
  21755032.548   114323403.833       -1223.975          39.000  
  21907135.570   115122775.729       -1223.887          33.000  
  21909179.785   115133492.580       -1224.102          50.000  
  21928227.818   115233631.814       -1223.907          35.000  
  21855548.409   114851699.831       -1224.292          38.000  
  21829175.398   114713101.811       -1224.170          37.000  
  22024060.337   115737216.182       -1224.170          34.000  
  21909128.397   115133474.219       -1224.141          48.000  
  21918260.488   115181251.396       -1224.191          37.000  
  21945221.758   115322960.833       -1224.023          39.000  
  21850857.930   114827048.873       -1224.161          40.000  
  22049254.820   115869623.848       -1224.118          40.000  
 25  8 12  9  9 48.2010000  0 27G 5G 1G30G 3G 4G17G19G 7G12G22G 6G18
                                G29G24G21G23G26G 8G32G15G14G31G 2G28
                                G11G 9G10
  21909162.555   115133782.937       -1224.273          49.000  
  21909221.214   115133694.759       -1224.175          48.000  
  22013842.203   115683545.260       -1224.207          39.000  
  21909348.086   115133896.142       -1224.260          51.000  
  21909196.975   115133717.217       -1224.265          51.000  
  21907476.140   115124602.143       -1224.148          38.000  
  21971641.931   115461794.776       -1224.323          38.000  
  21909345.172   115134208.306       -1224.311          45.000  
  21789361.877   114503910.593       -1224.178          39.000  
  22043733.102   115840613.701       -1224.345          39.000  
  21909218.660   115133938.728       -1224.272          51.000  
  21768852.159   114396137.977       -1224.254          38.000  
  21745993.262   114275999.102       -1224.362          38.000  
  21916445.345   115171592.639       -1224.275          36.000  
  21943803.327   115315461.161       -1224.215          38.000  
  21755079.147   114323648.665       -1224.155          39.000  
  21907182.150   115123020.570       -1224.319          33.000  
  21909226.363   115133737.411       -1224.333          50.000  
  21928274.401   115233876.665       -1224.250          35.000  
  21855595.003   114851944.651       -1224.543          38.000  
  21829222.065   114713346.632       -1224.253          37.000  
  22024106.949   115737461.014       -1224.146          34.000  
  21909174.962   115133719.047       -1224.275          48.000  
  21918307.105   115181496.221       -1224.086          37.000  
  21945268.331   115323205.674       -1224.314          39.000  
  21850904.521   114827293.697       -1224.330          40.000  
  22049301.424   115869868.677       -1224.359          40.000  
 25  8 12  9  9 48.4010000  0 27G 5G 1G30G 3G 4G17G19G 7G12G22G 6G18
                                G29G24G21G23G26G 8G32G15G14G31G 2G28
                                G11G 9G10
  21909209.204   115134027.762       -1224.188          49.000  
  21909267.857   115133939.599       -1224.314          48.000  
  22013888.829   115683790.087       -1224.041          39.000  
  21909395.278   115134140.970       -1224.173          51.000  
  21909243.101   115133962.046       -1224.171          51.000  
  21907522.843   115124846.974       -1224.100          38.000  
  21971688.476   115462039.604       -1224.192          39.000  
  21909391.786   115134453.136       -1224.196          45.000  
  21789408.461   114504155.420       -1224.188          39.000  
  22043779.700   115840858.529       -1224.125          39.000  
  21909265.138   115134183.558       -1224.244          51.000  
  21768898.776   114396382.806       -1224.197          38.000  
  21746039.859   114276243.930       -1224.180          38.000  
  21916491.925   115171837.472       -1224.224          36.000  
  21943849.942   115315705.998       -1224.241          38.000  
  21755125.765   114323893.499       -1224.196          39.000  
  21907228.770   115123265.398       -1224.278          34.000  
  21909272.986   115133982.239       -1224.200          50.000  
  21928320.956   115234121.495       -1224.254          35.000  
  21855641.572   114852189.467       -1224.226          38.000  
  21829268.640   114713591.466       -1224.138          37.000  
  22024153.579   115737705.852       -1224.272          34.000  
  21909221.526   115133963.883       -1224.230          48.000  
  21918353.703   115181741.052       -1224.005          37.000  
  21945314.915   115323450.498       -1224.240          39.000  
  21850951.130   114827538.526       -1224.225          40.000  
  22049347.995   115870113.503       -1224.213          40.000  
 25  8 12  9  9 48.6010000  0 27G 5G 1G30G 3G 4G17G19G 7G12G22G 6G18
                                G29G24G21G23G26G 8G32G15G14G31G 2G28
                                G11G 9G10
  21909255.837   115134272.592       -1224.292          49.000  
  21909314.410   115134184.427       -1224.231          48.000  
  22013935.357   115684034.920       -1224.257          39.000  
  21909442.407   115134385.799       -1224.297          51.000  
  21909289.348   115134206.872       -1224.293          51.000  
  21907569.430   115125091.804       -1224.347          38.000  
  21971735.108   115462284.428       -1224.240          39.000  
  21909438.382   115134697.966       -1224.298          45.000  
  21789455.060   114504400.248       -1224.238          39.000  
  22043826.303   115841103.355       -1224.301          39.000  
  21909311.644   115134428.382       -1224.293          51.000  
  21768945.389   114396627.632       -1224.258          38.000  
  21746086.461   114276488.762       -1224.447          38.000  
  21916538.485   115172082.297       -1224.281          36.000  
  21943896.566   115315950.815       -1224.154          38.000  
  21755172.354   114324138.323       -1224.216          39.000  
  21907275.389   115123510.220       -1224.210          34.000  
  21909319.560   115134227.064       -1224.294          50.000  
  21928367.523   115234366.321       -1224.308          35.000  
  21855688.161   114852434.299       -1224.268          38.000  
  21829315.256   114713836.296       -1224.341          38.000  
  22024200.122   115737950.668       -1224.087          34.000  
  21909268.107   115134208.702       -1224.143          48.000  
  21918400.245   115181985.886       -1224.303          37.000  
  21945361.469   115323695.332       -1224.448          39.000  
  21850997.704   114827783.349       -1224.215          40.000  
  22049394.583   115870358.334       -1224.385          40.000  
 25  8 12  9  9 48.8010000  0 27G 5G 1G30G 3G 4G17G19G 7G12G22G 6G18
                                G29G24G21G23G26G 8G32G15G14G31G 2G28
                                G11G 9G10
  21909302.438   115134517.414       -1224.031          49.000  
  21909360.970   115134429.254       -1224.060          48.000  
  22013981.935   115684279.756       -1224.267          39.000  
  21909489.321   115134630.620       -1224.118          51.000  
  21909335.518   115134451.696       -1224.035          51.000  
  21907616.003   115125336.623       -1223.941          38.000  
  21971781.677   115462529.256       -1224.056          39.000  
  21909484.922   115134942.788       -1224.131          45.000  
  21789501.625   114504645.075       -1224.188          39.000  
  22043872.965   115841348.189       -1224.300          39.000  
  21909358.070   115134673.206       -1224.092          51.000  
  21768991.973   114396872.454       -1224.033          38.000  
  21746133.028   114276733.576       -1224.148          38.000  
  21916585.053   115172327.124       -1224.165          36.000  
  21943943.151   115316195.652       -1224.242          38.000  
  21755218.946   114324383.155       -1224.253          39.000  
  21907322.020   115123755.049       -1224.271          34.000  
  21909366.180   115134471.886       -1224.038          50.000  
  21928414.153   115234611.148       -1224.160          35.000  
  21855734.800   114852679.122       -1224.149          38.000  
  21829361.873   114714081.121       -1224.087          38.000  
  22024246.657   115738195.497       -1224.151          34.000  
  21909314.708   115134453.534       -1224.149          48.000  
  21918446.782   115182230.706       -1224.062          37.000  
  21945408.047   115323940.160       -1224.347          39.000  
  21851044.295   114828028.167       -1223.840          40.000  
  22049441.197   115870603.148       -1223.927          40.000  
 25  8 12  9  9 49.0010000  0 27G 5G 1G30G 3G 4G17G19G 7G12G22G 6G18
                                G29G24G21G23G26G 8G32G15G14G31G 2G28
                                G11G 9G10
  21909349.011   115134762.211       -1224.003          49.000  
  21909407.564   115134674.038       -1224.026          48.000  
  22014028.461   115684524.540       -1223.933          39.000  
  21909535.750   115134875.412       -1223.906          51.000  
  21909381.727   115134696.490       -1224.043          51.000  
  21907662.609   115125581.421       -1224.013          38.000  
  21971828.268   115462774.051       -1224.104          39.000  
  21909531.499   115135187.586       -1223.944          45.000  
  21789548.254   114504889.869       -1223.900          39.000  
  22043919.527   115841592.983       -1223.993          39.000  
  21909404.482   115134918.006       -1223.942          51.000  
  21769038.560   114397117.243       -1224.060          38.000  
  21746179.642   114276978.372       -1223.938          38.000  
  21916631.646   115172571.917       -1224.061          36.000  
  21943989.753   115316440.429       -1224.160          38.000  
  21755265.578   114324627.938       -1223.766          38.000  
  21907368.581   115123999.837       -1223.740          34.000  
  21909412.744   115134716.681       -1223.925          50.000  
  21928460.785   115234855.932       -1223.922          35.000  
  21855781.394   114852923.916       -1223.657          38.000  
  21829408.428   114714325.913       -1224.030          38.000  
  22024293.289   115738440.300       -1223.943          34.000  
  21909361.280   115134698.329       -1223.872          48.000  
  21918493.368   115182475.498       -1223.939          37.000  
  21945454.636   115324184.953       -1223.803          39.000  
  21851090.881   114828272.963       -1224.170          40.000  
  22049487.786   115870847.943       -1224.052          40.000  
 25  8 12  9  9 49.2010000  0 28G 5G 1G30G 3G 4G17G19G 7G12G22G25G 6
                                G18G29G24G21G23G26G 8G32G15G14G31G 2
                                G28G11G 9G10
  21909395.614   115135007.006       -1223.954          49.000  
  21909454.071   115134918.838       -1224.013          48.000  
  22014075.103   115684769.344       -1223.907          39.000  
  21909581.769   115135120.211       -1223.946          51.000  
  21909427.795   115134941.283       -1224.002          51.000  
  21907709.187   115125826.213       -1224.015          38.000  
  21971874.820   115463018.848       -1224.053          39.000  
  21909578.078   115135432.381       -1223.961          45.000  
  21789594.803   114505134.668       -1224.116          38.000  
  22043966.140   115841837.771       -1223.812          39.000  
  22012039.107   115674045.7821      -1223.998          34.000  
  21909451.146   115135162.802       -1223.993          51.000  
  21769085.142   114397362.040       -1223.979          38.000  
  21746226.192   114277223.167       -1223.989          38.000  
  21916678.246   115172816.710       -1223.815          36.000  
  21944036.379   115316685.227       -1224.003          38.000  
  21755312.153   114324872.739       -1223.929          38.000  
  21907415.171   115124244.652       -1224.178          34.000  
  21909459.397   115134961.475       -1223.994          50.000  
  21928507.367   115235100.726       -1223.840          35.000  
  21855827.989   114853168.712       -1223.892          38.000  
  21829454.988   114714570.705       -1223.922          38.000  
  22024339.875   115738685.093       -1224.079          34.000  
  21909407.863   115134943.127       -1224.023          49.000  
  21918539.943   115182720.294       -1224.010          37.000  
  21945501.246   115324429.751       -1223.940          39.000  
  21851137.480   114828517.755       -1223.962          40.000  
  22049534.380   115871092.736       -1223.897          40.000  
 25  8 12  9  9 49.4010000  0 28G 5G 1G30G 3G 4G17G19G 7G12G22G25G 6
                                G18G29G24G21G23G26G 8G32G15G14G31G 2
                                G28G11G 9G10
  21909442.213   115135251.819       -1224.442          49.000  
  21909500.684   115135163.653       -1224.534          48.000  
  22014121.704   115685014.159       -1224.511          39.000  
  21909627.905   115135365.025       -1224.417          51.000  
  21909473.912   115135186.097       -1224.369          51.000  
  21907755.800   115126071.021       -1224.335          37.000  
  21971921.425   115463263.657       -1224.396          39.000  
  21909624.638   115135677.196       -1224.435          45.000  
  21789641.407   114505379.478       -1224.346          38.000  
  22044012.743   115842082.596       -1224.449          39.000  
  22012085.679   115674290.595       -1224.194          34.000  
  21909497.825   115135407.616       -1224.474          51.000  
  21769131.746   114397606.855       -1224.447          38.000  
  21746272.721   114277467.974       -1224.224          37.000  
  21916724.845   115173061.527       -1224.340          36.000  
  21944082.973   115316930.037       -1224.462          38.000  
  21755358.766   114325117.551       -1224.349          38.000  
  21907461.783   115124489.452       -1224.366          34.000  
  21909505.974   115135206.289       -1224.350          50.000  
  21928553.965   115235345.547       -1224.374          35.000  
  21855874.587   114853413.523       -1224.197          38.000  
  21829501.600   114714815.524       -1224.397          38.000  
  22024386.462   115738929.901       -1224.231          34.000  
  21909454.468   115135187.938       -1224.277          49.000  
  21918586.524   115182965.106       -1224.310          37.000  
  21945547.814   115324674.572       -1224.512          39.000  
  21851184.084   114828762.572       -1224.453          40.000  
  22049581.000   115871337.552       -1224.323          40.000  
 25  8 12  9  9 49.6010000  0 28G 5G 1G30G 3G 4G17G19G 7G12G22G25G 6
                                G18G29G24G21G23G26G 8G32G15G14G31G 2
                                G28G11G 9G10
  21909488.771   115135496.629       -1224.158          49.000  
  21909547.272   115135408.465       -1224.194          48.000  
  22014168.282   115685258.972       -1224.134          39.000  
  21909673.933   115135609.841       -1224.176          51.000  
  21909520.098   115135430.912       -1224.228          51.000  
  21907802.369   115126315.836       -1224.034          37.000  
  21971968.004   115463508.475       -1224.265          39.000  
  21909671.215   115135922.016       -1224.244          45.000  
  21789687.959   114505624.289       -1224.095          38.000  
  22044059.344   115842327.410       -1224.279          39.000  
  22012132.273   115674535.419       -1224.277          34.000  
  21909544.533   115135652.427       -1224.189          51.000  
  21769178.389   114397851.676       -1224.269          38.000  
  21746319.252   114277712.790       -1224.038          37.000  
  21916771.459   115173306.344       -1224.138          36.000  
  21944129.557   115317174.856       -1224.180          38.000  
  21755405.336   114325362.373       -1224.178          38.000  
  21907508.381   115124734.262       -1224.100          34.000  
  21909552.578   115135451.102       -1224.138          50.000  
  21928600.557   115235590.362       -1224.170          35.000  
  21855921.196   114853658.341       -1224.232          38.000  
  21829548.178   114715060.338       -1224.220          38.000  
  22024433.057   115739174.730       -1224.305          34.000  
  21909501.065   115135432.755       -1224.247          49.000  
  21918633.094   115183209.921       -1224.032          37.000  
  21945594.361   115324919.381       -1224.238          39.000  
  21851230.615   114829007.382       -1224.224          40.000  
  22049627.595   115871582.369       -1224.201          40.000  
 25  8 12  9  9 49.8010000  0 28G 5G 1G30G 3G 4G17G19G 7G12G22G25G 6
                                G18G29G24G21G23G26G 8G32G15G14G31G 2
                                G28G11G 9G10
  21909535.368   115135741.446       -1223.944          49.000  
  21909593.849   115135653.284       -1224.070          48.000  
  22014214.852   115685503.775       -1224.029          39.000  
  21909719.699   115135854.653       -1223.973          51.000  
  21909566.797   115135675.725       -1223.970          51.000  
  21907848.921   115126560.659       -1223.834          37.000  
  21972014.626   115463753.296       -1224.070          39.000  
  21909717.795   115136166.828       -1223.997          45.000  
  21789734.477   114505869.107       -1223.907          38.000  
  22044105.912   115842572.208       -1223.983          39.000  
  22012178.785   115674780.229       -1224.085          34.000  
  21909591.262   115135897.240       -1223.963          51.000  
  21769224.995   114398096.498       -1224.147          38.000  
  21746365.844   114277957.614       -1223.873          37.000  
  21916818.026   115173551.154       -1224.222          36.000  
  21944176.136   115317419.674       -1224.110          38.000  
  21755451.900   114325607.176       -1224.042          38.000  
  21907554.961   115124979.078       -1223.949          34.000  
  21909599.158   115135695.914       -1223.879          50.000  
  21928647.123   115235835.189       -1224.063          35.000  
  21855967.820   114853903.146       -1223.809          38.000  
  21829594.751   114715305.144       -1224.061          38.000  
  22024479.589   115739419.528       -1223.889          34.000  
  21909547.645   115135677.567       -1223.932          49.000  
  21918679.672   115183454.747       -1224.114          37.000  
  21945640.952   115325164.176       -1223.813          39.000  
  21851277.192   114829252.209       -1224.048          40.000  
  22049674.156   115871827.176       -1224.010          40.000  
 25  8 12  9  9 50.0010000  0 28G 5G 1G30G 3G 4G17G19G 7G12G22G25G 6
                                G18G29G24G21G23G26G 8G32G15G14G31G 2
                                G28G11G 9G10
  21909581.979   115135986.284       -1224.178          49.000  
  21909640.457   115135898.113       -1224.049          48.000  
  22014261.457   115685748.609       -1224.138          39.000  
  21909765.647   115136099.486       -1224.093          51.000  
  21909613.599   115135920.563       -1224.144          51.000  
  21907895.516   115126805.493       -1224.015          37.000  
  21972061.197   115463998.129       -1224.255          39.000  
  21909764.467   115136411.665       -1224.145          45.000  
  21789781.081   114506113.941       -1224.174          38.000  
  22044152.450   115842817.043       -1224.038          39.000  
  22012225.358   115675025.067       -1224.205          34.000  
  21909637.967   115136142.077       -1224.125          51.000  
  21769271.599   114398341.328       -1224.082          38.000  
  21746412.481   114278202.451       -1224.166          38.000  
  21916864.639   115173795.978       -1223.843          36.000  
  21944222.765   115317664.508       -1224.186          38.000  
  21755498.515   114325852.013       -1224.105          38.000  
  21907601.545   115125223.921       -1224.167          35.000  
  21909645.815   115135940.752       -1224.138          50.000  
  21928693.743   115236080.021       -1223.975          35.000  
  21856014.394   114854147.992       -1224.164          38.000  
  21829641.372   114715549.978       -1224.058          38.000  
  22024526.172   115739664.361       -1224.069          35.000  
  21909594.231   115135922.404       -1224.158          49.000  
  21918726.296   115183699.583       -1224.138          37.000  
  21945687.490   115325409.013       -1223.997          39.000  
  21851323.830   114829497.035       -1224.067          40.000  
  22049720.715   115872072.011       -1224.119          40.000  
 25  8 12  9  9 50.2010000  0 28G 5G 1G30G 3G 4G17G19G 7G12G22G25G 6
                                G18G29G24G21G23G26G 8G32G15G14G31G 2
                                G28G11G 9G10
  21909628.583   115136231.100       -1224.274          49.000  
  21909687.081   115136142.941       -1224.347          48.000  
  22014308.043   115685993.433       -1224.351          39.000  
  21909811.624   115136344.306       -1224.247          51.000  
  21909660.387   115136165.379       -1224.287          51.000  
  21907942.097   115127050.314       -1224.240          37.000  
  21972107.835   115464242.941       -1224.366          39.000  
  21909811.092   115136656.479       -1224.268          45.000  
  21789827.711   114506358.762       -1224.404          38.000  
  22044198.974   115843061.866       -1224.210          39.000  
  22012271.874   115675269.883       -1224.320          34.000  
  21909684.699   115136386.896       -1224.291          50.000  
  21769318.177   114398586.151       -1224.377          37.000  
  21746459.055   114278447.271       -1224.283          38.000  
  21916911.259   115174040.806       -1224.389          36.000  
  21944269.388   115317909.321       -1224.236          38.000  
  21755545.102   114326096.827       -1224.263          38.000  
  21907648.155   115125468.738       -1224.383          35.000  
  21909692.435   115136185.570       -1224.259          49.000  
  21928740.331   115236324.840       -1224.349          36.000  
  21856060.978   114854392.808       -1224.312          38.000  
  21829687.967   114715794.799       -1224.253          38.000  
  22024572.760   115739909.179       -1224.207          35.000  
  21909640.816   115136167.215       -1224.183          49.000  
  21918772.899   115183944.397       -1224.287          37.000  
  21945734.104   115325653.830       -1224.162          39.000  
  21851370.426   114829741.857       -1224.279          40.000  
  22049767.341   115872316.831       -1224.295          40.000  
 25  8 12  9  9 50.4010000  0 28G 5G 1G30G 3G 4G17G19G 7G12G22G25G 6
                                G18G29G24G21G23G26G 8G32G15G14G31G 2
                                G28G11G 9G10
  21909675.169   115136475.950       -1224.159          49.000  
  21909733.688   115136387.787       -1224.240          48.000  
  22014354.604   115686238.273       -1224.056          38.000  
  21909857.675   115136589.156       -1224.153          51.000  
  21909707.142   115136410.226       -1224.147          51.000  
  21907988.698   115127295.169       -1224.148          37.000  
  21972154.429   115464487.788       -1224.208          39.000  
  21909857.690   115136901.328       -1224.173          45.000  
  21789874.332   114506603.603       -1224.031          38.000  
  22044245.568   115843306.710       -1224.134          39.000  
  22012318.447   115675514.727       -1224.065          34.000  
  21909731.377   115136631.744       -1224.125          50.000  
  21769364.769   114398830.993       -1224.172          37.000  
  21746505.664   114278692.120       -1224.155          38.000  
  21916957.827   115174285.642       -1224.128          36.000  
  21944315.962   115318154.174       -1224.243          38.000  
  21755591.757   114326341.678       -1224.176          38.000  
  21907694.739   115125713.580       -1224.126          35.000  
  21909739.033   115136430.419       -1224.106          49.000  
  21928786.968   115236569.685       -1224.019          36.000  
  21856107.585   114854637.663       -1224.347          38.000  
  21829734.552   114716039.638       -1224.008          38.000  
  22024619.350   115740154.031       -1224.065          35.000  
  21909687.400   115136412.069       -1224.186          49.000  
  21918819.475   115184189.250       -1224.193          37.000  
  21945780.663   115325898.686       -1224.143          39.000  
  21851416.996   114829986.703       -1224.130          40.000  
  22049813.912   115872561.678       -1224.073          40.000  
 25  8 12  9  9 50.6010000  0 28G 5G 1G30G 3G 4G17G19G 7G12G22G25G 6
                                G18G29G24G21G23G26G 8G32G15G14G31G 2
                                G28G11G 9G10
  21909721.773   115136720.762       -1224.122          49.000  
  21909780.288   115136632.599       -1224.126          48.000  
  22014401.187   115686483.101       -1224.288          38.000  
  21909903.736   115136833.969       -1224.087          51.000  
  21909753.917   115136655.041       -1224.078          51.000  
  21908035.337   115127539.968       -1223.832          37.000  
  21972201.021   115464732.594       -1223.961          39.000  
  21909904.282   115137146.137       -1224.061          45.000  
  21789920.982   114506848.429       -1224.236          38.000  
  22044292.184   115843551.523       -1224.067          39.000  
  22012365.121   115675759.531       -1223.897          34.000  
  21909778.116   115136876.559       -1224.106          50.000  
  21769411.344   114399075.803       -1224.005          37.000  
  21746552.262   114278936.930       -1224.259          38.000  
  21917004.437   115174530.472       -1224.133          36.000  
  21944362.539   115318398.993       -1224.171          38.000  
  21755638.339   114326586.490       -1223.955          38.000  
  21907741.382   115125958.404       -1224.260          35.000  
  21909785.642   115136675.232       -1224.080          49.000  
  21928833.669   115236814.526       -1224.693          36.000  
  21856154.169   114854882.459       -1223.890          38.000  
  21829781.142   114716284.452       -1223.973          38.000  
  22024665.928   115740398.841       -1224.143          35.000  
  21909733.994   115136656.879       -1224.081          49.000  
  21918866.070   115184434.059       -1224.038          37.000  
  21945827.259   115326143.509       -1224.473          39.000  
  21851463.594   114830231.517       -1224.100          40.000  
  22049860.488   115872806.491       -1224.104          40.000  
 25  8 12  9  9 50.8010000  0 28G 5G 1G30G 3G 4G17G19G 7G12G22G25G 6
                                G18G29G24G21G23G26G 8G32G15G14G31G 2
                                G28G11G 9G10
  21909768.397   115136965.598       -1224.231          49.000  
  21909826.850   115136877.433       -1224.251          48.000  
  22014447.797   115686727.933       -1224.264          38.000  
  21909950.234   115137078.807       -1224.281          51.000  
  21909800.690   115136899.877       -1224.290          51.000  
  21908081.951   115127784.804       -1224.530          37.000  
  21972247.560   115464977.436       -1224.453          39.000  
  21909950.851   115137390.972       -1224.257          45.000  
  21789967.607   114507093.265       -1224.222          38.000  
  22044338.702   115843796.357       -1224.270          39.000  
  22012411.677   115676004.365       -1224.407          34.000  
  21909824.817   115137121.394       -1224.255          50.000  
  21769457.924   114399320.637       -1224.309          37.000  
  21746598.887   114279181.764       -1224.304          38.000  
  21917051.050   115174775.312       -1224.472          36.000  
  21944409.070   115318643.827       -1224.220          38.000  
  21755684.925   114326831.323       -1224.305          38.000  
  21907787.975   115126203.229       -1224.189          35.000  
  21909832.250   115136920.067       -1224.322          49.000  
  21928880.282   115237059.362       -1224.052          36.000  
  21856200.773   114855127.300       -1224.460          38.000  
  21829827.742   114716529.290       -1224.191          37.000  
  22024712.523   115740643.677       -1224.309          36.000  
  21909780.596   115136901.715       -1224.271          49.000  
  21918912.647   115184678.885       -1224.263          37.000  
  21945873.875   115326388.343       -1224.169          39.000  
  21851510.204   114830476.354       -1224.307          40.000  
  22049907.097   115873051.326       -1224.350          40.000  
 25  8 12  9  9 51.0010000  0 28G 5G 1G30G 3G 4G17G19G 7G12G22G25G 6
                                G18G29G24G21G23G26G 8G32G15G14G31G 2
                                G28G11G 9G10
  21909815.025   115137210.425       -1224.167          49.000  
  21909873.434   115137122.261       -1224.194          47.000  
  22014494.353   115686972.761       -1224.195          39.000  
  21909996.667   115137323.630       -1224.156          51.000  
  21909847.634   115137144.700       -1224.129          51.000  
  21908128.501   115128029.623       -1224.201          36.000  
  21972294.214   115465222.254       -1224.244          39.000  
  21909997.421   115137635.795       -1224.148          45.000  
  21790014.193   114507338.093       -1224.200          38.000  
  22044385.315   115844041.181       -1224.119          39.000  
  22012458.247   115676249.191       -1224.247          34.000  
  21909871.539   115137366.216       -1224.137          50.000  
  21769504.487   114399565.454       -1224.093          38.000  
  21746645.462   114279426.597       -1224.323          38.000  
  21917097.688   115175020.130       -1224.179          36.000  
  21944455.672   115318888.644       -1224.106          38.000  
  21755731.459   114327076.151       -1224.294          38.000  
  21907834.531   115126448.052       -1224.009          35.000  
  21909878.785   115137164.891       -1224.154          49.000  
  21928926.920   115237304.190       -1224.073          36.000  
  21856247.346   114855372.126       -1224.401          37.000  
  21829874.337   114716774.117       -1224.178          37.000  
  22024759.129   115740888.490       -1223.984          36.000  
  21909827.175   115137146.540       -1224.162          49.000  
  21918959.300   115184923.709       -1224.022          36.000  
  21945920.479   115326633.176       -1224.085          39.000  
  21851556.794   114830721.181       -1224.213          40.000  
  22049953.632   115873296.153       -1224.241          39.000  
 25  8 12  9  9 51.2010000  0 28G 5G 1G30G 3G 4G17G19G 7G12G22G25G 6
                                G18G29G24G21G23G26G 8G32G15G14G31G 2
                                G28G11G 9G10
  21909861.612   115137455.238       -1224.035          49.000  
  21909919.984   115137367.070       -1224.019          47.000  
  22014540.964   115687217.568       -1223.979          39.000  
  21910043.200   115137568.446       -1224.073          51.000  
  21909894.590   115137389.514       -1224.041          51.000  
  21908175.058   115128274.427       -1223.944          36.000  
  21972340.764   115465467.064       -1223.965          39.000  
  21910043.966   115137880.608       -1223.980          45.000  
  21790060.787   114507582.903       -1224.008          38.000  
  22044431.867   115844285.998       -1224.070          39.000  
  22012504.802   115676494.002       -1224.114          34.000  
  21909918.242   115137611.033       -1224.078          50.000  
  21769551.092   114399810.274       -1224.098          38.000  
  21746692.014   114279671.398       -1223.936          38.000  
  21917144.253   115175264.942       -1223.964          35.000  
  21944502.254   115319133.466       -1224.126          38.000  
  21755778.128   114327320.960       -1224.073          38.000  
  21907881.065   115126692.881       -1224.107          35.000  
  21909925.384   115137409.704       -1224.049          49.000  
  21928973.461   115237549.007       -1224.061          36.000  
  21856293.948   114855616.924       -1224.048          37.000  
  21829920.916   114717018.929       -1224.014          37.000  
  22024805.710   115741133.318       -1224.032          36.000  
  21909873.799   115137391.353       -1224.056          49.000  
  21919005.883   115185168.521       -1223.882          36.000  
  21945967.078   115326877.987       -1224.045          38.000  
  21851603.344   114830965.992       -1224.088          40.000  
  22050000.229   115873540.958       -1224.031          39.000  
 25  8 12  9  9 51.4010000  0 28G 5G 1G30G 3G 4G17G19G 7G12G22G25G 6
                                G18G29G24G21G23G26G 8G32G15G14G31G 2
                                G28G11G 9G10
  21909908.263   115137700.048       -1224.083          49.000  
  21909966.577   115137611.884       -1224.188          47.000  
  22014587.559   115687462.390       -1224.163          39.000  
  21910089.615   115137813.257       -1224.110          51.000  
  21909941.582   115137634.327       -1224.142          51.000  
  21908221.656   115128519.245       -1224.162          36.000  
  21972387.380   115465711.877       -1224.019          39.000  
  21910090.539   115138125.421       -1224.142          46.000  
  21790107.380   114507827.716       -1224.125          38.000  
  22044478.477   115844530.811       -1224.188          39.000  
  22012551.339   115676738.817       -1224.219          34.000  
  21909964.911   115137855.845       -1224.162          50.000  
  21769597.669   114400055.085       -1224.241          38.000  
  21746738.594   114279916.215       -1224.033          38.000  
  21917190.878   115175509.756       -1224.181          35.000  
  21944548.887   115319378.277       -1224.266          38.000  
  21755824.683   114327565.770       -1224.178          38.000  
  21907927.626   115126937.683       -1224.116          35.000  
  21909971.920   115137654.514       -1224.084          49.000  
  21929020.026   115237793.820       -1224.213          36.000  
  21856340.509   114855861.733       -1223.867          37.000  
  21829967.479   114717263.743       -1224.137          37.000  
  22024852.348   115741378.131       -1224.151          36.000  
  21909920.399   115137636.162       -1224.090          49.000  
  21919052.489   115185413.339       -1224.268          36.000  
  21946013.695   115327122.794       -1223.917          38.000  
  21851649.965   114831210.803       -1224.174          40.000  
  22050046.816   115873785.769       -1223.994          39.000  
 25  8 12  9  9 51.6010000  0 28G 5G 1G30G 3G 4G17G19G 7G12G22G25G 6
                                G18G29G24G21G23G26G 8G32G15G14G31G 2
                                G28G11G 9G10
  21909954.935   115137944.894       -1224.264          49.000  
  21910013.173   115137856.713       -1224.172          47.000  
  22014634.169   115687707.219       -1224.265          39.000  
  21910136.413   115138058.096       -1224.274          51.000  
  21909988.435   115137879.158       -1224.252          51.000  
  21908268.257   115128764.102       -1224.212          36.000  
  21972433.928   115465956.714       -1224.147          39.000  
  21910137.112   115138370.253       -1224.231          46.000  
  21790153.983   114508072.535       -1224.215          38.000  
  22044525.011   115844775.641       -1224.232          39.000  
  22012597.947   115676983.686       -1224.180          34.000  
  21910011.602   115138100.685       -1224.279          50.000  
  21769644.286   114400299.946       -1224.225          38.000  
  21746785.195   114280161.063       -1224.399          38.000  
  21917237.448   115175754.575       -1224.264          35.000  
  21944595.472   115319623.094       -1224.291          38.000  
  21755871.276   114327810.626       -1224.298          38.000  
  21907974.255   115127182.532       -1224.169          35.000  
  21910018.609   115137899.360       -1224.284          49.000  
  21929066.572   115238038.593       -1223.979          36.000  
  21856387.123   114856106.608       -1224.387          37.000  
  21830014.056   114717508.599       -1224.363          37.000  
  22024898.982   115741622.975       -1224.466          36.000  
  21909966.975   115137880.999       -1224.290          49.000  
  21919099.060   115185658.160       -1224.152          36.000  
  21946060.300   115327367.631       -1224.295          38.000  
  21851696.591   114831455.624       -1224.097          39.000  
  22050093.436   115874030.603       -1224.194          39.000  
 25  8 12  9  9 51.8010000  0 28G 5G 1G30G 3G 4G17G19G 7G12G22G25G 6
                                G18G29G24G21G23G26G 8G32G15G14G31G 2
                                G28G11G 9G10
  21910001.544   115138189.713       -1224.160          49.000  
  21910059.751   115138101.539       -1224.122          47.000  
  22014680.735   115687952.033       -1224.060          38.000  
  21910183.292   115138302.916       -1224.142          51.000  
  21910035.430   115138123.982       -1224.153          51.000  
  21908314.848   115129008.926       -1224.280          36.000  
  21972480.502   115466201.532       -1224.053          39.000  
  21910183.706   115138615.075       -1224.115          45.000  
  21790200.573   114508317.360       -1224.072          38.000  
  22044571.596   115845020.466       -1224.235          39.000  
  22012644.502   115677228.516       -1224.383          34.000  
  21910058.285   115138345.504       -1224.155          50.000  
  21769690.882   114400544.764       -1224.213          38.000  
  21746831.786   114280405.879       -1224.222          38.000  
  21917284.082   115175999.394       -1224.144          36.000  
  21944642.034   115319867.918       -1224.099          38.000  
  21755917.858   114328055.442       -1224.170          38.000  
  21908020.862   115127427.345       -1224.028          34.000  
  21910065.169   115138144.180       -1224.173          49.000  
  21929113.157   115238283.436       -1223.998          36.000  
  21856433.713   114856351.429       -1224.258          38.000  
  21830060.654   114717753.411       -1224.156          37.000  
  22024945.547   115741867.795       -1224.281          36.000  
  21910013.571   115138125.820       -1224.108          49.000  
  21919145.680   115185902.985       -1223.995          36.000  
  21946106.901   115327612.457       -1224.065          38.000  
  21851743.145   114831700.448       -1224.150          39.000  
  22050140.022   115874275.428       -1224.122          39.000  
 25  8 12  9  9 52.0010000  0 28G 5G 1G30G 3G 4G17G19G 7G12G22G25G 6
                                G18G29G24G21G23G26G 8G32G15G14G31G 2
                                G28G11G 9G10
  21910048.139   115138434.501       -1224.061          49.000  
  21910106.350   115138346.330       -1223.972          47.000  
  22014727.343   115688196.830       -1223.964          38.000  
  21910230.254   115138547.705       -1223.998          51.000  
  21910082.356   115138368.771       -1224.010          51.000  
  21908361.359   115129253.721       -1224.022          36.000  
  21972526.987   115466446.329       -1224.090          39.000  
  21910230.297   115138859.865       -1223.972          45.000  
  21790247.139   114508562.149       -1223.943          39.000  
  22044618.185   115845265.249       -1223.894          39.000  
  22012691.057   115677473.300       -1224.054          34.000  
  21910104.993   115138590.294       -1223.985          50.000  
  21769737.501   114400789.550       -1223.984          38.000  
  21746878.340   114280650.666       -1223.940          38.000  
  21917330.619   115176244.180       -1223.809          36.000  
  21944688.642   115320112.711       -1224.097          38.000  
  21755964.463   114328300.237       -1224.050          38.000  
  21908067.443   115127672.137       -1223.975          34.000  
  21910111.765   115138388.968       -1224.014          49.000  
  21929159.707   115238528.229       -1223.997          36.000  
  21856480.330   114856596.213       -1223.975          38.000  
  21830107.228   114717998.203       -1224.073          37.000  
  22024992.121   115742112.573       -1223.754          36.000  
  21910060.137   115138370.609       -1224.000          49.000  
  21919192.264   115186147.776       -1224.085          36.000  
  21946153.439   115327857.246       -1223.996          38.000  
  21851789.752   114831945.242       -1223.998          39.000  
  22050186.634   115874520.220       -1223.961          39.000  
 25  8 12  9  9 52.2010000  0 28G 5G 1G30G 3G 4G17G19G 7G12G22G25G 6
                                G18G29G24G21G23G26G 8G32G15G14G31G 2
                                G28G11G 9G10
  21910094.763   115138679.300       -1224.053          49.000  
  21910152.953   115138591.133       -1224.110          47.000  
  22014773.924   115688441.631       -1224.073          38.000  
  21910276.994   115138792.508       -1224.099          51.000  
  21910129.228   115138613.573       -1224.126          51.000  
  21908407.930   115129498.512       -1224.129          36.000  
  21972573.602   115466691.128       -1223.967          39.000  
  21910276.893   115139104.667       -1224.046          45.000  
  21790293.687   114508806.954       -1224.136          39.000  
  22044664.800   115845510.056       -1224.042          39.000  
  22012737.566   115677718.095       -1224.044          34.000  
  21910151.689   115138835.098       -1224.150          50.000  
  21769784.042   114401034.357       -1224.248          38.000  
  21746924.915   114280895.467       -1224.133          38.000  
  21917377.197   115176488.988       -1224.052          36.000  
  21944735.200   115320357.508       -1224.172          38.000  
  21756011.024   114328545.034       -1224.143          38.000  
  21908114.037   115127916.939       -1223.843          34.000  
  21910158.337   115138633.768       -1224.074          49.000  
  21929206.267   115238773.036       -1224.145          36.000  
  21856526.921   114856841.012       -1224.048          38.000  
  21830153.795   114718243.000       -1224.109          38.000  
  22025038.708   115742357.392       -1224.207          36.000  
  21910106.715   115138615.409       -1224.086          48.000  
  21919238.826   115186392.575       -1224.087          36.000  
  21946200.043   115328102.041       -1224.143          38.000  
  21851836.385   114832190.042       -1224.030          39.000  
  22050233.275   115874765.028       -1224.220          39.000  
 25  8 12  9  9 52.4010000  0 28G 5G 1G30G 3G 4G17G19G 7G12G22G25G 6
                                G18G29G24G21G23G26G 8G32G15G14G31G 2
                                G28G11G 9G10
  21910141.389   115138924.111       -1224.160          49.000  
  21910199.547   115138835.942       -1224.142          47.000  
  22014820.527   115688686.447       -1224.165          38.000  
  21910323.595   115139037.317       -1224.195          51.000  
  21910175.948   115138858.383       -1224.188          51.000  
  21908454.492   115129743.326       -1224.187          36.000  
  21972620.178   115466935.939       -1224.077          39.000  
  21910323.470   115139349.484       -1224.293          45.000  
  21790340.302   114509051.768       -1224.331          39.000  
  22044711.352   115845754.871       -1224.300          39.000  
  22012784.144   115677962.896       -1223.876          34.000  
  21910198.341   115139079.905       -1224.183          50.000  
  21769830.651   114401279.145       -1223.783          38.000  
  21746971.509   114281140.268       -1224.065          38.000  
  21917423.759   115176733.798       -1224.129          36.000  
  21944781.727   115320602.330       -1224.409          38.000  
  21756057.633   114328789.837       -1224.131          38.000  
  21908160.663   115128161.748       -1224.177          34.000  
  21910204.954   115138878.578       -1224.149          49.000  
  21929252.883   115239017.853       -1224.344          36.000  
  21856573.525   114857085.822       -1224.205          38.000  
  21830200.361   114718487.808       -1224.153          38.000  
  22025085.291   115742602.202       -1224.458          36.000  
  21910153.301   115138860.224       -1224.275          48.000  
  21919285.399   115186637.398       -1224.404          36.000  
  21946246.625   115328346.860       -1224.332          38.000  
  21851882.966   114832434.867       -1224.379          39.000  
  22050279.889   115875009.834       -1224.196          39.000  
 25  8 12  9  9 52.6010000  0 28G 5G 1G30G 3G 4G17G19G 7G12G22G25G 6
                                G18G29G24G21G23G26G 8G32G15G14G31G 2
                                G28G11G 9G10
  21910187.989   115139168.888       -1223.866          49.000  
  21910246.113   115139080.719       -1223.880          47.000  
  22014867.108   115688931.215       -1223.802          38.000  
  21910370.373   115139282.094       -1223.913          51.000  
  21910222.263   115139103.162       -1223.862          51.000  
  21908501.083   115129988.103       -1223.736          36.000  
  21972666.760   115467180.719       -1223.936          39.000  
  21910370.044   115139594.260       -1223.802          45.000  
  21790386.895   114509296.554       -1223.792          38.000  
  22044757.925   115845999.647       -1223.816          39.000  
  22012830.668   115678207.675       -1224.101          34.000  
  21910245.020   115139324.684       -1223.881          50.000  
  21769877.203   114401523.931       -1224.001          38.000  
  21747018.089   114281385.049       -1224.067          38.000  
  21917470.340   115176978.581       -1223.771          36.000  
  21944828.312   115320847.106       -1223.688          38.000  
  21756104.159   114329034.614       -1223.961          38.000  
  21908207.289   115128406.523       -1224.112          34.000  
  21910251.534   115139123.355       -1223.829          49.000  
  21929299.451   115239262.627       -1223.824          35.000  
  21856620.062   114857330.598       -1223.768          38.000  
  21830246.896   114718732.587       -1223.934          37.000  
  22025131.829   115742846.980       -1223.907          36.000  
  21910199.910   115139105.006       -1223.878          48.000  
  21919332.016   115186882.170       -1223.719          37.000  
  21946293.210   115328591.647       -1223.767          38.000  
  21851929.551   114832679.636       -1223.693          39.000  
  22050326.476   115875254.607       -1223.782          39.000  
 25  8 12  9  9 52.8010000  0 28G 5G 1G30G 3G 4G17G19G 7G12G22G25G 6
                                G18G29G24G21G23G26G 8G32G15G14G31G 2
                                G28G11G 9G10
  21910234.617   115139413.682       -1223.871          49.000  
  21910292.669   115139325.513       -1223.873          47.000  
  22014913.685   115689176.016       -1223.929          38.000  
  21910417.264   115139526.889       -1223.904          51.000  
  21910268.434   115139347.959       -1223.924          51.000  
  21908547.653   115130232.906       -1223.867          36.000  
  21972713.348   115467425.514       -1223.918          39.000  
  21910416.669   115139839.065       -1223.908          45.000  
  21790433.514   114509541.352       -1223.965          38.000  
  22044804.443   115846244.445       -1223.939          39.000  
  22012877.268   115678452.465       -1223.943          34.000  
  21910291.666   115139569.485       -1223.916          50.000  
  21769923.786   114401768.714       -1223.915          38.000  
  21747064.683   114281629.837       -1223.889          38.000  
  21917516.954   115177223.373       -1223.792          36.000  
  21944874.945   115321091.914       -1223.968          38.000  
  21756150.748   114329279.408       -1223.885          38.000  
  21908253.912   115128651.311       -1223.855          35.000  
  21910298.080   115139368.155       -1223.922          49.000  
  21929346.012   115239507.430       -1223.931          35.000  
  21856666.641   114857575.391       -1223.726          38.000  
  21830293.427   114718977.385       -1223.977          37.000  
  22025178.364   115743091.775       -1223.883          36.000  
  21910246.492   115139349.802       -1223.898          49.000  
  21919378.608   115187126.976       -1223.796          37.000  
  21946339.761   115328836.437       -1223.703          38.000  
  21851976.125   114832924.447       -1223.969          39.000  
  22050373.034   115875499.411       -1223.935          39.000  
 25  8 12  9  9 53.0010000  0 28G 5G 1G30G 3G 4G17G19G 7G12G22G25G 6
                                G18G29G24G21G23G26G 8G32G15G14G31G 2
                                G28G11G 9G10
  21910281.196   115139658.468       -1223.967          49.000  
  21910339.264   115139570.301       -1224.013          47.000  
  22014960.254   115689420.800       -1223.942          39.000  
  21910464.528   115139771.673       -1224.022          51.000  
  21910314.528   115139592.745       -1223.993          51.000  
  21908594.223   115130477.691       -1224.194          36.000  
  21972759.992   115467670.299       -1223.913          39.000  
  21910463.265   115140083.854       -1224.064          45.000  
  21790480.104   114509786.136       -1223.993          38.000  
  22044851.014   115846489.226       -1223.818          39.000  
  22012923.846   115678697.245       -1223.678          33.000  
  21910338.295   115139814.267       -1223.988          50.000  
  21769970.337   114402013.507       -1223.898          38.000  
  21747111.203   114281874.617       -1224.021          38.000  
  21917563.531   115177468.163       -1223.843          36.000  
  21944921.527   115321336.699       -1223.980          38.000  
  21756197.313   114329524.200       -1223.932          38.000  
  21908300.472   115128896.106       -1223.920          35.000  
  21910344.642   115139612.940       -1224.033          49.000  
  21929392.630   115239752.214       -1223.981          35.000  
  21856713.154   114857820.180       -1224.113          38.000  
  21830340.000   114719222.163       -1223.984          37.000  
  22025224.958   115743336.560       -1223.812          36.000  
  21910293.066   115139594.588       -1224.027          49.000  
  21919425.258   115187371.758       -1223.952          37.000  
  21946386.350   115329081.227       -1224.028          38.000  
  21852022.692   114833169.227       -1223.995          39.000  
  22050419.615   115875744.188       -1223.931          39.000  
 25  8 12  9  9 53.2010000  0 28G 5G 1G30G 3G 4G17G19G 7G12G22G25G 6
                                G18G29G24G21G23G26G 8G32G15G14G31G 2
                                G28G11G 9G10
  21910327.780   115139903.266       -1224.096          49.000  
  21910385.847   115139815.096       -1224.071          47.000  
  22015006.857   115689665.604       -1224.141          39.000  
  21910512.072   115140016.473       -1224.055          51.000  
  21910360.628   115139837.540       -1224.052          51.000  
  21908640.781   115130722.481       -1224.025          36.000  
  21972806.563   115467915.098       -1224.009          39.000  
  21910509.858   115140328.654       -1224.087          46.000  
  21790526.672   114510030.930       -1223.992          38.000  
  22044897.537   115846734.034       -1224.080          39.000  
  22012970.415   115678942.051       -1224.094          33.000  
  21910384.783   115140059.067       -1224.016          51.000  
  21770016.949   114402258.309       -1224.149          38.000  
  21747157.805   114282119.412       -1223.975          38.000  
  21917610.114   115177712.958       -1223.893          36.000  
  21944968.049   115321581.500       -1224.075          39.000  
  21756243.968   114329768.999       -1224.150          38.000  
  21908347.035   115129140.901       -1224.010          35.000  
  21910391.216   115139857.737       -1224.037          49.000  
  21929439.166   115239997.023       -1224.152          35.000  
  21856759.765   114858064.971       -1224.045          38.000  
  21830386.596   114719466.967       -1224.130          37.000  
  22025271.529   115743581.370       -1224.238          36.000  
  21910339.653   115139839.386       -1224.029          49.000  
  21919471.840   115187616.552       -1223.979          37.000  
  21946432.918   115329326.020       -1224.108          38.000  
  21852069.294   114833414.026       -1224.058          39.000  
  22050466.219   115875988.986       -1223.937          39.000  
 25  8 12  9  9 53.4010000  0 28G 5G 1G30G 3G 4G17G19G 7G12G22G25G 6
                                G18G29G24G21G23G26G 8G32G15G14G31G 2
                                G28G11G 9G10
  21910374.402   115140148.091       -1223.992          49.000  
  21910432.418   115140059.915       -1224.024          47.000  
  22015053.457   115689910.413       -1223.983          39.000  
  21910558.728   115140261.305       -1224.082          51.000  
  21910406.832   115140082.367       -1224.020          51.000  
  21908687.420   115130967.286       -1223.858          36.000  
  21972853.175   115468159.910       -1224.021          39.000  
  21910556.420   115140573.481       -1224.111          45.000  
  21790573.227   114510275.770       -1224.038          38.000  
  22044944.138   115846978.866       -1224.070          39.000  
  22013016.950   115679186.898       -1223.970          33.000  
  21910431.418   115140303.892       -1224.042          51.000  
  21770063.557   114402503.119       -1223.989          37.000  
  21747204.368   114282364.261       -1224.078          38.000  
  21917656.736   115177957.804       -1224.063          36.000  
  21945014.615   115321826.283       -1224.014          39.000  
  21756290.509   114330013.804       -1224.004          38.000  
  21908393.604   115129385.749       -1224.038          35.000  
  21910437.800   115140102.567       -1224.038          50.000  
  21929485.759   115240241.833       -1224.093          35.000  
  21856806.337   114858309.795       -1223.951          38.000  
  21830433.145   114719711.792       -1224.017          38.000  
  22025318.110   115743826.163       -1224.066          36.000  
  21910386.235   115140084.206       -1224.039          49.000  
  21919518.478   115187861.362       -1223.898          37.000  
  21946479.518   115329570.810       -1223.883          38.000  
  21852115.926   114833658.851       -1224.177          39.000  
  22050512.789   115876233.820       -1224.111          39.000  
 25  8 12  9  9 53.6010000  0 28G 5G 1G30G 3G 4G17G19G 7G12G22G25G 6
                                G18G29G24G21G23G26G 8G32G15G14G31G 2
                                G28G11G 9G10
  21910421.007   115140392.901       -1224.261          49.000  
  21910479.015   115140304.723       -1224.161          47.000  
  22015100.064   115690155.224       -1224.259          39.000  
  21910605.328   115140506.112       -1224.254          51.000  
  21910452.943   115140327.180       -1224.258          51.000  
  21908734.007   115131212.108       -1224.201          36.000  
  21972899.743   115468404.720       -1224.252          39.000  
  21910603.002   115140818.290       -1224.287          45.000  
  21790619.792   114510520.582       -1224.230          38.000  
  22044990.715   115847223.670       -1224.268          40.000  
  22013063.495   115679431.706       -1224.326          33.000  
  21910477.954   115140548.701       -1224.261          51.000  
  21770110.127   114402747.926       -1224.166          37.000  
  21747250.978   114282609.070       -1224.354          38.000  
  21917703.351   115178202.609       -1224.171          36.000  
  21945061.200   115322071.102       -1224.164          39.000  
  21756337.099   114330258.618       -1224.235          38.000  
  21908440.210   115129630.562       -1224.424          35.000  
  21910484.419   115140347.374       -1224.266          50.000  
  21929532.375   115240486.641       -1224.146          36.000  
  21856852.922   114858554.611       -1224.318          38.000  
  21830479.717   114719956.600       -1224.277          38.000  
  22025364.688   115744070.975       -1224.136          36.000  
  21910432.825   115140329.015       -1224.208          49.000  
  21919564.995   115188106.176       -1224.245          37.000  
  21946526.110   115329815.631       -1224.197          38.000  
  21852162.509   114833903.655       -1224.204          39.000  
  22050559.354   115876478.624       -1224.295          40.000  
 25  8 12  9  9 53.8010000  0 28G 5G 1G30G 3G 4G17G19G 7G12G22G25G 6
                                G18G29G24G21G23G26G 8G32G15G14G31G 2
                                G28G11G 9G10
  21910467.613   115140637.714       -1224.072          49.000  
  21910525.618   115140549.541       -1224.177          47.000  
  22015146.606   115690400.036       -1224.263          38.000  
  21910651.801   115140750.924       -1224.159          51.000  
  21910499.155   115140571.990       -1224.146          51.000  
  21908780.630   115131456.923       -1224.177          36.000  
  21972946.353   115468649.532       -1224.192          39.000  
  21910649.631   115141063.100       -1224.139          45.000  
  21790666.369   114510765.396       -1224.242          38.000  
  22045037.324   115847468.487       -1224.309          40.000  
  22013110.068   115679676.513       -1224.117          33.000  
  21910524.549   115140793.512       -1224.151          51.000  
  21770156.713   114402992.742       -1224.219          37.000  
  21747297.545   114282853.878       -1223.975          38.000  
  21917749.942   115178447.416       -1224.074          36.000  
  21945107.794   115322315.916       -1224.304          39.000  
  21756383.676   114330503.432       -1224.224          38.000  
  21908486.864   115129875.372       -1224.175          35.000  
  21910530.966   115140592.186       -1224.119          50.000  
  21929578.984   115240731.455       -1223.945          36.000  
  21856899.494   114858799.417       -1223.910          38.000  
  21830526.313   114720201.408       -1223.967          38.000  
  22025411.289   115744315.788       -1224.317          35.000  
  21910479.393   115140573.829       -1224.132          49.000  
  21919611.571   115188350.990       -1224.158          36.000  
  21946572.675   115330060.441       -1223.942          38.000  
  21852209.113   114834148.461       -1224.047          39.000  
  22050605.891   115876723.438       -1224.125          40.000  
 25  8 12  9  9 54.0010000  0 28G 5G 1G30G 3G 4G17G19G 7G12G22G25G 6
                                G18G29G24G21G23G26G 8G32G15G14G31G 2
                                G28G11G 9G10
  21910514.227   115140882.528       -1223.923          49.000  
  21910572.175   115140794.351       -1223.918          48.000  
  22015193.169   115690644.839       -1223.705          38.000  
  21910698.291   115140995.737       -1223.863          51.000  
  21910545.472   115140816.799       -1223.873          51.000  
  21908827.220   115131701.733       -1223.854          36.000  
  21972992.930   115468894.340       -1223.880          39.000  
  21910696.218   115141307.906       -1223.843          45.000  
  21790712.953   114511010.209       -1223.949          38.000  
  22045083.873   115847713.292       -1223.879          40.000  
  22013156.598   115679921.320       -1223.896          33.000  
  21910571.188   115141038.325       -1223.883          51.000  
  21770203.251   114403237.549       -1223.779          37.000  
  21747344.176   114283098.702       -1223.984          38.000  
  21917796.559   115178692.230       -1223.867          36.000  
  21945154.348   115322560.722       -1223.794          39.000  
  21756430.253   114330748.233       -1223.937          37.000  
  21908533.486   115130120.190       -1224.160          35.000  
  21910577.561   115140837.003       -1223.966          50.000  
  21929625.520   115240976.277       -1224.065          36.000  
  21856946.044   114859044.241       -1224.037          38.000  
  21830572.905   114720446.227       -1223.896          38.000  
  22025457.839   115744560.598       -1223.837          35.000  
  21910525.964   115140818.641       -1223.929          49.000  
  21919658.149   115188595.803       -1223.987          36.000  
  21946619.236   115330305.263       -1223.930          38.000  
  21852255.706   114834393.273       -1223.823          39.000  
  22050652.465   115876968.251       -1223.908          40.000  
 25  8 12  9  9 54.2010000  0 28G 5G 1G30G 3G 4G17G19G 7G12G22G25G 6
                                G18G29G24G21G23G26G 8G32G15G14G31G 2
                                G28G11G 9G10
  21910560.816   115141127.346       -1224.087          49.000  
  21910618.773   115141039.168       -1224.073          48.000  
  22015239.760   115690889.668       -1224.219          38.000  
  21910745.044   115141240.554       -1224.156          51.000  
  21910591.667   115141061.617       -1224.034          51.000  
  21908873.779   115131946.537       -1223.941          36.000  
  21973039.477   115469139.172       -1224.378          39.000  
  21910742.790   115141552.720       -1224.082          45.000  
  21790759.539   114511255.010       -1223.687          38.000  
  22045130.467   115847958.119       -1224.295          40.000  
  22013203.120   115680166.136       -1223.953          33.000  
  21910617.671   115141283.140       -1224.128          51.000  
  21770249.829   114403482.392       -1224.542          37.000  
  21747390.744   114283343.488       -1223.672          38.000  
  21917843.169   115178937.045       -1224.029          36.000  
  21945201.038   115322805.557       -1224.406          39.000  
  21756476.813   114330993.060       -1224.178          37.000  
  21908580.090   115130364.979       -1223.812          35.000  
  21910624.154   115141081.809       -1223.992          50.000  
  21929672.097   115241221.075       -1223.904          36.000  
  21856992.626   114859289.036       -1223.896          38.000  
  21830619.544   114720691.036       -1223.906          38.000  
  22025504.391   115744805.395       -1223.873          35.000  
  21910572.529   115141063.456       -1224.162          49.000  
  21919704.761   115188840.599       -1223.885          36.000  
  21946665.854   115330550.074       -1224.243          39.000  
  21852302.284   114834638.095       -1224.148          39.000  
  22050699.008   115877213.068       -1224.162          40.000  
 25  8 12  9  9 54.4010000  0 28G 5G 1G30G 3G 4G17G19G 7G12G22G25G 6
                                G18G29G24G21G23G26G 8G32G15G14G31G 2
                                G28G11G 9G10
  21910607.424   115141372.182       -1224.216          49.000  
  21910665.349   115141284.003       -1224.192          47.000  
  22015286.330   115691134.506       -1224.070          38.000  
  21910791.436   115141485.390       -1224.171          51.000  
  21910638.270   115141306.454       -1224.274          51.000  
  21908920.367   115132191.361       -1224.081          36.000  
  21973086.100   115469384.011       -1224.209          39.000  
  21910789.370   115141797.559       -1224.250          45.000  
  21790806.095   114511499.837       -1224.391          38.000  
  22045177.078   115848202.957       -1224.154          40.000  
  22013249.654   115680410.970       -1224.365          33.000  
  21910664.260   115141527.972       -1224.242          51.000  
  21770296.432   114403727.229       -1223.893          37.000  
  21747437.315   114283588.327       -1224.396          38.000  
  21917889.841   115179181.888       -1224.241          36.000  
  21945247.632   115323050.393       -1224.155          39.000  
  21756523.444   114331237.897       -1224.156          37.000  
  21908626.675   115130609.806       -1224.339          34.000  
  21910670.774   115141326.645       -1224.369          50.000  
  21929718.646   115241465.902       -1224.521          35.000  
  21857039.248   114859533.875       -1224.308          38.000  
  21830666.144   114720935.867       -1224.175          38.000  
  22025551.003   115745050.236       -1224.168          37.000  
  21910619.109   115141308.286       -1224.192          49.000  
  21919751.328   115189085.441       -1224.183          36.000  
  21946712.442   115330794.915       -1224.230          39.000  
  21852348.927   114834882.929       -1224.199          39.000  
  22050745.568   115877457.903       -1224.369          40.000  
 25  8 12  9  9 54.6010000  0 28G 5G 1G30G 3G 4G17G19G 7G12G22G25G 6
                                G18G29G24G21G23G26G 8G32G15G14G31G 2
                                G28G11G 9G10
  21910654.029   115141617.018       -1224.290          49.000  
  21910711.927   115141528.837       -1224.213          48.000  
  22015332.938   115691379.340       -1224.157          39.000  
  21910838.163   115141730.227       -1224.263          51.000  
  21910685.064   115141551.282       -1224.213          51.000  
  21908966.925   115132436.216       -1224.439          36.000  
  21973132.691   115469628.843       -1224.205          39.000  
  21910835.985   115142042.389       -1224.167          45.000  
  21790852.666   114511744.660       -1224.093          38.000  
  22045223.716   115848447.789       -1224.130          39.000  
  22013296.175   115680655.799       -1224.108          33.000  
  21910710.755   115141772.806       -1224.310          51.000  
  21770343.030   114403972.070       -1224.095          37.000  
  21747483.853   114283833.162       -1224.355          38.000  
  21917936.428   115179426.719       -1224.341          36.000  
  21945294.216   115323295.221       -1224.161          39.000  
  21756570.004   114331482.733       -1224.250          37.000  
  21908673.321   115130854.625       -1223.983          34.000  
  21910717.371   115141571.473       -1224.218          50.000  
  21929765.219   115241710.720       -1224.229          35.000  
  21857085.797   114859778.710       -1224.426          38.000  
  21830712.789   114721180.700       -1224.182          38.000  
  22025597.595   115745295.066       -1224.201          37.000  
  21910665.699   115141553.121       -1224.284          49.000  
  21919797.933   115189330.279       -1224.334          36.000  
  21946759.046   115331039.750       -1224.370          39.000  
  21852395.504   114835127.764       -1224.252          40.000  
  22050792.201   115877702.738       -1224.328          40.000  
 25  8 12  9  9 54.8010000  0 28G 5G 1G30G 3G 4G17G19G 7G12G22G25G 6
                                G18G29G24G21G23G26G 8G32G15G14G31G 2
                                G28G11G 9G10
  21910700.687   115141861.831       -1224.240          49.000  
  21910758.481   115141773.655       -1224.219          48.000  
  22015379.518   115691624.156       -1224.212          39.000  
  21910884.650   115141975.039       -1224.245          51.000  
  21910731.952   115141796.096       -1224.248          51.000  
  21909013.590   115132681.020       -1224.282          36.000  
  21973179.219   115469873.662       -1224.222          39.000  
  21910882.577   115142287.210       -1224.283          45.000  
  21790899.250   114511989.483       -1224.266          38.000  
  22045270.264   115848692.608       -1224.247          39.000  
  22013342.719   115680900.612       -1224.172          33.000  
  21910757.258   115142017.623       -1224.232          51.000  
  21770389.607   114404216.890       -1224.403          37.000  
  21747530.477   114284077.971       -1224.243          37.000  
  21917983.014   115179671.535       -1224.387          36.000  
  21945340.799   115323540.037       -1224.172          39.000  
  21756616.605   114331727.548       -1224.260          37.000  
  21908719.935   115131099.450       -1224.349          34.000  
  21910763.938   115141816.286       -1224.219          50.000  
  21929811.772   115241955.541       -1224.243          35.000  
  21857132.378   114860023.520       -1224.161          38.000  
  21830759.323   114721425.518       -1224.290          38.000  
  22025644.183   115745539.883       -1224.258          37.000  
  21910712.319   115141797.938       -1224.240          49.000  
  21919844.497   115189575.090       -1224.128          36.000  
  21946805.637   115331284.556       -1224.114          39.000  
  21852442.054   114835372.579       -1224.227          40.000  
  22050838.834   115877947.555       -1224.271          40.000  
 25  8 12  9  9 55.0010000  0 28G 5G 1G30G 3G 4G17G19G 7G12G22G25G 6
                                G18G29G24G21G23G26G 8G32G15G14G31G 2
                                G28G11G 9G10
  21910747.248   115142106.674       -1224.240          49.000  
  21910805.052   115142018.500       -1224.292          47.000  
  22015426.118   115691869.003       -1224.264          39.000  
  21910930.908   115142219.878       -1224.230          51.000  
  21910778.897   115142040.937       -1224.268          51.000  
  21909060.170   115132925.854       -1223.898          36.000  
  21973225.848   115470118.507       -1224.368          39.000  
  21910929.173   115142532.045       -1224.268          46.000  
  21790945.877   114512234.320       -1224.160          38.000  
  22045316.892   115848937.448       -1224.233          39.000  
  22013389.236   115681145.457       -1224.313          33.000  
  21910803.645   115142262.466       -1224.286          51.000  
  21770436.173   114404461.722       -1224.330          37.000  
  21747577.016   114284322.811       -1224.147          37.000  
  21918029.638   115179916.373       -1224.300          37.000  
  21945387.393   115323784.880       -1224.349          39.000  
  21756663.226   114331972.393       -1224.276          37.000  
  21908766.624   115131344.283       -1224.326          34.000  
  21910810.490   115142061.132       -1224.254          50.000  
  21929858.385   115242200.385       -1224.272          35.000  
  21857178.978   114860268.364       -1224.119          38.000  
  21830805.867   114721670.360       -1224.296          38.000  
  22025690.719   115745784.715       -1224.261          37.000  
  21910758.886   115142042.779       -1224.221          49.000  
  21919891.091   115189819.941       -1224.238          37.000  
  21946852.239   115331529.404       -1224.159          39.000  
  21852488.634   114835617.422       -1224.242          40.000  
  22050885.411   115878192.392       -1224.294          39.000  
 25  8 12  9  9 55.2010000  0 28G 5G 1G30G 3G 4G17G19G 7G12G22G25G 6
                                G18G29G24G21G23G26G 8G32G15G14G31G 2
                                G28G11G 9G10
  21910793.878   115142351.490       -1224.133          49.000  
  21910851.616   115142263.321       -1224.037          48.000  
  22015472.660   115692113.829       -1224.023          39.000  
  21910977.874   115142464.695       -1224.095          51.000  
  21910825.575   115142285.773       -1224.163          51.000  
  21909106.813   115133170.697       -1224.216          36.000  
  21973272.408   115470363.319       -1224.116          39.000  
  21910975.805   115142776.881       -1224.204          46.000  
  21790992.449   114512479.167       -1224.186          38.000  
  22045363.490   115849182.265       -1224.093          39.000  
  22013435.809   115681390.268       -1224.007          33.000  
  21910849.939   115142507.292       -1224.167          51.000  
  21770482.738   114404706.516       -1223.976          37.000  
  21747623.652   114284567.652       -1224.166          37.000  
  21918076.164   115180161.187       -1224.114          37.000  
  21945434.018   115324029.704       -1224.135          39.000  
  21756709.847   114332217.235       -1224.236          37.000  
  21908813.159   115131589.117       -1224.027          35.000  
  21910857.044   115142305.961       -1224.159          50.000  
  21929905.026   115242445.247       -1224.324          35.000  
  21857225.597   114860513.232       -1224.457          38.000  
  21830852.442   114721915.199       -1224.244          38.000  
  22025737.276   115746029.583       -1224.208          35.000  
  21910805.454   115142287.620       -1224.244          49.000  
  21919937.696   115190064.792       -1224.145          37.000  
  21946898.862   115331774.258       -1224.308          39.000  
  21852535.219   114835862.246       -1224.132          40.000  
  22050932.019   115878437.237       -1224.211          39.000  
 25  8 12  9  9 55.4010000  0 28G 5G 1G30G 3G 4G17G19G 7G12G22G25G 6
                                G18G29G24G21G23G26G 8G32G15G14G31G 2
                                G28G11G 9G10
  21910840.474   115142596.338       -1224.422          49.000  
  21910898.216   115142508.175       -1224.472          48.000  
  22015519.245   115692358.683       -1224.500          39.000  
  21911024.739   115142709.544       -1224.409          51.000  
  21910872.176   115142530.617       -1224.449          51.000  
  21909153.367   115133415.538       -1224.409          36.000  
  21973319.044   115470608.171       -1224.409          39.000  
  21911022.394   115143021.728       -1224.461          46.000  
  21791039.052   114512724.003       -1224.379          38.000  
  22045410.104   115849427.112       -1224.377          39.000  
  22013482.372   115681635.127       -1224.219          33.000  
  21910896.459   115142752.139       -1224.448          51.000  
  21770529.317   114404951.381       -1224.352          37.000  
  21747670.250   114284812.500       -1224.553          38.000  
  21918122.739   115180406.035       -1224.345          37.000  
  21945480.598   115324274.554       -1224.412          38.000  
  21756756.413   114332462.080       -1224.539          37.000  
  21908859.730   115131833.969       -1224.428          35.000  
  21910903.651   115142550.811       -1224.448          50.000  
  21929951.632   115242690.084       -1224.371          36.000  
  21857272.213   114860758.058       -1224.509          38.000  
  21830899.029   114722160.040       -1224.491          37.000  
  22025783.857   115746274.433       -1224.712          35.000  
  21910852.025   115142532.467       -1224.448          48.000  
  21919984.277   115190309.635       -1224.412          37.000  
  21946945.464   115332019.091       -1224.446          39.000  
  21852581.785   114836107.090       -1224.419          40.000  
  22050978.625   115878682.083       -1224.539          40.000  
 25  8 12  9  9 55.6010000  0 28G 5G 1G30G 3G 4G17G19G 7G12G22G25G 6
                                G18G29G24G21G23G26G 8G32G15G14G31G 2
                                G28G11G 9G10
  21910887.084   115142841.146       -1223.925          49.000  
  21910944.779   115142752.980       -1224.011          48.000  
  22015565.852   115692603.484       -1223.895          39.000  
  21911071.560   115142954.356       -1224.042          51.000  
  21910918.594   115142775.426       -1224.017          51.000  
  21909199.949   115133660.345       -1223.943          36.000  
  21973365.669   115470852.977       -1223.876          39.000  
  21911068.967   115143266.534       -1224.032          46.000  
  21791085.670   114512968.814       -1223.956          38.000  
  22045456.705   115849671.931       -1224.069          39.000  
  22013528.914   115681879.950       -1224.272          33.000  
  21910942.947   115142996.948       -1224.023          51.000  
  21770575.872   114405196.197       -1224.143          37.000  
  21747716.849   114285057.301       -1224.073          38.000  
  21918169.348   115180650.857       -1224.133          37.000  
  21945527.176   115324519.364       -1223.848          38.000  
  21756803.036   114332706.887       -1224.022          37.000  
  21908906.285   115132078.783       -1224.160          35.000  
  21910950.180   115142795.618       -1224.062          50.000  
  21929998.238   115242934.892       -1224.022          36.000  
  21857318.842   114861002.861       -1223.977          38.000  
  21830945.622   114722404.838       -1223.842          37.000  
  22025830.425   115746519.231       -1224.161          35.000  
  21910898.634   115142777.271       -1224.038          48.000  
  21920030.910   115190554.450       -1224.022          37.000  
  21946992.000   115332263.893       -1223.813          39.000  
  21852628.341   114836351.901       -1223.987          40.000  
  22051025.227   115878926.892       -1224.170          40.000  
 25  8 12  9  9 55.8010000  0 28G 5G 1G30G 3G 4G17G19G 7G12G22G25G 6
                                G18G29G24G21G23G26G 8G32G15G14G31G 2
                                G28G11G 9G10
  21910933.701   115143085.961       -1224.211          49.000  
  21910991.361   115142997.790       -1224.161          48.000  
  22015612.458   115692848.304       -1224.251          39.000  
  21911117.708   115143199.168       -1224.205          51.000  
  21910965.185   115143020.241       -1224.238          51.000  
  21909246.522   115133905.161       -1224.201          36.000  
  21973412.277   115471097.797       -1224.263          39.000  
  21911115.495   115143511.350       -1224.238          46.000  
  21791132.272   114513213.625       -1224.167          38.000  
  22045503.288   115849916.750       -1224.420          39.000  
  22013575.467   115682124.748       -1224.296          33.000  
  21910989.549   115143241.765       -1224.217          51.000  
  21770622.471   114405441.009       -1224.437          37.000  
  21747763.460   114285302.113       -1224.135          38.000  
  21918215.954   115180895.666       -1224.313          37.000  
  21945573.801   115324764.185       -1224.353          38.000  
  21756849.638   114332951.705       -1224.264          37.000  
  21908952.813   115132323.593       -1224.204          35.000  
  21910996.804   115143040.431       -1224.140          50.000  
  21930044.782   115243179.711       -1224.289          36.000  
  21857365.429   114861247.676       -1224.136          38.000  
  21830992.210   114722649.665       -1224.249          37.000  
  22025877.021   115746764.049       -1224.301          34.000  
  21910945.193   115143022.090       -1224.212          48.000  
  21920077.501   115190799.258       -1224.220          37.000  
  21947038.640   115332508.715       -1224.146          39.000  
  21852674.953   114836596.717       -1224.218          40.000  
  22051071.818   115879171.704       -1224.274          40.000  
 25  8 12  9  9 56.0010000  0 28G 5G 1G30G 3G 4G17G19G 7G12G22G25G 6
                                G18G29G24G21G23G26G 8G32G15G14G31G 2
                                G28G11G 9G10
  21910980.296   115143330.791       -1224.238          49.000  
  21911037.941   115143242.619       -1224.255          48.000  
  22015659.047   115693093.138       -1224.333          39.000  
  21911164.362   115143443.997       -1224.156          51.000  
  21911011.525   115143265.070       -1224.176          51.000  
  21909293.059   115134149.981       -1223.989          37.000  
  21973458.944   115471342.627       -1224.394          39.000  
  21911162.125   115143756.170       -1224.093          45.000  
  21791178.909   114513458.447       -1224.075          38.000  
  22045549.845   115850161.564       -1224.115          39.000  
  22013622.045   115682369.585       -1224.185          33.000  
  21911036.173   115143486.589       -1224.125          51.000  
  21770669.039   114405685.833       -1224.208          37.000  
  21747810.026   114285546.943       -1224.186          38.000  
  21918262.503   115181140.490       -1224.239          37.000  
  21945620.416   115325009.014       -1224.291          38.000  
  21756896.227   114333196.524       -1224.030          37.000  
  21908999.374   115132568.427       -1224.174          35.000  
  21911043.391   115143285.262       -1224.183          49.000  
  21930091.304   115243424.533       -1224.118          36.000  
  21857412.056   114861492.497       -1223.992          37.000  
  21831038.795   114722894.504       -1224.523          37.000  
  22025923.608   115747008.874       -1224.098          34.000  
  21910991.778   115143266.913       -1224.126          48.000  
  21920124.143   115191044.073       -1223.914          37.000  
  21947085.243   115332753.543       -1224.193          39.000  
  21852721.572   114836841.532       -1223.998          40.000  
  22051118.443   115879416.524       -1224.057          40.000  
 25  8 12  9  9 56.2010000  0 28G 5G 1G30G 3G 4G17G19G 7G12G22G25G 6
                                G18G29G24G21G23G26G 8G32G15G14G31G 2
                                G28G11G 9G10
  21911026.981   115143575.610       -1224.161          49.000  
  21911084.538   115143487.439       -1224.237          48.000  
  22015705.661   115693337.951       -1224.077          39.000  
  21911211.842   115143688.820       -1224.283          51.000  
  21911057.644   115143509.890       -1224.262          51.000  
  21909339.683   115134394.806       -1224.320          37.000  
  21973505.499   115471587.444       -1224.222          39.000  
  21911208.747   115144000.997       -1224.290          46.000  
  21791225.514   114513703.264       -1224.214          38.000  
  22045596.434   115850406.388       -1224.253          39.000  
  22013668.603   115682614.400       -1224.148          33.000  
  21911082.796   115143731.410       -1224.286          51.000  
  21770715.629   114405930.656       -1224.091          37.000  
  21747856.617   114285791.766       -1224.314          38.000  
  21918309.119   115181385.314       -1224.323          37.000  
  21945666.999   115325253.836       -1224.340          38.000  
  21756942.810   114333441.350       -1224.142          38.000  
  21909045.899   115132813.252       -1224.304          35.000  
  21911089.986   115143530.084       -1224.313          50.000  
  21930137.918   115243669.354       -1224.240          36.000  
  21857458.686   114861737.330       -1224.316          37.000  
  21831085.386   114723139.319       -1224.139          37.000  
  22025970.181   115747253.695       -1224.325          35.000  
  21911038.346   115143511.735       -1224.312          48.000  
  21920170.730   115191288.891       -1224.391          37.000  
  21947131.815   115332998.374       -1224.282          39.000  
  21852768.179   114837086.352       -1224.327          40.000  
  22051165.006   115879661.338       -1224.350          40.000  
 25  8 12  9  9 56.4010000  0 28G 5G 1G30G 3G 4G17G19G 7G12G22G25G 6
                                G18G29G24G21G23G26G 8G32G15G14G31G 2
                                G28G11G 9G10
  21911073.611   115143820.458       -1224.428          49.000  
  21911131.128   115143732.287       -1224.368          48.000  
  22015752.254   115693582.799       -1224.342          39.000  
  21911259.160   115143933.660       -1224.325          51.000  
  21911103.721   115143754.736       -1224.351          51.000  
  21909386.288   115134639.646       -1224.406          37.000  
  21973552.063   115471832.292       -1224.374          39.000  
  21911255.356   115144245.834       -1224.249          46.000  
  21791272.094   114513948.116       -1224.484          38.000  
  22045643.038   115850651.235       -1224.366          39.000  
  22013715.147   115682859.247       -1224.371          33.000  
  21911129.400   115143976.253       -1224.390          51.000  
  21770762.247   114406175.501       -1224.333          37.000  
  21747903.246   114286036.616       -1224.478          38.000  
  21918355.769   115181630.156       -1224.390          37.000  
  21945713.592   115325498.673       -1224.473          38.000  
  21756989.411   114333686.191       -1224.286          38.000  
  21909092.497   115133058.097       -1224.463          35.000  
  21911136.566   115143774.932       -1224.396          49.000  
  21930184.488   115243914.201       -1224.357          36.000  
  21857505.245   114861982.185       -1224.578          37.000  
  21831132.007   114723384.174       -1224.460          37.000  
  22026016.771   115747498.548       -1224.561          35.000  
  21911084.900   115143756.578       -1224.376          48.000  
  21920217.314   115191533.739       -1224.428          37.000  
  21947178.389   115333243.216       -1224.431          39.000  
  21852814.765   114837331.192       -1224.330          40.000  
  22051211.551   115879906.184       -1224.292          40.000  
 25  8 12  9  9 56.6010000  0 28G 5G 1G30G 3G 4G17G19G 7G12G22G25G 6
                                G18G29G24G21G23G26G 8G32G15G14G31G 2
                                G28G11G 9G10
  21911120.205   115144065.275       -1224.135          49.000  
  21911177.670   115143977.105       -1224.140          48.000  
  22015798.852   115693827.623       -1224.107          39.000  
  21911306.329   115144178.486       -1224.102          51.000  
  21911149.839   115143999.550       -1224.140          51.000  
  21909432.855   115134884.467       -1224.132          37.000  
  21973598.641   115472077.115       -1224.114          39.000  
  21911301.944   115144490.663       -1224.212          46.000  
  21791318.688   114514192.926       -1224.136          38.000  
  22045689.618   115850896.053       -1224.107          39.000  
  22013761.676   115683104.052       -1223.915          33.000  
  21911176.015   115144221.075       -1224.097          51.000  
  21770808.875   114406420.329       -1224.172          37.000  
  21747949.795   114286281.418       -1224.066          38.000  
  21918402.351   115181874.975       -1224.062          37.000  
  21945760.212   115325743.497       -1224.097          38.000  
  21757036.014   114333931.013       -1223.961          38.000  
  21909139.071   115133302.909       -1224.097          35.000  
  21911183.147   115144019.747       -1224.181          49.000  
  21930231.118   115244159.019       -1224.126          36.000  
  21857551.821   114862226.988       -1224.191          37.000  
  21831178.624   114723628.983       -1224.071          37.000  
  22026063.325   115747743.363       -1224.111          35.000  
  21911131.455   115144001.395       -1224.100          48.000  
  21920263.917   115191778.559       -1224.192          37.000  
  21947224.985   115333488.033       -1224.172          38.000  
  21852861.312   114837576.014       -1224.076          40.000  
  22051258.157   115880151.004       -1224.140          40.000  
 25  8 12  9  9 56.8010000  0 28G 5G 1G30G 3G 4G17G19G 7G12G22G25G 6
                                G18G29G24G21G23G26G 8G32G15G14G31G 2
                                G28G11G 9G10
  21911166.834   115144310.093       -1224.186          49.000  
  21911224.247   115144221.928       -1224.216          48.000  
  22015845.445   115694072.448       -1224.325          39.000  
  21911353.029   115144423.307       -1224.243          51.000  
  21911196.200   115144244.370       -1224.133          51.000  
  21909479.459   115135129.293       -1224.260          37.000  
  21973645.297   115472321.935       -1224.163          39.000  
  21911348.494   115144735.476       -1224.213          46.000  
  21791365.310   114514437.755       -1224.298          38.000  
  22045736.234   115851140.875       -1224.256          39.000  
  22013808.217   115683348.869       -1223.935          33.000  
  21911222.668   115144465.899       -1224.261          51.000  
  21770855.471   114406665.150       -1224.257          37.000  
  21747996.418   114286526.247       -1224.139          38.000  
  21918448.925   115182119.806       -1224.398          37.000  
  21945806.834   115325988.326       -1224.343          38.000  
  21757082.638   114334175.849       -1224.399          38.000  
  21909185.704   115133547.739       -1224.293          35.000  
  21911229.665   115144264.568       -1224.152          49.000  
  21930277.742   115244403.834       -1223.997          36.000  
  21857598.425   114862471.804       -1223.944          37.000  
  21831225.210   114723873.815       -1224.221          37.000  
  22026109.926   115747988.187       -1224.250          35.000  
  21911178.036   115144246.216       -1224.118          48.000  
  21920310.463   115192023.374       -1224.177          37.000  
  21947271.615   115333732.854       -1224.205          38.000  
  21852907.946   114837820.838       -1224.237          40.000  
  22051304.765   115880395.822       -1224.220          40.000  
 25  8 12  9  9 57.0010000  0 28G 5G 1G30G 3G 4G17G19G 7G12G22G25G 6
                                G18G29G24G21G23G26G 8G32G15G14G31G 2
                                G28G11G 9G10
  21911213.417   115144554.935       -1224.466          49.000  
  21911270.860   115144466.765       -1224.454          48.000  
  22015892.049   115694317.265       -1224.155          39.000  
  21911399.819   115144668.140       -1224.343          51.000  
  21911242.619   115144489.207       -1224.354          51.000  
  21909526.039   115135374.121       -1224.400          37.000  
  21973691.851   115472566.769       -1224.402          39.000  
  21911395.053   115144980.312       -1224.342          46.000  
  21791411.927   114514682.593       -1224.487          38.000  
  22045782.842   115851385.709       -1224.324          39.000  
  22013854.750   115683593.709       -1224.154          33.000  
  21911269.377   115144710.731       -1224.396          51.000  
  21770902.088   114406909.982       -1224.424          37.000  
  21748043.006   114286771.091       -1224.528          38.000  
  21918495.463   115182364.631       -1224.386          37.000  
  21945853.445   115326233.144       -1224.202          38.000  
  21757129.226   114334420.668       -1224.250          38.000  
  21909232.316   115133792.566       -1224.336          35.000  
  21911276.227   115144509.412       -1224.447          49.000  
  21930324.325   115244648.669       -1224.187          36.000  
  21857645.007   114862716.655       -1224.487          37.000  
  21831271.813   114724118.644       -1224.402          37.000  
  22026156.533   115748233.022       -1224.548          35.000  
  21911224.613   115144491.054       -1224.408          48.000  
  21920357.039   115192268.205       -1224.321          37.000  
  21947318.219   115333977.689       -1224.380          38.000  
  21852954.549   114838065.670       -1224.344          40.000  
  22051351.369   115880640.660       -1224.388          40.000  
 25  8 12  9  9 57.2010000  0 28G 5G 1G30G 3G 4G17G19G 7G12G22G25G 6
                                G18G29G24G21G23G26G 8G32G15G14G31G 2
                                G28G11G 9G10
  21911260.060   115144799.758       -1224.046          49.000  
  21911317.445   115144711.594       -1224.016          48.000  
  22015938.653   115694562.102       -1223.917          39.000  
  21911446.524   115144912.971       -1224.054          51.000  
  21911289.544   115144734.034       -1224.022          51.000  
  21909572.630   115135618.950       -1224.011          37.000  
  21973738.454   115472811.599       -1224.023          39.000  
  21911441.622   115145225.144       -1224.102          46.000  
  21791458.474   114514927.411       -1224.121          38.000  
  22045829.419   115851630.537       -1223.970          39.000  
  22013901.366   115683838.555       -1224.115          33.000  
  21911316.006   115144955.560       -1224.057          51.000  
  21770948.659   114407154.809       -1224.026          37.000  
  21748089.602   114287015.905       -1223.995          38.000  
  21918542.056   115182609.466       -1223.973          37.000  
  21945900.045   115326477.990       -1224.104          38.000  
  21757175.827   114334665.506       -1224.034          38.000  
  21909278.855   115134037.390       -1223.946          35.000  
  21911322.815   115144754.234       -1224.017          49.000  
  21930370.936   115244893.506       -1223.934          36.000  
  21857691.614   114862961.469       -1223.984          37.000  
  21831318.413   114724363.473       -1223.975          37.000  
  22026203.140   115748477.844       -1224.083          35.000  
  21911271.205   115144735.878       -1224.017          48.000  
  21920403.661   115192513.040       -1223.977          37.000  
  21947364.775   115334222.514       -1223.969          38.000  
  21853001.201   114838310.504       -1224.182          40.000  
  22051397.946   115880885.489       -1224.103          39.000  
 25  8 12  9  9 57.4010000  0 28G 5G 1G30G 3G 4G17G19G 7G12G22G25G 6
                                G18G29G24G21G23G26G 8G32G15G14G31G 2
                                G28G11G 9G10
  21911306.677   115145044.587       -1224.089          49.000  
  21911363.994   115144956.423       -1224.226          48.000  
  22015985.265   115694806.930       -1224.173          39.000  
  21911493.564   115145157.792       -1224.222          51.000  
  21911336.156   115144978.865       -1224.225          51.000  
  21909619.304   115135863.778       -1224.255          37.000  
  21973785.038   115473056.422       -1224.157          39.000  
  21911488.255   115145469.971       -1224.188          46.000  
  21791505.043   114515172.234       -1224.016          38.000  
  22045875.946   115851875.362       -1224.193          39.000  
  22013947.904   115684083.375       -1224.291          33.000  
  21911362.536   115145200.386       -1224.147          51.000  
  21770995.265   114407399.638       -1224.275          37.000  
  21748136.158   114287260.733       -1224.136          38.000  
  21918588.653   115182854.284       -1224.076          37.000  
  21945946.609   115326722.809       -1224.254          38.000  
  21757222.421   114334910.335       -1224.277          38.000  
  21909325.454   115134282.223       -1224.099          36.000  
  21911369.414   115144999.060       -1224.167          49.000  
  21930417.530   115245138.336       -1224.450          36.000  
  21857738.175   114863206.302       -1224.192          37.000  
  21831365.011   114724608.304       -1224.260          37.000  
  22026249.738   115748722.662       -1224.097          35.000  
  21911317.849   115144980.703       -1224.103          48.000  
  21920450.258   115192757.867       -1224.195          37.000  
  21947411.366   115334467.339       -1224.121          38.000  
  21853047.789   114838555.325       -1224.125          40.000  
  22051444.543   115881130.302       -1223.960          39.000  
 25  8 12  9  9 57.6010000  0 28G 5G 1G30G 3G 4G17G19G 7G12G22G25G 6
                                G18G29G24G21G23G26G 8G32G15G14G31G 2
                                G28G11G 9G10
  21911353.270   115145289.422       -1224.355          49.000  
  21911410.561   115145201.252       -1224.269          48.000  
  22016031.872   115695051.766       -1224.393          39.000  
  21911540.403   115145402.626       -1224.293          51.000  
  21911383.081   115145223.695       -1224.276          51.000  
  21909665.866   115136108.608       -1224.338          37.000  
  21973831.627   115473301.261       -1224.353          39.000  
  21911534.843   115145714.800       -1224.257          46.000  
  21791551.679   114515417.077       -1224.401          38.000  
  22045922.511   115852120.197       -1224.308          39.000  
  22013994.453   115684328.206       -1224.336          33.000  
  21911409.043   115145445.219       -1224.342          51.000  
  21771041.816   114407644.471       -1224.414          37.000  
  21748182.739   114287505.576       -1224.414          38.000  
  21918635.258   115183099.118       -1224.180          37.000  
  21945993.214   115326967.640       -1224.294          38.000  
  21757268.986   114335155.159       -1224.316          38.000  
  21909372.033   115134527.048       -1224.137          36.000  
  21911415.933   115145243.895       -1224.327          49.000  
  21930464.144   115245383.160       -1224.306          36.000  
  21857784.815   114863451.140       -1224.395          37.000  
  21831411.607   114724853.132       -1224.326          37.000  
  22026296.323   115748967.498       -1224.298          35.000  
  21911364.407   115145225.540       -1224.334          48.000  
  21920496.828   115193002.697       -1224.364          37.000  
  21947457.977   115334712.179       -1224.349          38.000  
  21853094.351   114838800.154       -1224.194          40.000  
  22051491.092   115881375.146       -1224.239          39.000  
 25  8 12  9  9 57.8010000  0 28G 5G 1G30G 3G 4G17G19G 7G12G22G25G 6
                                G18G29G24G21G23G26G 8G32G15G14G31G 2
                                G28G11G 9G10
  21911399.854   115145534.256       -1224.183          49.000  
  21911457.168   115145446.081       -1224.066          48.000  
  22016078.445   115695296.591       -1224.128          39.000  
  21911587.316   115145647.461       -1224.156          51.000  
  21911430.068   115145468.527       -1224.150          51.000  
  21909712.394   115136353.441       -1224.019          37.000  
  21973878.164   115473546.084       -1224.116          39.000  
  21911581.412   115145959.636       -1224.197          46.000  
  21791598.265   114515661.902       -1223.995          38.000  
  22045969.056   115852365.027       -1224.047          39.000  
  22014040.967   115684573.040       -1224.112          33.000  
  21911455.474   115145690.051       -1224.104          51.000  
  21771088.371   114407889.290       -1223.970          37.000  
  21748229.353   114287750.406       -1224.121          38.000  
  21918681.890   115183343.952       -1224.145          37.000  
  21946039.827   115327212.477       -1224.296          38.000  
  21757315.611   114335399.997       -1224.202          38.000  
  21909418.610   115134771.892       -1224.348          36.000  
  21911462.575   115145488.721       -1224.173          50.000  
  21930510.736   115245627.986       -1224.008          36.000  
  21857831.422   114863695.979       -1224.110          37.000  
  21831458.196   114725097.971       -1224.193          37.000  
  22026342.887   115749212.324       -1223.803          35.000  
  21911411.007   115145470.379       -1224.155          48.000  
  21920543.388   115193247.531       -1224.074          37.000  
  21947504.560   115334957.008       -1224.038          38.000  
  21853140.933   114839044.992       -1224.204          40.000  
  22051537.710   115881619.978       -1224.076          39.000  
 25  8 12  9  9 58.0010000  0 28G 5G 1G30G 3G 4G17G19G 7G12G22G25G 6
                                G18G29G24G21G23G26G 8G32G15G14G31G 2
                                G28G11G 9G10
  21911446.454   115145779.074       -1224.163          49.000  
  21911503.797   115145690.900       -1224.295          48.000  
  22016124.996   115695541.414       -1224.212          39.000  
  21911633.828   115145892.272       -1224.166          51.000  
  21911477.086   115145713.345       -1224.186          51.000  
  21909759.003   115136598.261       -1224.214          37.000  
  21973924.767   115473790.905       -1224.307          39.000  
  21911628.005   115146204.452       -1224.298          46.000  
  21791644.871   114515906.725       -1224.305          38.000  
  22046015.652   115852609.844       -1224.138          39.000  
  22014087.499   115684817.846       -1224.176          33.000  
  21911501.891   115145934.869       -1224.295          51.000  
  21771134.937   114408134.106       -1224.220          38.000  
  21748275.912   114287995.218       -1224.244          38.000  
  21918728.469   115183588.765       -1224.132          37.000  
  21946086.423   115327457.287       -1224.112          38.000  
  21757362.179   114335644.803       -1224.220          38.000  
  21909465.284   115135016.689       -1223.888          36.000  
  21911509.121   115145733.540       -1224.191          50.000  
  21930557.285   115245872.821       -1224.273          36.000  
  21857878.033   114863940.785       -1224.082          37.000  
  21831504.731   114725342.785       -1224.268          37.000  
  22026389.492   115749457.150       -1224.356          35.000  
  21911457.626   115145715.191       -1224.147          48.000  
  21920589.983   115193492.347       -1224.147          37.000  
  21947551.117   115335201.824       -1224.184          38.000  
  21853187.533   114839289.813       -1224.287          40.000  
  22051584.303   115881864.798       -1224.222          39.000  
 25  8 12  9  9 58.2010000  0 28G 5G 1G30G 3G 4G17G19G 7G12G22G25G 6
                                G18G29G24G21G23G26G 8G32G15G14G31G 2
                                G28G11G 9G10
  21911493.070   115146023.897       -1224.242          49.000  
  21911550.438   115145935.727       -1224.253          48.000  
  22016171.596   115695786.247       -1224.357          39.000  
  21911680.843   115146137.102       -1224.246          51.000  
  21911523.879   115145958.173       -1224.201          51.000  
  21909805.580   115136843.080       -1224.257          37.000  
  21973971.331   115474035.734       -1224.298          39.000  
  21911674.567   115146449.277       -1224.210          46.000  
  21791691.420   114516151.540       -1224.175          39.000  
  22046062.220   115852854.668       -1224.077          39.000  
  22014134.060   115685062.680       -1224.385          32.000  
  21911548.204   115146179.695       -1224.213          51.000  
  21771181.518   114408378.933       -1224.258          38.000  
  21748322.506   114288240.036       -1224.161          38.000  
  21918775.116   115183833.598       -1224.190          37.000  
  21946133.015   115327702.125       -1224.384          38.000  
  21757408.783   114335889.633       -1224.266          38.000  
  21909511.916   115135261.527       -1224.055          36.000  
  21911555.762   115145978.371       -1224.231          50.000  
  21930603.836   115246117.635       -1224.256          36.000  
  21857924.644   114864185.607       -1224.226          37.000  
  21831551.374   114725587.615       -1224.347          37.000  
  22026436.140   115749701.970       -1224.261          35.000  
  21911504.205   115145960.018       -1224.293          48.000  
  21920636.590   115193737.178       -1224.260          37.000  
  21947597.655   115335446.648       -1224.232          38.000  
  21853234.136   114839534.637       -1224.237          40.000  
  22051630.916   115882109.626       -1224.211          39.000  
 25  8 12  9  9 58.4010000  0 27G 5G 1G30G 3G 4G17G19G 7G12G22G 6G18
                                G29G24G21G23G26G 8G32G15G14G31G 2G28
                                G11G 9G10
  21911539.640   115146268.733       -1224.211          49.000  
  21911597.047   115146180.562       -1224.205          48.000  
  22016218.223   115696031.075       -1224.245          39.000  
  21911727.171   115146381.941       -1224.220          51.000  
  21911570.984   115146203.010       -1224.203          51.000  
  21909852.184   115137087.918       -1224.008          37.000  
  21974017.925   115474280.570       -1224.150          38.000  
  21911721.137   115146694.118       -1224.174          46.000  
  21791737.977   114516396.379       -1224.078          38.000  
  22046108.800   115853099.512       -1224.134          39.000  
  21911594.831   115146424.530       -1224.203          51.000  
  21771228.116   114408623.771       -1224.231          38.000  
  21748369.082   114288484.885       -1224.213          38.000  
  21918821.687   115184078.438       -1224.287          37.000  
  21946179.649   115327946.951       -1224.070          38.000  
  21757455.341   114336134.460       -1224.092          38.000  
  21909558.537   115135506.373       -1224.182          35.000  
  21911602.301   115146223.207       -1224.250          50.000  
  21930650.438   115246362.475       -1224.205          36.000  
  21857971.220   114864430.450       -1224.170          37.000  
  21831597.974   114725832.444       -1224.146          37.000  
  22026482.696   115749946.812       -1224.169          34.000  
  21911550.791   115146204.853       -1224.145          48.000  
  21920683.219   115193982.017       -1224.211          37.000  
  21947644.250   115335691.491       -1224.311          38.000  
  21853280.709   114839779.475       -1224.088          40.000  
  22051677.488   115882354.465       -1224.281          39.000  
 25  8 12  9  9 58.6010000  0 27G 5G 1G30G 3G 4G17G19G 7G12G22G 6G18
                                G29G24G21G23G26G 8G32G15G14G31G 2G28
                                G11G 9G10
  21911586.238   115146513.576       -1224.167          49.000  
  21911643.612   115146425.412       -1224.242          48.000  
  22016264.840   115696275.923       -1224.285          39.000  
  21911774.030   115146626.786       -1224.237          51.000  
  21911617.904   115146447.851       -1224.220          51.000  
  21909898.795   115137332.771       -1224.321          37.000  
  21974064.471   115474525.412       -1224.177          38.000  
  21911767.758   115146938.965       -1224.277          46.000  
  21791784.543   114516641.229       -1224.235          39.000  
  22046155.350   115853344.354       -1224.205          39.000  
  21911641.270   115146669.372       -1224.147          51.000  
  21771274.691   114408868.610       -1224.159          38.000  
  21748415.662   114288729.726       -1224.205          38.000  
  21918868.231   115184323.277       -1224.258          37.000  
  21946226.268   115328191.798       -1224.270          38.000  
  21757501.970   114336379.313       -1224.377          38.000  
  21909605.145   115135751.217       -1224.362          36.000  
  21911648.905   115146468.051       -1224.232          50.000  
  21930697.064   115246607.313       -1224.164          36.000  
  21858017.852   114864675.297       -1224.274          37.000  
  21831644.586   114726077.292       -1224.128          37.000  
  22026529.209   115750191.652       -1224.178          34.000  
  21911597.395   115146449.700       -1224.231          48.000  
  21920729.815   115194226.853       -1224.142          37.000  
  21947690.825   115335936.340       -1224.336          38.000  
  21853327.314   114840024.318       -1224.242          40.000  
  22051724.037   115882599.300       -1224.109          39.000  
 25  8 12  9  9 58.8010000  0 27G 5G 1G30G 3G 4G17G19G 7G12G22G 6G18
                                G29G24G21G23G26G 8G32G15G14G31G 2G28
                                G11G 9G10
  21911632.841   115146758.385       -1224.042          49.000  
  21911690.217   115146670.218       -1224.084          48.000  
  22016311.405   115696520.710       -1224.050          39.000  
  21911821.006   115146871.592       -1224.097          51.000  
  21911664.746   115146692.664       -1224.112          51.000  
  21909945.364   115137577.606       -1224.164          37.000  
  21974111.080   115474770.225       -1224.082          38.000  
  21911814.337   115147183.757       -1223.958          46.000  
  21791831.111   114516886.027       -1223.981          39.000  
  22046201.955   115853589.162       -1224.025          39.000  
  21911687.909   115146914.184       -1224.080          51.000  
  21771321.295   114409113.420       -1224.033          38.000  
  21748462.209   114288974.528       -1223.936          38.000  
  21918914.857   115184568.078       -1224.071          37.000  
  21946272.903   115328436.619       -1224.168          38.000  
  21757548.573   114336624.121       -1224.087          38.000  
  21909651.746   115135996.016       -1224.135          35.000  
  21911695.482   115146712.855       -1223.939          50.000  
  21930743.661   115246852.123       -1224.172          36.000  
  21858064.424   114864920.105       -1223.953          37.000  
  21831691.124   114726322.086       -1224.073          37.000  
  22026575.799   115750436.462       -1224.230          34.000  
  21911643.955   115146694.503       -1224.050          48.000  
  21920776.429   115194471.706       -1224.157          37.000  
  21947737.444   115336181.120       -1223.922          38.000  
  21853373.888   114840269.135       -1224.210          40.000  
  22051770.693   115882844.107       -1224.098          39.000  
 25  8 12  9  9 59.0010000  0 27G 5G 1G30G 3G 4G17G19G 7G12G22G 6G18
                                G29G24G21G23G26G 8G32G15G14G31G 2G28
                                G11G 9G10
  21911679.503   115147003.222       -1224.322          49.000  
  21911736.819   115146915.061       -1224.245          48.000  
  22016358.044   115696765.556       -1224.171          39.000  
  21911868.635   115147116.430       -1224.320          51.000  
  21911711.382   115146937.497       -1224.210          51.000  
  21909992.055   115137822.426       -1224.364          37.000  
  21974157.607   115475015.061       -1224.249          38.000  
  21911860.893   115147428.595       -1224.217          46.000  
  21791877.673   114517130.866       -1224.261          39.000  
  22046248.558   115853833.997       -1224.234          39.000  
  21911734.444   115147159.018       -1224.242          51.000  
  21771367.890   114409358.259       -1224.280          38.000  
  21748508.771   114289219.368       -1224.349          38.000  
  21918961.511   115184812.910       -1224.136          37.000  
  21946319.485   115328681.453       -1224.134          38.000  
  21757595.202   114336868.958       -1224.139          38.000  
  21909698.400   115136240.854       -1224.123          35.000  
  21911742.129   115146957.697       -1224.260          50.000  
  21930790.246   115247096.960       -1224.237          36.000  
  21858111.063   114865164.942       -1224.441          37.000  
  21831737.737   114726566.921       -1224.117          37.000  
  22026622.340   115750681.290       -1224.218          34.000  
  21911690.571   115146939.342       -1224.293          48.000  
  21920823.009   115194716.543       -1224.466          37.000  
  21947784.025   115336425.967       -1224.285          38.000  
  21853420.463   114840513.964       -1224.250          40.000  
  22051817.260   115883088.943       -1224.297          39.000  
 25  8 12  9  9 59.2010000  0 27G 5G 1G30G 3G 4G17G19G 7G12G22G 6G18
                                G29G24G21G23G26G 8G32G15G14G31G 2G28
                                G11G 9G10
  21911726.089   115147248.032       -1224.023          49.000  
  21911783.395   115147159.874       -1224.083          48.000  
  22016404.630   115697010.375       -1224.153          39.000  
  21911916.280   115147361.237       -1224.025          51.000  
  21911757.944   115147182.311       -1224.139          51.000  
  21910038.621   115138067.238       -1224.022          37.000  
  21974204.225   115475259.870       -1223.940          39.000  
  21911907.493   115147673.408       -1223.968          46.000  
  21791924.260   114517375.679       -1224.067          39.000  
  22046295.151   115854078.808       -1224.010          39.000  
  21911781.011   115147403.831       -1224.088          51.000  
  21771414.482   114409603.073       -1224.115          38.000  
  21748555.338   114289464.175       -1224.022          38.000  
  21919008.122   115185057.732       -1224.111          37.000  
  21946366.083   115328926.269       -1224.048          38.000  
  21757641.768   114337113.773       -1224.020          38.000  
  21909744.967   115136485.674       -1224.029          35.000  
  21911788.691   115147202.509       -1224.120          50.000  
  21930836.850   115247341.779       -1224.204          36.000  
  21858157.621   114865409.745       -1224.070          37.000  
  21831784.327   114726811.737       -1224.119          37.000  
  22026668.970   115750926.103       -1223.989          34.000  
  21911737.133   115147184.156       -1224.126          48.000  
  21920869.562   115194961.352       -1224.109          37.000  
  21947830.632   115336670.776       -1224.116          38.000  
  21853467.027   114840758.774       -1224.004          40.000  
  22051863.818   115883333.757       -1224.175          40.000  
 25  8 12  9  9 59.4010000  0 28G 5G 1G30G 3G 4G17G19G 7G12G22G25G 6
                                G18G29G24G21G23G26G 8G32G15G14G31G 2
                                G28G11G 9G10
  21911772.717   115147492.854       -1224.046          49.000  
  21911829.940   115147404.686       -1223.905          48.000  
  22016451.228   115697255.188       -1224.036          40.000  
  21911963.700   115147606.057       -1223.955          51.000  
  21911804.651   115147427.134       -1224.018          51.000  
  21910085.240   115138312.063       -1224.119          37.000  
  21974250.800   115475504.686       -1223.834          38.000  
  21911954.093   115147918.231       -1224.011          45.000  
  21791970.901   114517620.495       -1223.915          39.000  
  22046341.690   115854323.630       -1223.977          39.000  
  22014413.537   115686523.6311      -1224.104          33.000  
  21911827.603   115147648.647       -1223.974          51.000  
  21771461.119   114409847.882       -1223.778          38.000  
  21748601.907   114289709.000       -1223.977          38.000  
  21919054.704   115185302.537       -1223.806          37.000  
  21946412.588   115329171.091       -1224.146          38.000  
  21757688.408   114337358.588       -1223.864          38.000  
  21909791.559   115136730.490       -1224.010          35.000  
  21911835.258   115147447.323       -1223.937          50.000  
  21930883.432   115247586.584       -1223.958          36.000  
  21858204.245   114865654.564       -1223.928          37.000  
  21831830.860   114727056.559       -1224.016          37.000  
  22026715.560   115751170.925       -1223.943          34.000  
  21911783.693   115147428.974       -1223.967          48.000  
  21920916.099   115195206.165       -1223.992          37.000  
  21947877.196   115336915.599       -1223.943          38.000  
  21853513.611   114841003.598       -1224.010          40.000  
  22051910.390   115883578.574       -1223.907          40.000  
 25  8 12  9  9 59.6010000  0 28G 5G 1G30G 3G 4G17G19G 7G12G22G25G 6
                                G18G29G24G21G23G26G 8G32G15G14G31G 2
                                G28G11G 9G10
  21911819.337   115147737.700       -1224.445          49.000  
  21911876.525   115147649.531       -1224.424          48.000  
  22016497.798   115697500.031       -1224.344          40.000  
  21912010.958   115147850.907       -1224.468          51.000  
  21911851.312   115147671.975       -1224.385          51.000  
  21910131.872   115138556.918       -1224.573          37.000  
  21974297.427   115475749.548       -1224.606          38.000  
  21912000.715   115148163.077       -1224.403          45.000  
  21792017.500   114517865.357       -1224.568          39.000  
  22046388.300   115854568.476       -1224.377          39.000  
  22014460.126   115686768.471       -1224.340          33.000  
  21911874.129   115147893.497       -1224.376          51.000  
  21771507.692   114410092.725       -1224.181          38.000  
  21748648.462   114289953.864       -1224.734          38.000  
  21919101.275   115185547.390       -1224.263          37.000  
  21946459.178   115329415.923       -1224.196          38.000  
  21757735.005   114337603.441       -1224.464          38.000  
  21909838.174   115136975.318       -1224.117          35.000  
  21911881.865   115147692.171       -1224.377          50.000  
  21930930.029   115247831.461       -1224.877          36.000  
  21858250.822   114865899.391       -1223.898          37.000  
  21831877.415   114727301.392       -1224.205          37.000  
  22026762.205   115751415.757       -1224.185          34.000  
  21911830.273   115147673.824       -1224.457          48.000  
  21920962.718   115195451.012       -1224.265          37.000  
  21947923.817   115337160.455       -1224.659          38.000  
  21853560.169   114841248.435       -1224.241          40.000  
  22051956.986   115883823.430       -1224.594          40.000  
 25  8 12  9  9 59.8010000  0 28G 5G 1G30G 3G 4G17G19G 7G12G22G25G 6
                                G18G29G24G21G23G26G 8G32G15G14G31G 2
                                G28G11G 9G10
  21911865.973   115147982.543       -1224.010          49.000  
  21911923.123   115147894.377       -1224.148          48.000  
  22016544.381   115697744.875       -1224.134          40.000  
  21912056.839   115148095.749       -1224.150          51.000  
  21911898.084   115147916.819       -1224.139          51.000  
  21910178.449   115138801.765       -1223.837          38.000  
  21974344.004   115475994.391       -1224.194          38.000  
  21912047.305   115148407.910       -1224.204          45.000  
  21792064.094   114518110.205       -1224.039          39.000  
  22046434.874   115854813.324       -1224.299          39.000  
  22014506.660   115687013.311       -1224.188          32.000  
  21911920.445   115148138.338       -1224.144          51.000  
  21771554.280   114410337.571       -1224.260          38.000  
  21748695.052   114290198.706       -1223.944          38.000  
  21919147.858   115185792.232       -1224.105          37.000  
  21946505.730   115329660.766       -1224.416          38.000  
  21757781.681   114337848.283       -1224.296          38.000  
  21909884.731   115137220.154       -1224.267          35.000  
  21911928.417   115147937.015       -1224.126          50.000  
  21930976.566   115248076.302       -1223.989          36.000  
  21858297.441   114866144.236       -1224.143          37.000  
  21831923.989   114727546.236       -1224.330          37.000  
  22026808.799   115751660.612       -1224.261          33.000  
  21911876.842   115147918.671       -1224.073          48.000  
  21921009.284   115195695.861       -1224.259          37.000  
  21947970.347   115337405.289       -1223.809          38.000  
  21853606.791   114841493.280       -1224.219          40.000  
  22052003.597   115884068.277       -1224.024          40.000  
 25  8 12  9 10  0.0010000  0 28G 5G 1G30G 3G 4G17G19G 7G12G22G25G 6
                                G18G29G24G21G23G26G 8G32G15G14G31G 2
                                G28G11G 9G10
  21911912.587   115148227.371       -1224.333          49.000  
  21911969.762   115148139.199       -1224.279          48.000  
  22016590.972   115697989.698       -1224.244          40.000  
  21912102.742   115148340.571       -1224.237          51.000  
  21911944.718   115148161.642       -1224.223          51.000  
  21910224.991   115139046.602       -1224.366          38.000  
  21974390.612   115476239.204       -1224.135          38.000  
  21912093.903   115148652.733       -1224.203          45.000  
  21792110.654   114518355.028       -1224.204          39.000  
  22046481.469   115855058.143       -1224.284          39.000  
  22014553.184   115687258.136       -1223.962          32.000  
  21911966.745   115148383.165       -1224.306          51.000  
  21771600.806   114410582.382       -1224.236          38.000  
  21748741.673   114290443.544       -1224.351          38.000  
  21919194.472   115186037.060       -1224.388          37.000  
  21946552.375   115329905.575       -1224.205          38.000  
  21757828.243   114338093.097       -1224.115          38.000  
  21909931.319   115137464.977       -1224.233          35.000  
  21911974.992   115148181.837       -1224.236          50.000  
  21931023.151   115248321.138       -1224.195          35.000  
  21858344.059   114866389.066       -1224.423          37.000  
  21831970.614   114727791.041       -1224.070          37.000  
  22026855.408   115751905.431       -1224.229          33.000  
  21911923.424   115148163.496       -1224.295          48.000  
  21921055.907   115195940.678       -1224.283          37.000  
  21948016.962   115337650.127       -1224.299          38.000  
  21853653.369   114841738.097       -1224.146          40.000  
  22052050.215   115884313.106       -1224.246          40.000  
 25  8 12  9 10  0.2010000  0 28G 5G 1G30G 3G 4G17G19G 7G12G22G25G 6
                                G18G29G24G21G23G26G 8G32G15G14G31G 2
                                G28G11G 9G10
  21911959.165   115148472.219       -1224.428          49.000  
  21912016.375   115148384.053       -1224.414          48.000  
  22016637.553   115698234.550       -1224.326          40.000  
  21912148.864   115148585.423       -1224.408          51.000  
  21911991.036   115148406.496       -1224.439          51.000  
  21910271.614   115139291.451       -1224.596          38.000  
  21974437.204   115476484.068       -1224.410          38.000  
  21912140.525   115148897.591       -1224.428          45.000  
  21792157.254   114518599.878       -1224.418          39.000  
  22046528.056   115855302.994       -1224.428          39.000  
  22014599.756   115687503.009       -1224.527          32.000  
  21912013.069   115148628.012       -1224.429          51.000  
  21771647.398   114410827.232       -1224.344          38.000  
  21748788.280   114290688.385       -1224.451          38.000  
  21919241.067   115186281.902       -1224.445          37.000  
  21946599.016   115330150.427       -1224.255          38.000  
  21757874.831   114338337.958       -1224.399          38.000  
  21909977.901   115137709.839       -1224.401          35.000  
  21912021.615   115148426.693       -1224.472          50.000  
  21931069.745   115248565.993       -1224.549          35.000  
  21858390.684   114866633.911       -1224.656          37.000  
  21832017.233   114728035.906       -1224.452          37.000  
  22026902.016   115752150.284       -1224.464          33.000  
  21911970.002   115148408.344       -1224.355          48.000  
  21921102.509   115196185.531       -1224.319          37.000  
  21948063.555   115337894.975       -1224.404          38.000  
  21853699.990   114841982.954       -1224.408          40.000  
  22052096.809   115884557.961       -1224.544          39.000  
 25  8 12  9 10  0.4010000  0 28G 5G 1G30G 3G 4G17G19G 7G12G22G25G 6
                                G18G29G24G21G23G26G 8G32G15G14G31G 2
                                G28G11G 9G10
  21912005.780   115148717.087       -1224.382          49.000  
  21912062.958   115148628.915       -1224.357          48.000  
  22016684.177   115698479.421       -1224.361          40.000  
  21912195.053   115148830.290       -1224.323          51.000  
  21912037.305   115148651.362       -1224.316          51.000  
  21910318.260   115139536.312       -1224.406          38.000  
  21974483.808   115476728.935       -1224.366          38.000  
  21912187.128   115149142.455       -1224.343          45.000  
  21792203.830   114518844.744       -1224.313          39.000  
  22046574.654   115855547.853       -1224.188          39.000  
  22014646.303   115687747.878       -1224.586          32.000  
  21912059.369   115148872.877       -1224.291          51.000  
  21771693.970   114411072.099       -1224.235          38.000  
  21748834.873   114290933.253       -1224.304          38.000  
  21919287.672   115186526.772       -1224.422          37.000  
  21946645.623   115330395.307       -1224.412          38.000  
  21757921.397   114338582.822       -1224.341          38.000  
  21910024.558   115137954.696       -1224.422          34.000  
  21912068.208   115148671.553       -1224.379          50.000  
  21931116.380   115248810.861       -1224.259          35.000  
  21858437.245   114866878.765       -1224.229          37.000  
  21832063.825   114728280.769       -1224.337          37.000  
  22026948.637   115752395.144       -1224.408          33.000  
  21912016.622   115148653.207       -1224.272          48.000  
  21921149.126   115196430.404       -1224.283          37.000  
  21948110.190   115338139.834       -1224.269          38.000  
  21853746.577   114842227.824       -1224.374          40.000  
  22052143.375   115884802.819       -1224.392          39.000  
 25  8 12  9 10  0.6010000  0 27G 5G 1G30G 3G 4G17G19G 7G12G22G 6G18
                                G29G24G21G23G26G 8G32G15G14G31G 2G28
                                G11G 9G10
  21912052.386   115148961.933       -1224.299          49.000  
  21912109.557   115148873.760       -1224.226          48.000  
  22016730.761   115698724.262       -1224.155          40.000  
  21912241.323   115149075.132       -1224.280          51.000  
  21912083.516   115148896.206       -1224.247          51.000  
  21910364.855   115139781.108       -1224.347          38.000  
  21974530.402   115476973.769       -1224.271          38.000  
  21912233.708   115149387.307       -1224.163          45.000  
  21792250.429   114519089.575       -1224.268          39.000  
  22046621.239   115855792.707       -1224.255          39.000  
  21912105.803   115149117.724       -1224.285          51.000  
  21771740.558   114411316.977       -1224.304          38.000  
  21748881.519   114291178.071       -1224.196          38.000  
  21919334.221   115186771.610       -1224.121          37.000  
  21946692.212   115330640.139       -1224.057          38.000  
  21757968.015   114338827.665       -1224.207          38.000  
  21910071.189   115138199.573       -1224.315          35.000  
  21912114.781   115148916.398       -1224.287          50.000  
  21931162.983   115249055.650       -1224.149          35.000  
  21858483.843   114867123.651       -1224.425          37.000  
  21832110.465   114728525.627       -1224.304          37.000  
  22026995.259   115752639.991       -1224.280          33.000  
  21912063.203   115148898.045       -1224.271          48.000  
  21921195.681   115196675.225       -1224.326          37.000  
  21948156.738   115338384.661       -1224.217          38.000  
  21853793.175   114842472.685       -1224.354          40.000  
  22052189.926   115885047.650       -1224.232          39.000  
 25  8 12  9 10  0.8010000  0 27G 5G 1G30G 3G 4G17G19G 7G12G22G 6G18
                                G29G24G21G23G26G 8G32G15G14G31G 2G28
                                G11G 9G10
  21912098.973   115149206.787       -1224.387          49.000  
  21912156.209   115149118.621       -1224.390          48.000  
  22016777.394   115698969.129       -1224.395          39.000  
  21912287.798   115149319.991       -1224.372          51.000  
  21912129.813   115149141.066       -1224.371          51.000  
  21910411.447   115140025.974       -1224.214          38.000  
  21974577.001   115477218.630       -1224.344          38.000  
  21912280.320   115149632.169       -1224.457          45.000  
  21792297.024   114519334.436       -1224.255          39.000  
  22046667.903   115856037.565       -1224.397          39.000  
  21912152.363   115149362.584       -1224.378          51.000  
  21771787.212   114411561.831       -1224.558          38.000  
  21748928.128   114291422.935       -1224.257          38.000  
  21919380.805   115187016.473       -1224.299          37.000  
  21946738.882   115330885.018       -1224.597          38.000  
  21758014.594   114339072.531       -1224.471          38.000  
  21910117.821   115138444.433       -1224.655          35.000  
  21912161.361   115149161.255       -1224.326          50.000  
  21931209.608   115249300.523       -1224.302          36.000  
  21858530.410   114867368.491       -1224.221          37.000  
  21832157.054   114728770.485       -1224.519          36.000  
  22027041.840   115752884.852       -1224.557          33.000  
  21912109.762   115149142.901       -1224.328          48.000  
  21921242.280   115196920.080       -1224.269          37.000  
  21948203.389   115338629.521       -1224.196          38.000  
  21853839.764   114842717.536       -1224.342          40.000  
  22052236.490   115885292.511       -1224.338          39.000  
 25  8 12  9 10  1.0010000  0 27G 5G 1G30G 3G 4G17G19G 7G12G22G 6G18
                                G29G24G21G23G26G 8G32G15G14G31G 2G28
                                G11G 9G10
  21912145.622   115149451.653       -1224.250          49.000  
  21912202.794   115149363.480       -1224.320          48.000  
  22016823.992   115699213.988       -1224.406          39.000  
  21912334.165   115149564.856       -1224.278          51.000  
  21912176.303   115149385.929       -1224.278          51.000  
  21910458.066   115140270.846       -1224.342          38.000  
  21974623.567   115477463.497       -1224.461          38.000  
  21912326.911   115149877.031       -1224.344          45.000  
  21792343.657   114519579.301       -1224.221          39.000  
  22046714.496   115856282.432       -1224.383          39.000  
  21912198.952   115149607.447       -1224.290          51.000  
  21771833.825   114411806.694       -1224.353          38.000  
  21748974.775   114291667.806       -1224.329          38.000  
  21919427.406   115187261.334       -1224.166          37.000  
  21946785.466   115331129.871       -1224.510          38.000  
  21758061.187   114339317.390       -1224.351          38.000  
  21910164.425   115138689.284       -1224.289          35.000  
  21912207.911   115149406.120       -1224.262          50.000  
  21931256.137   115249545.395       -1224.525          36.000  
  21858577.031   114867613.361       -1224.034          37.000  
  21832203.637   114729015.342       -1224.236          36.000  
  22027088.425   115753129.711       -1224.376          33.000  
  21912156.336   115149387.769       -1224.291          48.000  
  21921288.854   115197164.944       -1224.156          37.000  
  21948249.941   115338874.392       -1224.273          38.000  
  21853886.409   114842962.401       -1224.340          40.000  
  22052283.122   115885537.380       -1224.360          39.000  
 25  8 12  9 10  1.2010000  0 27G 5G 1G30G 3G 4G17G19G 7G12G22G 6G18
                                G29G24G21G23G26G 8G32G15G14G31G 2G28
                                G11G 9G10
  21912192.214   115149696.516       -1224.424          49.000  
  21912249.432   115149608.344       -1224.444          48.000  
  22016870.534   115699458.851       -1224.485          39.000  
  21912380.462   115149809.720       -1224.419          51.000  
  21912222.945   115149630.793       -1224.451          51.000  
  21910504.688   115140515.707       -1224.461          38.000  
  21974670.177   115477708.358       -1224.568          38.000  
  21912373.504   115150121.898       -1224.468          45.000  
  21792390.196   114519824.166       -1224.459          39.000  
  22046761.125   115856527.288       -1224.352          39.000  
  21912245.554   115149852.311       -1224.504          51.000  
  21771880.412   114412051.558       -1224.500          38.000  
  21749021.384   114291912.673       -1224.502          38.000  
  21919474.027   115187506.200       -1224.425          37.000  
  21946832.098   115331374.731       -1224.368          38.000  
  21758107.741   114339562.247       -1224.407          38.000  
  21910211.016   115138934.156       -1224.552          35.000  
  21912254.533   115149650.983       -1224.438          50.000  
  21931302.738   115249790.248       -1224.388          36.000  
  21858623.625   114867858.234       -1224.606          37.000  
  21832250.210   114729260.209       -1224.309          36.000  
  22027135.034   115753374.574       -1224.513          33.000  
  21912202.922   115149632.631       -1224.418          48.000  
  21921335.437   115197409.815       -1224.569          37.000  
  21948296.539   115339119.259       -1224.628          38.000  
  21853932.993   114843207.264       -1224.419          40.000  
  22052329.738   115885782.241       -1224.498          39.000  
 25  8 12  9 10  1.4010000  0 27G 5G 1G30G 3G 4G17G19G 7G12G22G 6G18
                                G29G24G21G23G26G 8G32G15G14G31G 2G28
                                G11G 9G10
  21912238.790   115149941.398       -1224.521          49.000  
  21912296.077   115149853.224       -1224.515          48.000  
  22016917.068   115699703.719       -1224.255          39.000  
  21912426.729   115150054.599       -1224.469          51.000  
  21912269.573   115149875.673       -1224.468          51.000  
  21910551.383   115140760.604       -1224.988          37.000  
  21974716.749   115477953.235       -1224.439          38.000  
  21912420.112   115150366.769       -1224.405          45.000  
  21792436.817   114520069.039       -1224.398          39.000  
  22046807.716   115856772.155       -1224.155          39.000  
  21912292.226   115150097.186       -1224.397          51.000  
  21771927.045   114412296.444       -1224.725          38.000  
  21749068.023   114292157.554       -1224.628          38.000  
  21919520.647   115187751.077       -1224.383          37.000  
  21946878.674   115331619.620       -1224.661          37.000  
  21758154.349   114339807.123       -1224.321          38.000  
  21910257.662   115139179.021       -1224.288          35.000  
  21912301.105   115149895.861       -1224.483          50.000  
  21931349.328   115250035.124       -1224.478          36.000  
  21858670.232   114868103.101       -1224.448          37.000  
  21832296.739   114729505.110       -1224.858          36.000  
  22027181.616   115753619.451       -1224.656          33.000  
  21912249.549   115149877.507       -1224.456          48.000  
  21921382.017   115197654.685       -1224.270          37.000  
  21948343.130   115339364.123       -1224.331          38.000  
  21853979.608   114843452.152       -1224.572          40.000  
  22052376.347   115886027.125       -1224.601          39.000  
 25  8 12  9 10  1.6010000  0 28G 5G 1G30G 3G 4G17G19G 7G12G22G25G 6
                                G18G29G24G21G23G26G 8G32G15G14G31G 2
                                G28G11G 9G10
  21912285.420   115150186.245       -1224.217          49.000  
  21912342.650   115150098.065       -1224.177          48.000  
  22016963.686   115699948.575       -1224.386          39.000  
  21912472.682   115150299.448       -1224.254          51.000  
  21912315.921   115150120.520       -1224.227          51.000  
  21910598.031   115141005.441       -1223.874          37.000  
  21974763.391   115478198.089       -1224.328          39.000  
  21912466.699   115150611.623       -1224.294          45.000  
  21792483.430   114520313.882       -1224.159          39.000  
  22046854.335   115857017.005       -1224.415          39.000  
  22014925.757   115689215.0161      -1224.052          33.000  
  21912338.846   115150342.036       -1224.292          51.000  
  21771973.664   114412541.290       -1224.086          38.000  
  21749114.610   114292402.400       -1224.054          38.000  
  21919567.270   115187995.935       -1224.182          37.000  
  21946925.310   115331864.473       -1224.196          38.000  
  21758200.903   114340051.971       -1224.312          38.000  
  21910304.266   115139423.867       -1224.331          35.000  
  21912347.719   115150140.709       -1224.188          50.000  
  21931395.887   115250279.976       -1224.224          35.000  
  21858716.819   114868347.931       -1224.182          37.000  
  21832343.316   114729749.943       -1224.073          37.000  
  22027228.229   115753864.315       -1224.126          34.000  
  21912296.109   115150122.351       -1224.235          48.000  
  21921428.605   115197899.533       -1224.372          37.000  
  21948389.794   115339608.969       -1224.362          38.000  
  21854026.210   114843696.995       -1224.232          40.000  
  22052422.947   115886271.966       -1224.250          39.000  
 25  8 12  9 10  1.8010000  0 28G 5G 1G30G 3G 4G17G19G 7G12G22G25G 6
                                G18G29G24G21G23G26G 8G32G15G14G31G 2
                                G28G11G 9G10
  21912332.034   115150431.105       -1224.186          49.000  
  21912389.241   115150342.934       -1224.289          48.000  
  22017010.268   115700193.434       -1224.385          39.000  
  21912518.636   115150544.311       -1224.302          51.000  
  21912362.127   115150365.382       -1224.257          51.000  
  21910644.640   115141250.320       -1224.209          37.000  
  21974809.958   115478442.954       -1224.387          39.000  
  21912513.323   115150856.485       -1224.291          45.000  
  21792530.015   114520558.746       -1224.153          39.000  
  22046900.909   115857261.865       -1224.338          39.000  
  22014972.309   115689459.886       -1224.139          34.000  
  21912385.468   115150586.899       -1224.277          51.000  
  21772020.299   114412786.163       -1224.426          38.000  
  21749161.237   114292647.271       -1224.204          38.000  
  21919613.865   115188240.799       -1224.381          36.000  
  21946971.898   115332109.343       -1224.510          38.000  
  21758247.551   114340296.831       -1224.285          38.000  
  21910350.856   115139668.731       -1224.293          34.000  
  21912394.319   115150385.570       -1224.173          50.000  
  21931442.417   115250524.846       -1224.400          35.000  
  21858763.382   114868592.794       -1224.098          37.000  
  21832389.929   114729994.821       -1224.375          37.000  
  22027274.771   115754109.185       -1224.333          34.000  
  21912342.722   115150367.217       -1224.250          48.000  
  21921475.187   115198144.387       -1224.239          37.000  
  21948436.375   115339853.823       -1224.169          38.000  
  21854072.834   114843941.864       -1224.268          39.000  
  22052469.558   115886516.829       -1224.258          39.000  
 25  8 12  9 10  2.0010000  0 28G 5G 1G30G 3G 4G17G19G 7G12G22G25G 6
                                G18G29G24G21G23G26G 8G32G15G14G31G 2
                                G28G11G 9G10
  21912378.621   115150675.973       -1224.446          49.000  
  21912435.856   115150587.797       -1224.407          48.000  
  22017056.794   115700438.299       -1224.433          39.000  
  21912564.705   115150789.173       -1224.434          51.000  
  21912408.365   115150610.247       -1224.426          51.000  
  21910691.241   115141495.189       -1224.465          37.000  
  21974856.528   115478687.820       -1224.548          39.000  
  21912559.895   115151101.350       -1224.477          45.000  
  21792576.632   114520803.612       -1224.397          39.000  
  22046947.508   115857506.725       -1224.345          39.000  
  22015018.807   115689704.759       -1224.546          34.000  
  21912431.861   115150831.764       -1224.439          51.000  
  21772066.936   114413031.025       -1224.504          38.000  
  21749207.826   114292892.135       -1224.370          38.000  
  21919660.428   115188485.672       -1224.551          36.000  
  21947018.521   115332354.202       -1224.444          38.000  
  21758294.094   114340541.695       -1224.303          38.000  
  21910397.446   115139913.590       -1224.386          34.000  
  21912440.952   115150630.438       -1224.486          50.000  
  21931488.978   115250769.700       -1224.319          35.000  
  21858809.950   114868837.664       -1224.482          37.000  
  21832436.537   114730239.677       -1224.374          37.000  
  22027321.387   115754354.047       -1224.452          35.000  
  21912389.301   115150612.085       -1224.451          48.000  
  21921521.812   115198389.251       -1224.378          37.000  
  21948482.993   115340098.692       -1224.448          39.000  
  21854119.411   114844186.726       -1224.478          40.000  
  22052516.200   115886761.694       -1224.427          39.000  
 25  8 12  9 10  2.2010000  0 28G 5G 1G30G 3G 4G17G19G 7G12G22G25G 6
                                G18G29G24G21G23G26G 8G32G15G14G31G 2
                                G28G11G 9G10
  21912425.237   115150920.824       -1224.340          49.000  
  21912482.438   115150832.649       -1224.240          48.000  
  22017103.399   115700683.149       -1224.247          39.000  
  21912610.783   115151034.021       -1224.255          51.000  
  21912454.665   115150855.097       -1224.306          51.000  
  21910737.839   115141740.033       -1224.169          37.000  
  21974903.114   115478932.665       -1224.288          39.000  
  21912606.481   115151346.200       -1224.233          45.000  
  21792623.211   114521048.461       -1224.242          39.000  
  22046994.107   115857751.573       -1224.238          39.000  
  22015065.365   115689949.602       -1224.228          34.000  
  21912478.331   115151076.614       -1224.287          51.000  
  21772113.530   114413275.870       -1224.283          38.000  
  21749254.452   114293136.987       -1224.279          38.000  
  21919706.988   115188730.521       -1224.595          36.000  
  21947065.106   115332599.046       -1224.231          38.000  
  21758340.738   114340786.556       -1224.396          38.000  
  21910444.007   115140158.449       -1224.349          34.000  
  21912487.525   115150875.289       -1224.286          50.000  
  21931535.525   115251014.554       -1224.248          35.000  
  21858856.540   114869082.506       -1224.135          37.000  
  21832483.162   114730484.528       -1224.362          37.000  
  22027367.986   115754598.894       -1224.303          35.000  
  21912435.898   115150856.932       -1224.263          48.000  
  21921568.382   115198634.107       -1224.228          37.000  
  21948529.577   115340343.537       -1224.259          39.000  
  21854166.016   114844431.569       -1224.143          40.000  
  22052562.777   115887006.545       -1224.328          39.000  
 25  8 12  9 10  2.4010000  0 28G 5G 1G30G 3G 4G17G19G 7G12G22G25G 6
                                G18G29G24G21G23G26G 8G32G15G14G31G 2
                                G28G11G 9G10
  21912471.806   115151165.659       -1224.277          49.000  
  21912529.028   115151077.486       -1224.297          48.000  
  22017150.000   115700927.982       -1224.305          39.000  
  21912657.279   115151278.861       -1224.281          51.000  
  21912500.954   115151099.929       -1224.238          51.000  
  21910784.487   115141984.877       -1224.353          37.000  
  21974949.657   115479177.484       -1224.219          39.000  
  21912653.021   115151591.033       -1224.239          45.000  
  21792669.809   114521293.299       -1224.240          39.000  
  22047040.683   115857996.429       -1224.347          39.000  
  22015111.915   115690194.439       -1224.372          34.000  
  21912524.868   115151321.446       -1224.266          51.000  
  21772160.098   114413520.691       -1224.250          38.000  
  21749301.025   114293381.804       -1224.136          38.000  
  21919753.563   115188975.348       -1224.177          36.000  
  21947111.737   115332843.884       -1224.205          38.000  
  21758387.340   114341031.383       -1224.260          38.000  
  21910490.551   115140403.280       -1224.212          34.000  
  21912534.165   115151120.122       -1224.245          50.000  
  21931582.086   115251259.373       -1224.148          35.000  
  21858903.161   114869327.369       -1224.410          37.000  
  21832529.781   114730729.358       -1224.091          37.000  
  22027414.615   115754843.716       -1224.143          35.000  
  21912482.505   115151101.770       -1224.257          48.000  
  21921614.989   115198878.971       -1224.352          37.000  
  21948576.208   115340588.396       -1224.258          39.000  
  21854212.603   114844676.408       -1224.094          40.000  
  22052609.380   115887251.368       -1224.132          39.000  
 25  8 12  9 10  2.6010000  0 28G 5G 1G30G 3G 4G17G19G 7G12G22G25G 6
                                G18G29G24G21G23G26G 8G32G15G14G31G 2
                                G28G11G 9G10
  21912518.407   115151410.505       -1224.280          49.000  
  21912575.592   115151322.332       -1224.296          48.000  
  22017196.564   115701172.838       -1224.354          39.000  
  21912704.206   115151523.708       -1224.278          51.000  
  21912547.196   115151344.778       -1224.233          51.000  
  21910831.073   115142229.717       -1224.335          37.000  
  21974996.304   115479422.339       -1224.325          39.000  
  21912699.599   115151835.879       -1224.194          45.000  
  21792716.407   114521538.143       -1224.210          39.000  
  22047087.277   115858241.273       -1224.319          39.000  
  22015158.486   115690439.292       -1224.257          34.000  
  21912571.481   115151566.295       -1224.300          51.000  
  21772206.662   114413765.548       -1224.266          38.000  
  21749347.626   114293626.653       -1224.216          38.000  
  21919800.189   115189220.198       -1224.333          36.000  
  21947158.339   115333088.737       -1224.187          38.000  
  21758433.971   114341276.236       -1224.270          38.000  
  21910537.127   115140648.128       -1224.321          34.000  
  21912580.711   115151364.970       -1224.285          50.000  
  21931628.676   115251504.226       -1224.104          35.000  
  21858949.722   114869572.203       -1224.285          37.000  
  21832576.371   114730974.215       -1224.246          37.000  
  22027461.256   115755088.579       -1224.205          35.000  
  21912529.104   115151346.616       -1224.212          48.000  
  21921661.546   115199123.810       -1224.324          37.000  
  21948622.809   115340833.241       -1224.411          39.000  
  21854259.216   114844921.262       -1224.363          40.000  
  22052655.966   115887496.223       -1224.272          39.000  
 25  8 12  9 10  2.8010000  0 28G 5G 1G30G 3G 4G17G19G 7G12G22G25G 6
                                G18G29G24G21G23G26G 8G32G15G14G31G 2
                                G28G11G 9G10
  21912565.018   115151655.357       -1224.183          49.000  
  21912622.181   115151567.182       -1224.234          48.000  
  22017243.124   115701417.690       -1224.344          39.000  
  21912750.606   115151768.561       -1224.263          51.000  
  21912593.516   115151589.631       -1224.215          51.000  
  21910877.727   115142474.565       -1224.030          37.000  
  21975042.902   115479667.185       -1224.142          39.000  
  21912746.195   115152080.731       -1224.164          45.000  
  21792762.997   114521782.998       -1224.141          39.000  
  22047133.896   115858486.123       -1224.229          39.000  
  22015205.056   115690684.143       -1224.255          33.000  
  21912618.177   115151811.148       -1224.215          51.000  
  21772253.238   114414010.399       -1224.325          38.000  
  21749394.227   114293871.506       -1224.106          38.000  
  21919846.854   115189465.052       -1224.234          36.000  
  21947204.947   115333333.591       -1224.323          38.000  
  21758480.537   114341521.086       -1224.258          38.000  
  21910583.714   115140892.978       -1224.128          34.000  
  21912627.301   115151609.821       -1224.222          50.000  
  21931675.280   115251749.078       -1224.175          35.000  
  21858996.355   114869817.051       -1224.126          37.000  
  21832622.981   114731219.077       -1224.341          37.000  
  22027507.868   115755333.430       -1224.276          34.000  
  21912575.695   115151591.470       -1224.235          48.000  
  21921708.133   115199368.666       -1224.239          37.000  
  21948669.393   115341078.085       -1224.132          39.000  
  21854305.790   114845166.115       -1224.363          40.000  
  22052702.588   115887741.072       -1224.096          40.000  
 25  8 12  9 10  3.0010000  0 28G 5G 1G30G 3G 4G17G19G 7G12G22G25G 6
                                G18G29G24G21G23G26G 8G32G15G14G31G 2
                                G28G11G 9G10
  21912611.670   115151900.211       -1224.339          49.000  
  21912668.760   115151812.033       -1224.322          48.000  
  22017289.659   115701662.531       -1224.264          39.000  
  21912797.240   115152013.408       -1224.250          51.000  
  21912639.868   115151834.483       -1224.294          51.000  
  21910924.289   115142719.424       -1224.299          37.000  
  21975089.478   115479912.035       -1224.217          38.000  
  21912792.770   115152325.585       -1224.285          45.000  
  21792809.592   114522027.860       -1224.502          39.000  
  22047180.504   115858730.969       -1224.190          39.000  
  22015251.644   115690928.989       -1224.079          33.000  
  21912664.733   115152055.997       -1224.242          51.000  
  21772299.877   114414255.245       -1224.344          38.000  
  21749440.836   114294116.373       -1224.528          38.000  
  21919893.453   115189709.907       -1224.473          36.000  
  21947251.527   115333578.423       -1224.006          38.000  
  21758527.119   114341765.928       -1224.106          38.000  
  21910630.317   115141137.840       -1224.293          33.000  
  21912673.921   115151854.675       -1224.340          50.000  
  21931721.850   115251993.928       -1224.257          35.000  
  21859042.939   114870061.919       -1224.388          37.000  
  21832669.576   114731463.923       -1224.419          37.000  
  22027554.476   115755578.277       -1224.409          34.000  
  21912622.302   115151836.321       -1224.341          48.000  
  21921754.677   115199613.515       -1224.308          37.000  
  21948715.978   115341322.949       -1224.396          39.000  
  21854352.390   114845410.958       -1224.276          40.000  
  22052749.156   115887985.935       -1224.383          40.000  
 25  8 12  9 10  3.2010000  0 28G 5G 1G30G 3G 4G17G19G 7G12G22G25G 6
                                G18G29G24G21G23G26G 8G32G15G14G31G 2
                                G28G11G 9G10
  21912658.297   115152145.023       -1224.208          49.000  
  21912715.365   115152056.848       -1224.240          48.000  
  22017336.252   115701907.353       -1224.242          39.000  
  21912843.653   115152258.224       -1224.153          51.000  
  21912686.245   115152079.293       -1224.160          51.000  
  21910970.897   115142964.245       -1224.491          37.000  
  21975136.046   115480156.854       -1224.251          38.000  
  21912839.373   115152570.390       -1223.990          45.000  
  21792856.195   114522272.675       -1224.397          39.000  
  22047227.102   115858975.783       -1224.107          39.000  
  22015298.254   115691173.812       -1224.284          33.000  
  21912711.348   115152300.812       -1224.205          51.000  
  21772346.430   114414500.041       -1223.771          38.000  
  21749487.447   114294361.185       -1224.437          38.000  
  21919940.056   115189954.706       -1224.011          36.000  
  21947298.113   115333823.250       -1224.127          38.000  
  21758573.676   114342010.750       -1224.076          39.000  
  21910676.839   115141382.638       -1224.041          33.000  
  21912720.527   115152099.487       -1224.253          50.000  
  21931768.401   115252238.770       -1224.712          35.000  
  21859089.553   114870306.700       -1223.749          37.000  
  21832716.196   114731708.718       -1224.026          37.000  
  22027601.089   115755823.098       -1224.417          34.000  
  21912668.846   115152081.133       -1224.233          48.000  
  21921801.253   115199858.326       -1224.175          37.000  
  21948762.600   115341567.761       -1224.419          39.000  
  21854398.910   114845655.764       -1224.036          40.000  
  22052795.764   115888230.749       -1224.425          40.000  
 25  8 12  9 10  3.4010000  0 28G 5G 1G30G 3G 4G17G19G 7G12G22G25G 6
                                G18G29G24G21G23G26G 8G32G15G14G31G 2
                                G28G11G 9G10
  21912704.887   115152389.871       -1224.310          49.000  
  21912761.962   115152301.700       -1224.373          47.000  
  22017382.868   115702152.198       -1224.360          40.000  
  21912889.424   115152503.073       -1224.348          51.000  
  21912732.980   115152324.143       -1224.406          51.000  
  21911017.564   115143209.099       -1224.258          38.000  
  21975182.641   115480401.704       -1224.234          38.000  
  21912885.994   115152815.241       -1224.471          45.000  
  21792902.828   114522517.525       -1224.250          39.000  
  22047273.693   115859220.632       -1224.302          39.000  
  22015344.797   115691418.656       -1224.480          33.000  
  21912757.716   115152545.660       -1224.348          51.000  
  21772392.993   114414744.895       -1224.448          38.000  
  21749534.061   114294606.039       -1224.224          38.000  
  21919986.672   115190199.561       -1224.528          36.000  
  21947344.736   115334068.098       -1224.531          38.000  
  21758620.251   114342255.608       -1224.581          39.000  
  21910723.366   115141627.482       -1224.533          33.000  
  21912767.088   115152344.335       -1224.303          50.000  
  21931815.033   115252483.623       -1224.112          35.000  
  21859136.143   114870551.547       -1224.467          37.000  
  21832762.769   114731953.577       -1224.609          37.000  
  22027647.733   115756067.953       -1224.542          34.000  
  21912715.404   115152325.980       -1224.230          48.000  
  21921847.854   115200103.167       -1224.473          36.000  
  21948809.145   115341812.605       -1224.234          38.000  
  21854445.531   114845900.615       -1224.474          40.000  
  22052842.390   115888475.596       -1224.308          39.000  
 25  8 12  9 10  3.6010000  0 28G 5G 1G30G 3G 4G17G19G 7G12G22G25G 6
                                G18G29G24G21G23G26G 8G32G15G14G31G 2
                                G28G11G 9G10
  21912751.537   115152634.713       -1224.215          49.000  
  21912808.535   115152546.539       -1224.197          47.000  
  22017429.433   115702397.038       -1224.260          40.000  
  21912935.199   115152747.913       -1224.221          51.000  
  21912779.870   115152568.983       -1224.234          51.000  
  21911064.182   115143453.947       -1224.273          38.000  
  21975229.194   115480646.542       -1224.128          38.000  
  21912932.608   115153060.077       -1224.196          45.000  
  21792949.428   114522762.369       -1224.178          39.000  
  22047320.305   115859465.474       -1224.135          39.000  
  22015391.364   115691663.492       -1224.242          33.000  
  21912804.071   115152790.501       -1224.226          51.000  
  21772439.537   114414989.726       -1224.115          38.000  
  21749580.658   114294850.887       -1224.247          38.000  
  21920033.283   115190444.402       -1224.305          36.000  
  21947391.318   115334312.928       -1224.106          38.000  
  21758666.804   114342500.434       -1224.064          39.000  
  21910769.924   115141872.320       -1224.176          33.000  
  21912813.709   115152589.178       -1224.248          50.000  
  21931861.655   115252728.462       -1223.986          34.000  
  21859182.637   114870796.390       -1224.330          37.000  
  21832809.373   114732198.399       -1224.186          37.000  
  22027694.345   115756312.797       -1224.542          34.000  
  21912761.971   115152570.827       -1224.212          48.000  
  21921894.438   115200348.004       -1224.105          36.000  
  21948855.784   115342057.465       -1224.470          38.000  
  21854492.088   114846145.445       -1224.182          40.000  
  22052888.996   115888720.442       -1224.187          39.000  
 25  8 12  9 10  3.8010000  0 28G 5G 1G30G 3G 4G17G19G 7G12G22G25G 6
                                G18G29G24G21G23G26G 8G32G15G14G31G 2
                                G28G11G 9G10
  21912798.149   115152879.556       -1224.273          49.000  
  21912855.160   115152791.382       -1224.296          47.000  
  22017475.999   115702641.876       -1224.284          40.000  
  21912981.280   115152992.754       -1224.293          51.000  
  21912826.673   115152813.828       -1224.338          51.000  
  21911110.702   115143698.780       -1224.219          38.000  
  21975275.757   115480891.385       -1224.358          38.000  
  21912979.193   115153304.926       -1224.297          45.000  
  21792996.020   114523007.217       -1224.395          39.000  
  22047366.935   115859710.320       -1224.343          39.000  
  22015437.865   115691908.336       -1224.441          33.000  
  21912850.337   115153035.342       -1224.309          51.000  
  21772486.129   114415234.571       -1224.226          38.000  
  21749627.277   114295095.729       -1224.412          38.000  
  21920079.870   115190689.246       -1224.381          36.000  
  21947437.923   115334557.774       -1224.437          38.000  
  21758713.475   114342745.282       -1224.269          39.000  
  21910816.475   115142117.164       -1224.470          33.000  
  21912860.261   115152834.018       -1224.209          50.000  
  21931908.246   115252973.313       -1224.519          34.000  
  21859229.275   114871041.241       -1224.463          37.000  
  21832855.962   114732443.253       -1224.335          37.000  
  22027740.977   115756557.624       -1224.200          34.000  
  21912808.567   115152815.672       -1224.338          48.000  
  21921941.024   115200592.845       -1224.281          36.000  
  21948902.346   115342302.300       -1224.267          38.000  
  21854538.704   114846390.283       -1224.119          40.000  
  22052935.613   115888965.285       -1224.321          39.000  
 25  8 12  9 10  4.0010000  0 28G 5G 1G30G 3G 4G17G19G 7G12G22G25G 6
                                G18G29G24G21G23G26G 8G32G15G14G31G 2
                                G28G11G 9G10
  21912844.797   115153124.402       -1224.371          49.000  
  21912901.774   115153036.229       -1224.351          47.000  
  22017522.617   115702886.724       -1224.264          40.000  
  21913027.939   115153237.604       -1224.340          51.000  
  21912873.201   115153058.676       -1224.384          51.000  
  21911157.172   115143943.639       -1224.380          38.000  
  21975322.349   115481136.226       -1224.198          38.000  
  21913025.796   115153549.776       -1224.396          45.000  
  21793042.636   114523252.062       -1224.357          39.000  
  22047413.541   115859955.168       -1224.414          39.000  
  22015484.413   115692153.179       -1224.338          33.000  
  21912896.553   115153280.191       -1224.329          51.000  
  21772532.742   114415479.422       -1224.282          38.000  
  21749673.836   114295340.580       -1224.376          38.000  
  21920126.485   115190934.093       -1224.408          36.000  
  21947484.545   115334802.611       -1224.225          38.000  
  21758760.080   114342990.134       -1224.419          39.000  
  21910863.102   115142362.006       -1224.293          33.000  
  21912906.891   115153078.868       -1224.316          50.000  
  21931954.848   115253218.153       -1224.223          34.000  
  21859275.820   114871286.083       -1224.458          37.000  
  21832902.608   114732688.098       -1224.335          37.000  
  22027787.572   115756802.477       -1224.322          34.000  
  21912855.146   115153060.520       -1224.349          48.000  
  21921987.585   115200837.693       -1224.277          36.000  
  21948948.933   115342547.156       -1224.393          38.000  
  21854585.299   114846635.142       -1224.402          40.000  
  22052982.226   115889210.134       -1224.369          39.000  
 25  8 12  9 10  4.2010000  0 28G 5G 1G30G 3G 4G17G19G 7G12G22G25G 6
                                G18G29G24G21G23G26G 8G32G15G14G31G 2
                                G28G11G 9G10
  21912891.375   115153369.224       -1224.144          49.000  
  21912948.336   115153281.053       -1224.135          47.000  
  22017569.208   115703131.555       -1224.139          38.000  
  21913074.650   115153482.423       -1224.152          51.000  
  21912919.996   115153303.498       -1224.129          51.000  
  21911203.734   115144188.423       -1224.171          36.000  
  21975368.959   115481381.054       -1224.003          38.000  
  21913072.367   115153794.597       -1224.061          45.000  
  21793089.212   114523496.871       -1224.166          39.000  
  22047460.117   115860199.983       -1224.160          39.000  
  22015530.992   115692397.992       -1224.033          33.000  
  21912943.035   115153525.016       -1224.089          51.000  
  21772579.334   114415724.268       -1224.275          38.000  
  21749720.434   114295585.369       -1224.094          38.000  
  21920173.105   115191178.886       -1224.068          36.000  
  21947531.132   115335047.457       -1224.196          38.000  
  21758806.674   114343234.936       -1224.232          39.000  
  21910909.679   115142606.853       -1224.275          33.000  
  21912953.498   115153323.691       -1224.190          50.000  
  21932001.411   115253462.941       -1224.064          34.000  
  21859322.394   114871530.925       -1224.092          38.000  
  21832949.151   114732932.938       -1224.218          37.000  
  22027834.178   115757047.298       -1224.362          34.000  
  21912901.690   115153305.335       -1224.134          48.000  
  21922034.202   115201082.504       -1223.991          36.000  
  21948995.454   115342791.950       -1224.139          38.000  
  21854631.872   114846879.981       -1224.132          40.000  
  22053028.807   115889454.950       -1224.034          39.000  
 25  8 12  9 10  4.4010000  0 28G 5G 1G30G 3G 4G17G19G 7G12G22G25G 6
                                G18G29G24G21G23G26G 8G32G15G14G31G 2
                                G28G11G 9G10
  21912937.983   115153614.046       -1224.104          49.000  
  21912994.935   115153525.874       -1224.125          47.000  
  22017615.785   115703376.377       -1224.163          38.000  
  21913120.867   115153727.245       -1224.078          51.000  
  21912966.865   115153548.321       -1224.106          51.000  
  21911250.292   115144433.246       -1223.879          36.000  
  21975415.555   115481625.880       -1223.954          38.000  
  21913118.965   115154039.423       -1224.132          45.000  
  21793135.823   114523741.695       -1224.087          39.000  
  22047506.684   115860444.802       -1223.993          38.000  
  22015577.599   115692642.814       -1224.020          34.000  
  21912989.778   115153769.840       -1224.125          51.000  
  21772625.927   114415969.078       -1224.028          38.000  
  21749766.998   114295830.202       -1224.114          38.000  
  21920219.712   115191423.715       -1223.921          36.000  
  21947577.678   115335292.272       -1224.104          38.000  
  21758853.209   114343479.756       -1223.959          39.000  
  21910956.311   115142851.668       -1224.158          33.000  
  21913000.070   115153568.515       -1224.080          50.000  
  21932048.007   115253707.778       -1224.164          34.000  
  21859368.959   114871775.753       -1224.338          38.000  
  21832995.744   114733177.761       -1224.211          37.000  
  22027880.751   115757292.109       -1224.178          35.000  
  21912948.249   115153550.157       -1224.052          48.000  
  21922080.809   115201327.331       -1224.054          36.000  
  21949042.054   115343036.778       -1224.046          38.000  
  21854678.424   114847124.799       -1224.053          40.000  
  22053075.405   115889699.775       -1223.970          39.000  
 25  8 12  9 10  4.6010000  0 28G 5G 1G30G 3G 4G17G19G 7G12G22G25G 6
                                G18G29G24G21G23G26G 8G32G15G14G31G 2
                                G28G11G 9G10
  21912984.585   115153858.888       -1224.189          49.000  
  21913041.513   115153770.714       -1224.198          47.000  
  22017662.364   115703621.223       -1224.360          38.000  
  21913167.201   115153972.086       -1224.222          51.000  
  21913013.546   115153793.161       -1224.230          51.000  
  21911296.858   115144678.089       -1224.165          36.000  
  21975462.200   115481870.723       -1224.326          38.000  
  21913165.485   115154284.265       -1224.221          45.000  
  21793182.423   114523986.539       -1224.276          39.000  
  22047553.291   115860689.646       -1224.218          38.000  
  22015624.102   115692887.664       -1224.341          34.000  
  21913036.578   115154014.678       -1224.190          51.000  
  21772672.506   114416213.920       -1224.230          39.000  
  21749813.577   114296075.038       -1224.242          38.000  
  21920266.343   115191668.555       -1224.276          36.000  
  21947624.303   115335537.115       -1224.183          38.000  
  21758899.779   114343724.594       -1224.125          39.000  
  21911002.925   115143096.506       -1224.259          33.000  
  21913046.629   115153813.357       -1224.204          50.000  
  21932094.576   115253952.612       -1224.361          34.000  
  21859415.566   114872020.590       -1224.124          38.000  
  21833042.228   114733422.602       -1224.192          37.000  
  22027927.346   115757536.947       -1224.086          35.000  
  21912994.838   115153794.999       -1224.228          48.000  
  21922127.345   115201572.170       -1224.207          36.000  
  21949088.664   115343281.620       -1224.244          38.000  
  21854725.001   114847369.639       -1224.183          40.000  
  22053122.017   115889944.622       -1224.344          39.000  
 25  8 12  9 10  4.8010000  0 28G 5G 1G30G 3G 4G17G19G 7G12G22G25G 6
                                G18G29G24G21G23G26G 8G32G15G14G31G 2
                                G28G11G 9G10
  21913031.173   115154103.734       -1224.277          49.000  
  21913088.103   115154015.558       -1224.307          47.000  
  22017708.931   115703866.064       -1224.324          38.000  
  21913213.526   115154216.932       -1224.277          51.000  
  21913060.171   115154038.008       -1224.303          51.000  
  21911343.455   115144922.933       -1224.145          36.000  
  21975508.784   115482115.570       -1224.469          38.000  
  21913212.065   115154529.110       -1224.312          45.000  
  21793229.050   114524231.374       -1224.106          39.000  
  22047599.897   115860934.487       -1224.228          38.000  
  22015670.668   115693132.500       -1224.183          34.000  
  21913083.268   115154259.524       -1224.305          51.000  
  21772719.105   114416458.763       -1224.258          39.000  
  21749860.214   114296319.886       -1224.199          38.000  
  21920312.906   115191913.405       -1224.423          36.000  
  21947670.896   115335781.960       -1224.352          37.000  
  21758946.348   114343969.447       -1224.332          39.000  
  21911049.519   115143341.360       -1224.466          34.000  
  21913093.256   115154058.199       -1224.224          50.000  
  21932141.179   115254197.460       -1224.331          35.000  
  21859462.183   114872265.434       -1224.237          38.000  
  21833088.804   114733667.440       -1224.093          37.000  
  22027973.935   115757781.791       -1224.174          35.000  
  21913041.435   115154039.845       -1224.265          48.000  
  21922173.963   115201817.022       -1224.314          37.000  
  21949135.245   115343526.456       -1224.024          38.000  
  21854771.594   114847614.487       -1224.302          40.000  
  22053168.586   115890189.463       -1224.324          39.000  
 25  8 12  9 10  5.0010000  0 28G 5G 1G30G 3G 4G17G19G 7G12G22G25G 6
                                G18G29G24G21G23G26G 8G32G15G14G31G 2
                                G28G11G 9G10
  21913077.762   115154348.560       -1224.307          49.000  
  21913134.683   115154260.384       -1224.221          47.000  
  22017755.506   115704110.895       -1224.324          38.000  
  21913259.940   115154461.762       -1224.314          51.000  
  21913106.729   115154282.834       -1224.267          51.000  
  21911390.073   115145167.772       -1224.359          36.000  
  21975555.379   115482360.400       -1224.340          39.000  
  21913258.684   115154773.935       -1224.229          45.000  
  21793275.656   114524476.200       -1224.214          39.000  
  22047646.506   115861179.328       -1224.443          38.000  
  22015717.256   115693377.351       -1224.707          34.000  
  21913129.998   115154504.348       -1224.223          51.000  
  21772765.687   114416703.609       -1224.507          39.000  
  21749906.768   114296564.707       -1224.283          38.000  
  21920359.495   115192158.244       -1224.509          36.000  
  21947717.475   115336026.784       -1224.132          38.000  
  21758992.939   114344214.289       -1224.551          39.000  
  21911096.127   115143586.172       -1224.096          34.000  
  21913139.864   115154303.026       -1224.307          50.000  
  21932187.782   115254442.288       -1224.271          35.000  
  21859508.753   114872510.248       -1224.155          38.000  
  21833135.410   114733912.266       -1224.227          37.000  
  22028020.459   115758026.629       -1224.276          35.000  
  21913088.043   115154284.673       -1224.294          48.000  
  21922220.545   115202061.846       -1224.305          37.000  
  21949181.824   115343771.283       -1224.135          39.000  
  21854818.170   114847859.312       -1224.249          40.000  
  22053215.175   115890434.284       -1224.233          40.000  
 25  8 12  9 10  5.2010000  0 28G 5G 1G30G 3G 4G17G19G 7G12G22G25G 6
                                G18G29G24G21G23G26G 8G32G15G14G31G 2
                                G28G11G 9G10
  21913124.373   115154593.403       -1224.248          49.000  
  21913181.258   115154505.229       -1224.253          47.000  
  22017802.081   115704355.738       -1224.208          39.000  
  21913306.686   115154706.604       -1224.233          51.000  
  21913153.300   115154527.678       -1224.247          51.000  
  21911436.641   115145412.616       -1224.207          37.000  
  21975601.909   115482605.242       -1224.166          39.000  
  21913305.276   115155018.779       -1224.259          45.000  
  21793322.299   114524721.047       -1224.133          39.000  
  22047693.106   115861424.170       -1224.234          38.000  
  22015763.808   115693622.199       -1224.062          34.000  
  21913176.615   115154749.193       -1224.245          51.000  
  21772812.296   114416948.445       -1224.031          39.000  
  21749953.337   114296809.548       -1224.062          38.000  
  21920406.076   115192403.077       -1223.876          36.000  
  21947764.048   115336271.620       -1224.300          38.000  
  21759039.529   114344459.130       -1224.164          39.000  
  21911142.691   115143831.016       -1224.194          34.000  
  21913186.497   115154547.867       -1224.248          50.000  
  21932234.348   115254687.124       -1224.255          34.000  
  21859555.344   114872755.096       -1224.312          38.000  
  21833182.005   114734157.115       -1224.391          37.000  
  22028067.057   115758271.468       -1224.217          35.000  
  21913134.634   115154529.515       -1224.227          48.000  
  21922267.103   115202306.684       -1224.327          37.000  
  21949228.402   115344016.122       -1224.205          39.000  
  21854864.756   114848104.157       -1224.255          40.000  
  22053261.772   115890679.119       -1224.140          39.000  
 25  8 12  9 10  5.4010000  0 28G 5G 1G30G 3G 4G17G19G 7G12G22G25G 6
                                G18G29G24G21G23G26G 8G32G15G14G31G 2
                                G28G11G 9G10
  21913170.961   115154838.230       -1224.056          49.000  
  21913227.849   115154750.058       -1224.069          47.000  
  22017848.664   115704600.569       -1224.107          39.000  
  21913353.435   115154951.432       -1224.083          51.000  
  21913199.918   115154772.505       -1224.049          51.000  
  21911483.210   115145657.444       -1224.048          37.000  
  21975648.542   115482850.069       -1224.061          39.000  
  21913351.883   115155263.605       -1224.076          45.000  
  21793368.892   114524965.878       -1224.067          39.000  
  22047739.750   115861668.999       -1224.057          38.000  
  22015810.361   115693867.025       -1224.005          34.000  
  21913223.148   115154994.021       -1224.050          51.000  
  21772858.900   114417193.288       -1224.124          38.000  
  21749999.895   114297054.379       -1224.027          38.000  
  21920452.711   115192647.923       -1224.093          36.000  
  21947810.690   115336516.448       -1224.119          38.000  
  21759086.113   114344703.964       -1224.133          39.000  
  21911189.317   115144075.845       -1224.023          34.000  
  21913232.992   115154792.693       -1224.037          50.000  
  21932280.935   115254931.955       -1223.990          34.000  
  21859601.899   114872999.917       -1223.988          38.000  
  21833228.584   114734401.930       -1224.008          37.000  
  22028113.615   115758516.296       -1223.993          35.000  
  21913181.230   115154774.341       -1223.977          48.000  
  21922313.716   115202551.509       -1224.003          37.000  
  21949275.043   115344260.951       -1224.049          39.000  
  21854911.397   114848348.985       -1224.078          40.000  
  22053308.311   115890923.956       -1224.059          39.000  
 25  8 12  9 10  5.6010000  0 28G 5G 1G30G 3G 4G17G19G 7G12G22G25G 6
                                G18G29G24G21G23G26G 8G32G15G14G31G 2
                                G28G11G 9G10
  21913217.586   115155083.078       -1224.316          49.000  
  21913274.409   115154994.906       -1224.317          48.000  
  22017895.252   115704845.410       -1224.199          39.000  
  21913400.306   115155196.279       -1224.317          51.000  
  21913246.453   115155017.354       -1224.348          51.000  
  21911529.777   115145902.293       -1224.371          37.000  
  21975695.088   115483094.920       -1224.370          39.000  
  21913398.495   115155508.454       -1224.368          45.000  
  21793415.438   114525210.729       -1224.360          39.000  
  22047786.302   115861913.852       -1224.380          38.000  
  22015856.911   115694111.873       -1224.274          33.000  
  21913269.612   115155238.869       -1224.316          51.000  
  21772905.519   114417438.131       -1224.368          38.000  
  21750046.473   114297299.233       -1224.266          38.000  
  21920499.375   115192892.776       -1224.540          36.000  
  21947857.281   115336761.294       -1224.372          38.000  
  21759132.723   114344948.809       -1224.398          39.000  
  21911235.895   115144320.696       -1224.426          34.000  
  21913279.651   115155037.541       -1224.310          50.000  
  21932327.489   115255176.808       -1224.293          34.000  
  21859648.471   114873244.773       -1224.313          38.000  
  21833275.147   114734646.787       -1224.377          37.000  
  22028160.246   115758761.152       -1224.465          35.000  
  21913227.770   115155019.193       -1224.354          48.000  
  21922360.297   115202796.362       -1224.321          37.000  
  21949321.553   115344505.801       -1224.346          39.000  
  21854958.020   114848593.832       -1224.337          40.000  
  22053354.860   115891168.803       -1224.416          39.000  
 25  8 12  9 10  5.8010000  0 28G 5G 1G30G 3G 4G17G19G 7G12G22G25G 6
                                G18G29G24G21G23G26G 8G32G15G14G31G 2
                                G28G11G 9G10
  21913264.179   115155327.905       -1224.091          49.000  
  21913320.977   115155239.735       -1224.151          48.000  
  22017941.817   115705090.245       -1224.278          39.000  
  21913447.058   115155441.107       -1224.177          51.000  
  21913292.925   115155262.180       -1224.171          51.000  
  21911576.324   115146147.116       -1224.060          37.000  
  21975741.660   115483339.750       -1224.323          38.000  
  21913445.045   115155753.279       -1224.171          45.000  
  21793462.064   114525455.552       -1224.053          39.000  
  22047832.910   115862158.667       -1224.128          38.000  
  22015903.410   115694356.713       -1224.203          33.000  
  21913315.955   115155483.698       -1224.175          51.000  
  21772952.077   114417682.960       -1224.276          38.000  
  21750093.066   114297544.055       -1224.054          38.000  
  21920545.989   115193137.591       -1224.298          36.000  
  21947903.865   115337006.124       -1224.377          38.000  
  21759179.288   114345193.635       -1224.211          39.000  
  21911282.449   115144565.528       -1224.371          34.000  
  21913326.200   115155282.369       -1224.096          50.000  
  21932374.105   115255421.634       -1224.204          34.000  
  21859695.026   114873489.596       -1224.077          38.000  
  21833321.715   114734891.610       -1224.036          37.000  
  22028206.792   115759005.972       -1224.305          35.000  
  21913274.350   115155264.020       -1224.122          48.000  
  21922406.903   115203041.180       -1224.051          37.000  
  21949368.148   115344750.630       -1224.043          39.000  
  21855004.582   114848838.655       -1224.072          40.000  
  22053401.490   115891413.626       -1224.031          39.000  
 25  8 12  9 10  6.0010000  0 28G 5G 1G30G 3G 4G17G19G 7G12G22G25G 6
                                G18G29G24G21G23G26G 8G32G15G14G31G 2
                                G28G11G 9G10
  21913310.794   115155572.750       -1224.110          49.000  
  21913367.542   115155484.581       -1224.088          48.000  
  22017988.399   115705335.070       -1223.922          39.000  
  21913493.709   115155685.947       -1224.038          51.000  
  21913339.532   115155507.024       -1224.044          51.000  
  21911622.915   115146391.951       -1224.064          37.000  
  21975788.242   115483584.580       -1224.029          39.000  
  21913491.595   115155998.125       -1224.070          45.000  
  21793508.634   114525700.396       -1224.076          39.000  
  22047879.472   115862403.501       -1223.890          38.000  
  22015949.941   115694601.504       -1224.045          34.000  
  21913362.508   115155728.540       -1224.052          51.000  
  21772998.666   114417927.780       -1224.045          39.000  
  21750139.734   114297788.905       -1224.077          38.000  
  21920592.556   115193382.413       -1223.988          36.000  
  21947950.421   115337250.971       -1223.862          38.000  
  21759225.929   114345438.456       -1223.901          39.000  
  21911328.942   115144810.373       -1224.104          34.000  
  21913372.863   115155527.216       -1224.102          50.000  
  21932420.625   115255666.475       -1223.998          34.000  
  21859741.616   114873734.459       -1224.222          38.000  
  21833368.302   114735136.460       -1223.994          37.000  
  22028253.374   115759250.804       -1223.799          35.000  
  21913320.942   115155508.864       -1224.123          48.000  
  21922453.502   115203286.031       -1223.907          37.000  
  21949414.728   115344995.493       -1224.278          39.000  
  21855051.222   114849083.505       -1224.110          40.000  
  22053448.054   115891658.474       -1224.041          39.000  
 25  8 12  9 10  6.2010000  0 28G 5G 1G30G 3G 4G17G19G 7G12G22G25G 6
                                G18G29G24G21G23G26G 8G32G15G14G31G 2
                                G28G11G 9G10
  21913357.363   115155817.556       -1224.021          49.000  
  21913414.116   115155729.385       -1223.994          48.000  
  22018034.990   115705579.891       -1223.943          39.000  
  21913540.245   115155930.756       -1224.007          51.000  
  21913386.095   115155751.831       -1224.000          51.000  
  21911669.524   115146636.762       -1224.113          37.000  
  21975834.851   115483829.397       -1224.072          39.000  
  21913538.199   115156242.934       -1224.039          45.000  
  21793555.213   114525945.207       -1224.113          39.000  
  22047926.103   115862648.316       -1224.004          38.000  
  22015996.544   115694846.315       -1223.749          34.000  
  21913409.153   115155973.348       -1224.014          51.000  
  21773045.191   114418172.590       -1223.877          39.000  
  21750186.275   114298033.711       -1224.110          38.000  
  21920639.101   115193627.232       -1224.069          36.000  
  21947996.968   115337495.784       -1224.030          38.000  
  21759272.492   114345683.274       -1224.044          39.000  
  21911375.462   115145055.176       -1224.068          34.000  
  21913419.426   115155772.022       -1224.047          50.000  
  21932467.195   115255911.286       -1224.035          35.000  
  21859788.188   114873979.252       -1224.023          38.000  
  21833414.918   114735381.262       -1223.973          37.000  
  22028299.971   115759495.623       -1224.005          35.000  
  21913367.555   115155753.668       -1224.008          48.000  
  21922500.082   115203530.838       -1223.968          37.000  
  21949461.323   115345240.286       -1224.017          39.000  
  21855097.807   114849328.310       -1224.006          40.000  
  22053494.661   115891903.290       -1224.104          39.000  
 25  8 12  9 10  6.4010000  0 28G 5G 1G30G 3G 4G17G19G 7G12G22G25G 6
                                G18G29G24G21G23G26G 8G32G15G14G31G 2
                                G28G11G 9G10
  21913403.949   115156062.360       -1224.220          49.000  
  21913460.710   115155974.190       -1224.222          48.000  
  22018081.589   115705824.695       -1224.239          39.000  
  21913586.729   115156175.563       -1224.219          51.000  
  21913432.572   115155996.638       -1224.246          51.000  
  21911716.175   115146881.564       -1224.188          37.000  
  21975881.396   115484074.193       -1224.177          39.000  
  21913584.772   115156487.741       -1224.272          45.000  
  21793601.795   114526190.012       -1224.242          39.000  
  22047972.664   115862893.118       -1224.134          38.000  
  22016043.117   115695091.133       -1224.245          34.000  
  21913455.840   115156218.153       -1224.220          51.000  
  21773091.770   114418417.399       -1224.309          39.000  
  21750232.874   114298278.509       -1224.213          38.000  
  21920685.694   115193872.036       -1224.229          36.000  
  21948043.491   115337740.590       -1224.113          38.000  
  21759319.062   114345928.079       -1224.172          39.000  
  21911422.012   115145299.977       -1224.107          34.000  
  21913466.071   115156016.827       -1224.241          50.000  
  21932513.785   115256156.097       -1224.241          35.000  
  21859834.761   114874224.058       -1224.180          38.000  
  21833461.549   114735626.074       -1224.285          37.000  
  22028346.581   115759740.432       -1224.223          35.000  
  21913414.187   115155998.474       -1224.181          48.000  
  21922546.623   115203775.648       -1224.158          37.000  
  21949507.912   115345485.091       -1224.185          39.000  
  21855144.389   114849573.114       -1224.259          40.000  
  22053541.247   115892148.085       -1224.231          39.000  
 25  8 12  9 10  6.6010000  0 28G 5G 1G30G 3G 4G17G19G 7G12G22G25G 6
                                G18G29G24G21G23G26G 8G32G15G14G31G 2
                                G28G11G 9G10
  21913450.542   115156307.175       -1224.243          49.000  
  21913507.290   115156219.002       -1224.217          48.000  
  22018128.151   115706069.508       -1224.223          39.000  
  21913633.243   115156420.376       -1224.243          51.000  
  21913479.159   115156241.450       -1224.211          51.000  
  21911762.792   115147126.374       -1224.193          36.000  
  21975928.005   115484319.011       -1224.127          39.000  
  21913631.365   115156732.550       -1224.205          45.000  
  21793648.370   114526434.824       -1224.192          39.000  
  22048019.251   115863137.934       -1224.142          38.000  
  22016089.694   115695335.949       -1224.281          34.000  
  21913502.538   115156462.968       -1224.243          51.000  
  21773138.360   114418662.211       -1224.214          39.000  
  21750279.456   114298523.335       -1224.412          38.000  
  21920732.277   115194116.849       -1224.294          36.000  
  21948090.085   115337985.400       -1224.146          38.000  
  21759365.621   114346172.892       -1224.164          39.000  
  21911468.585   115145544.790       -1224.088          34.000  
  21913512.656   115156261.644       -1224.295          50.000  
  21932560.393   115256400.901       -1224.137          35.000  
  21859881.336   114874468.880       -1224.346          38.000  
  21833508.135   114735870.885       -1224.156          37.000  
  22028393.222   115759985.249       -1224.232          35.000  
  21913460.763   115156243.289       -1224.237          49.000  
  21922593.205   115204020.462       -1224.229          37.000  
  21949554.518   115345729.913       -1224.317          39.000  
  21855190.948   114849817.929       -1224.218          40.000  
  22053587.805   115892392.903       -1224.252          39.000  
 25  8 12  9 10  6.8010000  0 28G 5G 1G30G 3G 4G17G19G 7G12G22G25G 6
                                G18G29G24G21G23G26G 8G32G15G14G31G 2
                                G28G11G 9G10
  21913497.134   115156551.992       -1224.098          49.000  
  21913553.850   115156463.816       -1224.039          47.000  
  22018174.752   115706314.327       -1224.215          39.000  
  21913679.637   115156665.197       -1224.183          51.000  
  21913525.865   115156486.269       -1224.117          51.000  
  21911809.388   115147371.201       -1224.173          36.000  
  21975974.582   115484563.839       -1224.367          39.000  
  21913677.964   115156977.368       -1224.011          45.000  
  21793694.907   114526679.641       -1224.131          39.000  
  22048065.834   115863382.761       -1224.272          38.000  
  22016136.269   115695580.787       -1224.662          34.000  
  21913549.211   115156707.786       -1224.143          51.000  
  21773184.919   114418907.041       -1224.473          39.000  
  21750326.066   114298768.140       -1224.039          38.000  
  21920778.878   115194361.675       -1224.288          36.000  
  21948136.676   115338230.212       -1224.001          38.000  
  21759412.268   114346417.714       -1224.218          39.000  
  21911515.208   115145789.610       -1224.152          34.000  
  21913559.226   115156506.457       -1224.051          50.000  
  21932606.920   115256645.738       -1224.374          35.000  
  21859927.930   114874713.689       -1224.060          38.000  
  21833554.673   114736115.708       -1224.229          37.000  
  22028439.806   115760230.052       -1224.012          35.000  
  21913507.340   115156488.105       -1224.132          48.000  
  21922639.779   115204265.272       -1224.061          37.000  
  21949601.060   115345974.711       -1223.886          39.000  
  21855237.475   114850062.746       -1224.122          40.000  
  22053634.352   115892637.716       -1224.126          39.000  
 25  8 12  9 10  7.0010000  0 28G 5G 1G30G 3G 4G17G19G 7G12G22G25G 6
                                G18G29G24G21G23G26G 8G32G15G14G31G 2
                                G28G11G 9G10
  21913543.771   115156796.815       -1224.143          49.000  
  21913600.450   115156708.642       -1224.167          47.000  
  22018221.335   115706559.146       -1224.128          39.000  
  21913725.932   115156910.018       -1224.123          51.000  
  21913572.891   115156731.088       -1224.104          51.000  
  21911855.968   115147616.027       -1224.078          37.000  
  21976021.223   115484808.657       -1224.094          39.000  
  21913724.577   115157222.191       -1224.159          45.000  
  21793741.492   114526924.466       -1224.073          39.000  
  22048112.475   115863627.575       -1224.002          38.000  
  22016182.857   115695825.595       -1224.196          34.000  
  21913595.571   115156952.606       -1224.103          51.000  
  21773231.523   114419151.863       -1224.137          38.000  
  21750372.647   114299012.966       -1223.992          38.000  
  21920825.471   115194606.499       -1224.145          36.000  
  21948183.279   115338475.030       -1224.356          38.000  
  21759458.828   114346662.527       -1224.126          39.000  
  21911561.785   115146034.436       -1224.235          34.000  
  21913605.827   115156751.281       -1224.141          50.000  
  21932653.500   115256890.547       -1224.139          35.000  
  21859974.490   114874958.520       -1224.187          38.000  
  21833601.296   114736360.524       -1224.114          37.000  
  22028486.378   115760474.876       -1224.203          35.000  
  21913553.924   115156732.930       -1224.094          48.000  
  21922686.399   115204510.094       -1224.084          37.000  
  21949647.679   115346219.541       -1224.029          39.000  
  21855284.093   114850307.576       -1224.167          40.000  
  22053680.910   115892882.544       -1224.248          39.000  
 25  8 12  9 10  7.2010000  0 28G 5G 1G30G 3G 4G17G19G 7G12G22G25G 6
                                G18G29G24G21G23G26G 8G32G15G14G31G 2
                                G28G11G 9G10
  21913590.386   115157041.650       -1224.327          49.000  
  21913647.034   115156953.476       -1224.314          47.000  
  22018267.966   115706803.982       -1224.375          39.000  
  21913772.545   115157154.852       -1224.249          51.000  
  21913619.842   115156975.923       -1224.261          51.000  
  21911902.607   115147860.862       -1224.263          37.000  
  21976067.796   115485053.493       -1224.217          39.000  
  21913771.118   115157467.024       -1224.268          45.000  
  21793788.130   114527169.296       -1224.274          39.000  
  22048158.999   115863872.413       -1224.221          38.000  
  22016229.388   115696070.439       -1224.274          34.000  
  21913641.967   115157197.441       -1224.275          51.000  
  21773278.118   114419396.700       -1224.269          38.000  
  21750419.244   114299257.808       -1224.393          38.000  
  21920872.064   115194851.332       -1224.258          36.000  
  21948229.850   115338719.858       -1224.259          38.000  
  21759505.419   114346907.363       -1224.312          39.000  
  21911608.387   115146279.264       -1224.256          34.000  
  21913652.492   115156996.115       -1224.300          50.000  
  21932700.039   115257135.381       -1224.004          35.000  
  21860021.059   114875203.351       -1224.415          38.000  
  21833647.867   114736605.357       -1224.304          37.000  
  22028532.951   115760719.710       -1224.433          36.000  
  21913600.472   115156977.765       -1224.360          48.000  
  21922732.954   115204754.928       -1224.178          37.000  
  21949694.213   115346464.384       -1224.500          39.000  
  21855330.670   114850552.407       -1224.290          40.000  
  22053727.534   115893127.373       -1224.274          39.000  
 25  8 12  9 10  7.4010000  0 28G 5G 1G30G 3G 4G17G19G 7G12G22G25G 6
                                G18G29G24G21G23G26G 8G32G15G14G31G 2
                                G28G11G 9G10
  21913636.987   115157286.471       -1224.196          49.000  
  21913693.609   115157198.300       -1224.215          48.000  
  22018314.548   115707048.799       -1224.145          39.000  
  21913819.272   115157399.677       -1224.229          51.000  
  21913666.715   115157220.746       -1224.181          51.000  
  21911949.172   115148105.681       -1224.211          37.000  
  21976114.399   115485298.317       -1224.098          39.000  
  21913817.735   115157711.847       -1224.170          45.000  
  21793834.767   114527414.116       -1224.156          38.000  
  22048205.578   115864117.243       -1224.213          38.000  
  22016275.953   115696315.262       -1224.360          34.000  
  21913688.295   115157442.265       -1224.190          51.000  
  21773324.683   114419641.521       -1224.247          38.000  
  21750465.800   114299502.629       -1224.210          38.000  
  21920918.685   115195096.157       -1224.162          36.000  
  21948276.416   115338964.682       -1224.117          38.000  
  21759551.987   114347152.191       -1224.216          39.000  
  21911654.965   115146524.089       -1224.101          34.000  
  21913699.079   115157240.937       -1224.208          50.000  
  21932746.653   115257380.212       -1224.074          35.000  
  21860067.635   114875448.171       -1224.221          38.000  
  21833694.497   114736850.180       -1224.156          37.000  
  22028579.544   115760964.530       -1224.247          36.000  
  21913647.024   115157222.585       -1224.185          48.000  
  21922779.589   115204999.751       -1224.111          37.000  
  21949740.839   115346709.190       -1224.187          39.000  
  21855377.248   114850797.230       -1224.174          40.000  
  22053774.086   115893372.199       -1224.273          39.000  
 25  8 12  9 10  7.6010000  0 28G 5G 1G30G 3G 4G17G19G 7G12G22G25G 6
                                G18G29G24G21G23G26G 8G32G15G14G31G 2
                                G28G11G 9G10
  21913683.626   115157531.301       -1224.186          49.000  
  21913740.161   115157443.130       -1224.184          47.000  
  22018361.137   115707293.634       -1224.152          39.000  
  21913865.923   115157644.507       -1224.204          51.000  
  21913713.454   115157465.577       -1224.218          51.000  
  21911995.794   115148350.512       -1224.198          37.000  
  21976160.979   115485543.153       -1224.250          39.000  
  21913864.331   115157956.679       -1224.144          45.000  
  21793881.360   114527658.954       -1224.285          38.000  
  22048252.152   115864362.079       -1224.333          38.000  
  22016322.513   115696560.092       -1224.210          34.000  
  21913734.692   115157687.097       -1224.217          51.000  
  21773371.278   114419886.357       -1224.135          38.000  
  21750512.404   114299747.462       -1224.224          38.000  
  21920965.272   115195340.992       -1224.296          36.000  
  21948322.960   115339209.518       -1224.242          38.000  
  21759598.566   114347397.025       -1224.207          39.000  
  21911701.572   115146768.923       -1224.146          34.000  
  21913745.703   115157485.767       -1224.219          50.000  
  21932793.247   115257625.045       -1224.207          35.000  
  21860114.232   114875693.003       -1224.225          39.000  
  21833741.075   114737095.021       -1224.360          37.000  
  22028626.172   115761209.368       -1224.341          36.000  
  21913693.625   115157467.418       -1224.186          48.000  
  21922826.178   115205244.584       -1224.169          37.000  
  21949787.364   115346954.019       -1224.048          39.000  
  21855423.837   114851042.061       -1224.240          40.000  
  22053820.671   115893617.026       -1224.178          39.000  
 25  8 12  9 10  7.8010000  0 28G 5G 1G30G 3G 4G17G19G 7G12G22G25G 6
                                G18G29G24G21G23G26G 8G32G15G14G31G 2
                                G28G11G 9G10
  21913730.276   115157776.129       -1224.166          49.000  
  21913786.772   115157687.955       -1224.233          47.000  
  22018407.709   115707538.460       -1224.324          39.000  
  21913912.470   115157889.332       -1224.252          51.000  
  21913760.314   115157710.399       -1224.174          51.000  
  21912042.421   115148595.316       -1224.162          37.000  
  21976207.574   115485787.960       -1224.259          39.000  
  21913910.948   115158201.507       -1224.244          45.000  
  21793927.945   114527903.797       -1224.172          38.000  
  22048298.774   115864606.902       -1224.329          38.000  
  22016369.102   115696804.930       -1224.247          34.000  
  21913781.250   115157931.923       -1224.218          51.000  
  21773417.880   114420131.176       -1224.296          38.000  
  21750558.967   114299992.252       -1224.152          38.000  
  21921011.895   115195585.795       -1224.218          36.000  
  21948369.555   115339454.342       -1224.249          38.000  
  21759645.087   114347641.856       -1224.417          39.000  
  21911748.199   115147013.746       -1224.266          34.000  
  21913792.271   115157730.593       -1224.179          50.000  
  21932839.849   115257869.864       -1224.216          34.000  
  21860160.844   114875937.814       -1224.094          39.000  
  21833787.651   114737339.824       -1224.188          37.000  
  22028672.694   115761454.190       -1224.269          36.000  
  21913740.213   115157712.242       -1224.138          48.000  
  21922872.769   115205489.435       -1224.148          37.000  
  21949833.961   115347198.852       -1224.122          39.000  
  21855470.371   114851286.888       -1224.108          40.000  
  22053867.272   115893861.855       -1224.184          39.000  
 25  8 12  9 10  8.0010000  0 28G 5G 1G30G 3G 4G17G19G 7G12G22G25G 6
                                G18G29G24G21G23G26G 8G32G15G14G31G 2
                                G28G11G 9G10
  21913776.890   115158020.953       -1224.207          49.000  
  21913833.345   115157932.780       -1224.178          47.000  
  22018454.276   115707783.286       -1224.290          38.000  
  21913959.001   115158134.155       -1224.193          51.000  
  21913807.281   115157955.226       -1224.200          51.000  
  21912089.002   115148840.140       -1224.247          36.000  
  21976254.138   115486032.785       -1224.060          39.000  
  21913957.555   115158446.330       -1224.207          45.000  
  21793974.506   114528148.624       -1224.327          38.000  
  22048345.349   115864851.718       -1224.104          38.000  
  22016415.646   115697049.755       -1224.218          34.000  
  21913827.917   115158176.747       -1224.239          51.000  
  21773464.458   114420375.992       -1223.983          38.000  
  21750605.547   114300237.078       -1223.964          38.000  
  21921058.453   115195830.626       -1224.298          36.000  
  21948416.116   115339699.172       -1224.268          38.000  
  21759691.723   114347886.676       -1224.153          39.000  
  21911794.825   115147258.567       -1224.141          34.000  
  21913838.852   115157975.419       -1224.219          50.000  
  21932886.442   115258114.697       -1224.420          34.000  
  21860207.451   114876182.644       -1224.188          39.000  
  21833834.234   114737584.651       -1224.099          37.000  
  22028719.322   115761699.013       -1224.144          36.000  
  21913786.811   115157957.070       -1224.226          48.000  
  21922919.314   115205734.263       -1224.307          37.000  
  21949880.525   115347443.676       -1224.174          39.000  
  21855516.908   114851531.712       -1224.268          40.000  
  22053913.861   115894106.676       -1224.161          39.000  
 25  8 12  9 10  8.2010000  0 28G 5G 1G30G 3G 4G17G19G 7G12G22G25G 6
                                G18G29G24G21G23G26G 8G32G15G14G31G 2
                                G28G11G 9G10
  21913823.522   115158265.789       -1224.210          49.000  
  21913879.968   115158177.615       -1224.202          47.000  
  22018500.887   115708028.117       -1224.288          38.000  
  21914005.593   115158378.994       -1224.274          51.000  
  21913854.305   115158200.060       -1224.224          51.000  
  21912135.624   115149084.979       -1224.178          36.000  
  21976300.759   115486277.631       -1224.225          39.000  
  21914004.144   115158691.166       -1224.223          45.000  
  21794021.092   114528393.451       -1224.164          38.000  
  22048391.967   115865096.559       -1224.142          38.000  
  22016462.191   115697294.600       -1224.458          34.000  
  21913874.596   115158421.581       -1224.229          51.000  
  21773511.085   114420620.837       -1224.219          38.000  
  21750652.135   114300481.918       -1224.200          38.000  
  21921105.011   115196075.460       -1224.242          37.000  
  21948462.656   115339944.006       -1224.287          38.000  
  21759738.320   114348131.506       -1224.131          39.000  
  21911841.424   115147503.399       -1223.968          34.000  
  21913885.455   115158220.253       -1224.223          50.000  
  21932933.009   115258359.516       -1224.270          34.000  
  21860254.058   114876427.479       -1224.199          39.000  
  21833880.825   114737829.485       -1224.177          37.000  
  22028765.946   115761943.851       -1224.240          36.000  
  21913833.411   115158201.904       -1224.209          48.000  
  21922965.928   115205979.095       -1224.291          37.000  
  21949927.150   115347688.510       -1224.202          39.000  
  21855563.456   114851776.552       -1224.277          39.000  
  22053960.471   115894351.519       -1224.375          39.000  
 25  8 12  9 10  8.4010000  0 28G 5G 1G30G 3G 4G17G19G 7G12G22G25G 6
                                G18G29G24G21G23G26G 8G32G15G14G31G 2
                                G28G11G 9G10
  21913870.108   115158510.590       -1224.097          49.000  
  21913926.613   115158422.421       -1224.157          47.000  
  22018547.468   115708272.917       -1224.081          38.000  
  21914052.252   115158623.793       -1224.113          51.000  
  21913901.308   115158444.863       -1224.091          51.000  
  21912182.234   115149329.789       -1224.182          36.000  
  21976347.394   115486522.421       -1224.049          39.000  
  21914050.767   115158935.966       -1224.179          45.000  
  21794067.691   114528638.257       -1224.126          38.000  
  22048438.509   115865341.361       -1224.079          38.000  
  22016508.754   115697539.380       -1224.003          34.000  
  21913921.287   115158666.387       -1224.123          51.000  
  21773557.654   114420865.633       -1224.070          38.000  
  21750698.761   114300726.724       -1224.139          38.000  
  21921151.610   115196320.262       -1224.108          37.000  
  21948509.172   115340188.802       -1224.015          38.000  
  21759784.968   114348376.313       -1224.127          39.000  
  21911888.019   115147748.206       -1223.991          34.000  
  21913932.061   115158465.058       -1224.109          50.000  
  21932979.594   115258604.316       -1224.021          34.000  
  21860300.639   114876672.282       -1224.160          39.000  
  21833927.465   114738074.295       -1224.121          37.000  
  22028812.478   115762188.644       -1224.036          36.000  
  21913879.989   115158446.707       -1224.116          48.000  
  21923012.530   115206223.900       -1224.160          37.000  
  21949973.717   115347933.311       -1224.043          39.000  
  21855610.030   114852021.356       -1224.211          39.000  
  22054007.078   115894596.311       -1223.970          39.000  
 25  8 12  9 10  8.6010000  0 28G 5G 1G30G 3G 4G17G19G 7G12G22G25G 6
                                G18G29G24G21G23G26G 8G32G15G14G31G 2
                                G28G11G 9G10
  21913916.759   115158755.413       -1224.087          49.000  
  21913973.225   115158667.241       -1224.003          47.000  
  22018594.059   115708517.746       -1224.208          38.000  
  21914099.294   115158868.614       -1224.015          51.000  
  21913948.012   115158689.689       -1224.086          51.000  
  21912228.866   115149574.609       -1224.132          36.000  
  21976393.981   115486767.244       -1223.903          39.000  
  21914097.382   115159180.800       -1224.203          45.000  
  21794114.291   114528883.072       -1223.958          38.000  
  22048485.097   115865586.200       -1224.262          38.000  
  22016555.322   115697784.208       -1223.796          34.000  
  21913967.670   115158911.215       -1224.173          51.000  
  21773604.230   114421110.481       -1224.592          38.000  
  21750745.345   114300971.544       -1224.037          38.000  
  21921198.215   115196565.105       -1224.468          37.000  
  21948555.760   115340433.637       -1224.174          38.000  
  21759831.555   114348621.156       -1224.346          39.000  
  21911934.618   115147993.037       -1224.248          34.000  
  21913978.620   115158709.878       -1224.049          50.000  
  21933026.155   115258849.137       -1223.967          34.000  
  21860347.238   114876917.118       -1224.323          39.000  
  21833974.089   114738319.123       -1224.187          37.000  
  22028859.079   115762433.501       -1224.557          36.000  
  21913926.599   115158691.538       -1224.211          48.000  
  21923059.097   115206468.718       -1224.042          37.000  
  21950020.347   115348178.134       -1224.008          39.000  
  21855656.589   114852266.165       -1223.901          39.000  
  22054053.695   115894841.136       -1223.943          39.000  
 25  8 12  9 10  8.8010000  0 28G 5G 1G30G 3G 4G17G19G 7G12G22G25G 6
                                G18G29G24G21G23G26G 8G32G15G14G31G 2
                                G28G11G 9G10
  21913963.366   115159000.236       -1224.201          49.000  
  21914019.781   115158912.060       -1224.162          47.000  
  22018640.652   115708762.569       -1224.031          38.000  
  21914145.618   115159113.440       -1224.204          51.000  
  21913994.649   115158934.514       -1224.148          51.000  
  21912275.460   115149819.424       -1224.200          36.000  
  21976440.557   115487012.070       -1224.390          39.000  
  21914143.941   115159425.622       -1224.017          45.000  
  21794160.917   114529127.896       -1224.211          38.000  
  22048531.697   115865831.021       -1224.019          38.000  
  22016601.875   115698029.027       -1224.400          34.000  
  21914014.133   115159156.032       -1224.086          51.000  
  21773650.818   114421355.310       -1223.967          39.000  
  21750791.947   114301216.369       -1224.071          38.000  
  21921244.758   115196809.925       -1223.807          37.000  
  21948602.320   115340678.457       -1224.138          38.000  
  21759878.181   114348865.978       -1223.987          38.000  
  21911981.223   115148237.857       -1224.189          34.000  
  21914025.189   115158954.699       -1224.116          50.000  
  21933072.766   115259093.959       -1224.338          34.000  
  21860393.825   114877161.943       -1223.876          39.000  
  21834020.653   114738563.943       -1223.923          37.000  
  22028905.707   115762678.323       -1223.876          36.000  
  21913973.199   115158936.355       -1224.104          48.000  
  21923105.671   115206713.536       -1224.323          37.000  
  21950066.919   115348422.963       -1224.228          37.000  
  21855703.168   114852510.983       -1224.135          39.000  
  22054100.310   115895085.959       -1224.352          39.000  
 25  8 12  9 10  9.0010000  0 28G 5G 1G30G 3G 4G17G19G 7G12G22G25G 6
                                G18G29G24G21G23G26G 8G32G15G14G31G 2
                                G28G11G 9G10
  21914009.958   115159245.059       -1224.162          49.000  
  21914066.382   115159156.875       -1224.093          47.000  
  22018687.178   115709007.392       -1224.154          38.000  
  21914191.855   115159358.253       -1224.141          51.000  
  21914041.216   115159179.327       -1224.114          51.000  
  21912322.058   115150064.251       -1224.295          36.000  
  21976487.168   115487256.876       -1224.102          39.000  
  21914190.547   115159670.442       -1224.157          45.000  
  21794207.519   114529372.706       -1224.094          38.000  
  22048578.323   115866075.835       -1223.956          38.000  
  22016648.434   115698273.823       -1224.126          34.000  
  21914060.659   115159400.851       -1224.059          51.000  
  21773697.429   114421600.132       -1224.081          39.000  
  21750838.465   114301461.189       -1224.014          38.000  
  21921291.286   115197054.740       -1223.719          37.000  
  21948648.892   115340923.263       -1223.979          38.000  
  21759924.751   114349110.797       -1224.091          38.000  
  21912027.835   115148482.664       -1223.936          34.000  
  21914071.794   115159199.522       -1224.177          50.000  
  21933119.343   115259338.768       -1223.971          33.000  
  21860440.456   114877406.780       -1224.279          39.000  
  21834067.254   114738808.766       -1224.075          38.000  
  22028952.266   115762923.149       -1224.044          36.000  
  21914019.799   115159181.173       -1224.093          48.000  
  21923152.281   115206958.351       -1224.234          37.000  
  21950113.535   115348667.780       -1224.279          37.000  
  21855749.746   114852755.798       -1224.121          40.000  
  22054146.907   115895330.769       -1224.202          38.000  
 25  8 12  9 10  9.2010000  0 28G 5G 1G30G 3G 4G17G19G 7G12G22G25G 6
                                G18G29G24G21G23G26G 8G32G15G14G31G 2
                                G28G11G 9G10
  21914056.582   115159489.852       -1223.909          49.000  
  21914112.923   115159401.670       -1223.849          47.000  
  22018733.775   115709252.192       -1223.925          38.000  
  21914238.298   115159603.050       -1223.902          51.000  
  21914087.893   115159424.127       -1223.867          51.000  
  21912368.723   115150309.038       -1224.064          36.000  
  21976533.744   115487501.676       -1223.984          39.000  
  21914237.145   115159915.238       -1223.935          45.000  
  21794254.109   114529617.503       -1223.806          38.000  
  22048624.896   115866320.642       -1223.873          38.000  
  22016694.922   115698518.640       -1223.772          34.000  
  21914107.256   115159645.654       -1223.853          51.000  
  21773744.013   114421844.928       -1223.903          39.000  
  21750885.084   114301705.986       -1223.881          37.000  
  21921337.844   115197299.552       -1223.821          37.000  
  21948695.449   115341168.060       -1223.586          38.000  
  21759971.385   114349355.607       -1224.111          38.000  
  21912074.383   115148727.472       -1223.881          35.000  
  21914118.353   115159444.317       -1223.896          50.000  
  21933165.992   115259583.574       -1224.063          33.000  
  21860487.056   114877651.569       -1223.961          39.000  
  21834113.853   114739053.563       -1223.872          38.000  
  22028998.823   115763167.940       -1223.713          35.000  
  21914066.368   115159425.967       -1223.864          48.000  
  21923198.859   115207203.147       -1223.830          37.000  
  21950160.113   115348912.573       -1223.929          37.000  
  21855796.350   114853000.594       -1223.826          40.000  
  22054193.532   115895575.563       -1223.888          38.000  
 25  8 12  9 10  9.4010000  0 28G 5G 1G30G 3G 4G17G19G 7G12G22G25G 6
                                G18G29G24G21G23G26G 8G32G15G14G31G 2
                                G28G11G 9G10
  21914103.248   115159734.669       -1224.330          49.000  
  21914159.541   115159646.492       -1224.446          47.000  
  22018780.397   115709497.001       -1224.289          38.000  
  21914284.732   115159847.866       -1224.330          51.000  
  21914134.512   115159668.940       -1224.291          51.000  
  21912415.334   115150553.845       -1224.304          36.000  
  21976580.372   115487746.491       -1224.309          39.000  
  21914283.746   115160160.053       -1224.330          45.000  
  21794300.653   114529862.316       -1224.266          38.000  
  22048671.495   115866565.458       -1224.440          38.000  
  22016741.408   115698763.453       -1224.481          34.000  
  21914153.888   115159890.466       -1224.353          51.000  
  21773790.647   114422089.748       -1224.354          39.000  
  21750931.630   114301950.807       -1224.320          37.000  
  21921384.390   115197544.377       -1224.499          37.000  
  21948742.056   115341412.886       -1224.413          38.000  
  21760017.925   114349600.414       -1224.528          38.000  
  21912120.973   115148972.288       -1224.407          35.000  
  21914164.942   115159689.131       -1224.312          50.000  
  21933212.523   115259828.370       -1224.075          33.000  
  21860533.649   114877896.378       -1224.275          39.000  
  21834160.493   114739298.372       -1224.135          38.000  
  22029045.415   115763412.764       -1224.372          35.000  
  21914112.934   115159670.787       -1224.368          48.000  
  21923245.432   115207447.967       -1224.401          37.000  
  21950206.721   115349157.378       -1224.182          37.000  
  21855842.946   114853245.411       -1224.417          40.000  
  22054240.153   115895820.377       -1224.381          38.000  
 25  8 12  9 10  9.6010000  0 28G 5G 1G30G 3G 4G17G19G 7G12G22G25G 6
                                G18G29G24G21G23G26G 8G32G15G14G31G 2
                                G28G11G 9G10
  21914149.847   115159979.507       -1224.188          49.000  
  21914206.123   115159891.324       -1224.123          47.000  
  22018827.028   115709741.835       -1224.178          40.000  
  21914330.816   115160092.712       -1224.215          51.000  
  21914180.753   115159913.775       -1224.250          51.000  
  21912461.927   115150798.736       -1224.326          36.000  
  21976626.970   115487991.339       -1224.121          39.000  
  21914330.328   115160404.873       -1224.072          45.000  
  21794347.253   114530107.194       -1224.249          38.000  
  22048718.094   115866810.264       -1224.098          38.000  
  22016788.033   115699008.229       -1224.166          31.000  
  21914200.329   115160135.297       -1224.166          51.000  
  21773837.240   114422334.533       -1224.368          39.000  
  21750978.243   114302195.672       -1224.203          37.000  
  21921430.993   115197789.221       -1224.251          37.000  
  21948788.618   115341657.719       -1224.187          38.000  
  21760064.528   114349845.247       -1224.261          38.000  
  21912167.601   115149217.095       -1224.149          35.000  
  21914211.486   115159933.972       -1224.262          49.000  
  21933259.155   115260073.256       -1224.243          33.000  
  21860580.216   114878141.190       -1224.238          39.000  
  21834207.030   114739543.187       -1224.258          37.000  
  22029091.953   115763657.543       -1224.212          35.000  
  21914159.520   115159915.615       -1224.187          48.000  
  21923291.980   115207692.778       -1224.238          37.000  
  21950253.305   115349402.284       -1224.454          37.000  
  21855889.527   114853490.253       -1224.270          40.000  
  22054286.730   115896065.233       -1224.303          38.000  
 25  8 12  9 10  9.8010000  0 27G 5G 1G30G 3G 4G17G19G 7G12G22G 6G18
                                G29G24G21G23G26G 8G32G15G14G31G 2G28
                                G11G 9G10
  21914196.478   115160224.355       -1224.368          49.000  
  21914252.768   115160136.172       -1224.442          47.000  
  22018873.666   115709986.678       -1224.396          40.000  
  21914376.964   115160337.549       -1224.342          51.000  
  21914226.987   115160158.613       -1224.270          51.000  
  21912508.594   115151043.572       -1224.396          36.000  
  21976673.524   115488236.186       -1224.504          39.000  
  21914376.910   115160649.721       -1224.306          45.000  
  21794393.878   114530352.022       -1224.420          38.000  
  22048764.700   115867055.110       -1224.279          38.000  
  21914246.543   115160380.141       -1224.386          51.000  
  21773883.795   114422579.387       -1224.308          38.000  
  21751024.787   114302440.511       -1224.409          37.000  
  21921477.626   115198034.060       -1224.433          37.000  
  21948835.209   115341902.556       -1224.259          38.000  
  21760111.122   114350090.091       -1224.429          38.000  
  21912214.169   115149461.933       -1224.115          35.000  
  21914258.107   115160178.808       -1224.316          49.000  
  21933305.728   115260318.089       -1224.429          33.000  
  21860626.783   114878386.036       -1224.218          39.000  
  21834253.613   114739788.027       -1224.166          37.000  
  22029138.508   115763902.390       -1224.040          35.000  
  21914206.096   115160160.464       -1224.311          48.000  
  21923338.568   115207937.628       -1224.263          37.000  
  21950299.918   115349647.110       -1224.506          37.000  
  21855936.136   114853735.090       -1224.313          40.000  
  22054333.303   115896310.066       -1224.356          38.000  
 25  8 12  9 10 10.0010000  0 27G 5G 1G30G 3G 4G17G19G 7G12G22G 6G18
                                G29G24G21G23G26G 8G32G15G14G31G 2G28
                                G11G 9G10
  21914243.106   115160469.207       -1224.355          49.000  
  21914299.354   115160381.028       -1224.419          47.000  
  22018920.225   115710231.532       -1224.456          40.000  
  21914423.234   115160582.401       -1224.270          51.000  
  21914273.392   115160403.467       -1224.230          51.000  
  21912555.175   115151288.416       -1224.242          36.000  
  21976720.087   115488481.031       -1224.303          39.000  
  21914423.503   115160894.575       -1224.369          45.000  
  21794440.491   114530596.876       -1224.176          38.000  
  22048811.279   115867299.957       -1224.274          38.000  
  21914292.783   115160624.992       -1224.264          51.000  
  21773930.414   114422824.239       -1224.343          38.000  
  21751071.407   114302685.366       -1224.287          37.000  
  21921524.209   115198278.910       -1224.323          37.000  
  21948881.824   115342147.408       -1224.177          39.000  
  21760157.747   114350334.936       -1224.253          38.000  
  21912260.731   115149706.793       -1224.235          35.000  
  21914304.709   115160423.659       -1224.238          49.000  
  21933352.268   115260562.938       -1224.155          33.000  
  21860673.391   114878630.885       -1224.240          39.000  
  21834300.212   114740032.888       -1224.340          37.000  
  22029185.145   115764147.254       -1224.406          35.000  
  21914252.676   115160405.318       -1224.295          48.000  
  21923385.120   115208182.491       -1224.482          37.000  
  21950346.484   115349891.961       -1224.295          37.000  
  21855982.755   114853979.948       -1224.316          40.000  
  22054379.890   115896554.919       -1224.218          39.000  
 25  8 12  9 10 10.2010000  0 27G 5G 1G30G 3G 4G17G19G 7G12G22G 6G18
                                G29G24G21G23G26G 8G32G15G14G31G 2G28
                                G11G 9G10
  21914289.737   115160714.024       -1224.241          49.000  
  21914345.985   115160625.846       -1224.281          47.000  
  22018966.819   115710476.347       -1224.138          40.000  
  21914469.598   115160827.227       -1224.244          51.000  
  21914320.002   115160648.297       -1224.293          51.000  
  21912601.748   115151533.240       -1224.192          37.000  
  21976766.712   115488725.854       -1224.086          39.000  
  21914470.089   115161139.395       -1224.265          45.000  
  21794487.067   114530841.700       -1224.319          38.000  
  22048857.898   115867544.792       -1224.251          38.000  
  21914339.042   115160869.822       -1224.248          51.000  
  21773977.004   114423069.057       -1224.197          38.000  
  21751117.973   114302930.189       -1224.274          37.000  
  21921570.776   115198523.731       -1224.032          38.000  
  21948928.427   115342392.237       -1224.266          39.000  
  21760204.318   114350579.767       -1224.275          39.000  
  21912307.349   115149951.619       -1224.165          35.000  
  21914351.289   115160668.486       -1224.189          49.000  
  21933398.861   115260807.778       -1224.261          33.000  
  21860719.975   114878875.708       -1224.146          39.000  
  21834346.789   114740277.707       -1224.362          37.000  
  22029231.734   115764392.070       -1224.204          35.000  
  21914299.269   115160650.138       -1224.250          48.000  
  21923431.725   115208427.305       -1224.161          37.000  
  21950393.078   115350136.779       -1224.168          37.000  
  21856029.312   114854224.775       -1224.323          40.000  
  22054426.527   115896799.749       -1224.293          39.000  
 25  8 12  9 10 10.4010000  0 27G 5G 1G30G 3G 4G17G19G 7G12G22G 6G18
                                G29G24G21G23G26G 8G32G15G14G31G 2G28
                                G11G 9G10
  21914336.375   115160958.866       -1224.245          49.000  
  21914392.542   115160870.690       -1224.254          47.000  
  22019013.405   115710721.197       -1224.477          39.000  
  21914515.742   115161072.062       -1224.227          51.000  
  21914366.296   115160893.138       -1224.387          51.000  
  21912648.338   115151778.066       -1223.986          37.000  
  21976813.298   115488970.688       -1224.094          39.000  
  21914516.714   115161384.233       -1224.208          45.000  
  21794533.617   114531086.525       -1224.054          38.000  
  22048904.483   115867789.637       -1224.469          38.000  
  21914385.332   115161114.662       -1224.372          51.000  
  21774023.679   114423313.918       -1224.652          38.000  
  21751164.572   114303175.001       -1223.695          37.000  
  21921617.354   115198768.559       -1223.834          38.000  
  21948975.025   115342637.081       -1224.384          39.000  
  21760250.926   114350824.593       -1224.082          39.000  
  21912353.927   115150196.480       -1224.725          35.000  
  21914397.875   115160913.328       -1224.428          49.000  
  21933445.509   115261052.595       -1224.171          34.000  
  21860766.653   114879120.582       -1224.950          39.000  
  21834393.339   114740522.586       -1224.985          37.000  
  22029278.331   115764636.914       -1224.448          35.000  
  21914345.896   115160894.987       -1224.368          48.000  
  21923478.306   115208672.154       -1224.365          37.000  
  21950439.655   115350381.608       -1224.082          37.000  
  21856075.943   114854469.619       -1224.506          40.000  
  22054473.148   115897044.586       -1224.272          39.000  
 25  8 12  9 10 10.6010000  0 27G 5G 1G30G 3G 4G17G19G 7G12G22G 6G18
                                G29G24G21G23G26G 8G32G15G14G31G 2G28
                                G11G 9G10
  21914382.978   115161203.675       -1224.184          49.000  
  21914439.178   115161115.504       -1224.177          48.000  
  22019060.015   115710966.014       -1224.172          38.000  
  21914561.837   115161316.874       -1224.195          51.000  
  21914412.481   115161137.952       -1224.148          51.000  
  21912694.968   115152022.881       -1224.435          36.000  
  21976859.876   115489215.502       -1224.226          39.000  
  21914563.296   115161629.054       -1224.231          44.000  
  21794580.198   114531331.341       -1224.263          38.000  
  22048951.082   115868034.436       -1224.042          38.000  
  21914432.117   115161359.481       -1224.166          51.000  
  21774070.242   114423558.728       -1223.955          38.000  
  21751211.168   114303419.818       -1224.446          37.000  
  21921663.936   115199013.374       -1224.281          37.000  
  21949021.634   115342881.900       -1224.355          38.000  
  21760297.504   114351069.407       -1224.194          38.000  
  21912400.560   115150441.286       -1223.959          35.000  
  21914444.426   115161158.144       -1224.090          49.000  
  21933492.074   115261297.402       -1224.029          33.000  
  21860813.195   114879365.385       -1223.744          39.000  
  21834439.938   114740767.398       -1223.929          37.000  
  22029324.903   115764881.737       -1223.983          35.000  
  21914392.462   115161139.797       -1224.179          48.000  
  21923524.863   115208916.974       -1224.025          37.000  
  21950486.231   115350626.421       -1224.310          37.000  
  21856122.514   114854714.436       -1224.109          40.000  
  22054519.751   115897289.397       -1224.199          38.000  
 25  8 12  9 10 10.8010000  0 27G 5G 1G30G 3G 4G17G19G 7G12G22G 6G18
                                G29G24G21G23G26G 8G32G15G14G31G 2G28
                                G11G 9G10
  21914429.585   115161448.517       -1224.008          49.000  
  21914485.734   115161360.348       -1224.041          48.000  
  22019106.597   115711210.856       -1224.128          38.000  
  21914607.971   115161561.713       -1224.082          51.000  
  21914458.877   115161382.795       -1224.053          51.000  
  21912741.575   115152267.700       -1223.811          36.000  
  21976906.477   115489460.353       -1224.264          39.000  
  21914609.871   115161873.889       -1224.064          44.000  
  21794626.801   114531576.179       -1224.127          38.000  
  22048997.656   115868279.295       -1224.146          38.000  
  21914478.871   115161604.322       -1224.050          51.000  
  21774116.840   114423803.582       -1224.136          39.000  
  21751257.756   114303664.643       -1223.978          37.000  
  21921710.469   115199258.212       -1224.062          37.000  
  21949068.234   115343126.739       -1224.216          38.000  
  21760344.060   114351314.250       -1224.021          38.000  
  21912447.186   115150686.132       -1223.915          35.000  
  21914490.967   115161402.981       -1224.011          50.000  
  21933538.679   115261542.245       -1223.935          33.000  
  21860859.809   114879610.245       -1224.011          39.000  
  21834486.509   114741012.242       -1223.912          38.000  
  22029371.535   115765126.590       -1224.167          35.000  
  21914439.030   115161384.642       -1224.092          48.000  
  21923571.447   115209161.812       -1223.869          37.000  
  21950532.818   115350871.254       -1224.058          37.000  
  21856169.134   114854959.284       -1224.177          40.000  
  22054566.364   115897534.250       -1224.264          38.000  
 25  8 12  9 10 11.0010000  0 27G 5G 1G30G 3G 4G17G19G 7G12G22G 6G18
                                G29G24G21G23G26G 8G32G15G14G31G 2G28
                                G11G 9G10
  21914476.136   115161693.344       -1224.161          49.000  
  21914532.328   115161605.175       -1224.172          48.000  
  22019153.204   115711455.685       -1224.164          38.000  
  21914654.623   115161806.541       -1224.131          51.000  
  21914505.108   115161627.621       -1224.167          51.000  
  21912788.204   115152512.544       -1224.171          36.000  
  21976953.071   115489705.173       -1224.100          39.000  
  21914656.445   115162118.716       -1224.120          44.000  
  21794673.408   114531820.995       -1224.117          38.000  
  22049044.267   115868524.122       -1224.093          38.000  
  21914525.554   115161849.151       -1224.178          51.000  
  21774163.483   114424048.412       -1224.270          39.000  
  21751304.374   114303909.470       -1224.130          37.000  
  21921757.078   115199503.043       -1223.984          37.000  
  21949114.827   115343371.577       -1224.148          38.000  
  21760390.622   114351559.078       -1224.031          38.000  
  21912493.768   115150930.966       -1224.194          35.000  
  21914537.554   115161647.812       -1224.197          50.000  
  21933585.287   115261787.075       -1224.187          33.000  
  21860906.365   114879855.073       -1224.237          39.000  
  21834533.133   114741257.072       -1224.156          38.000  
  22029418.156   115765371.429       -1224.280          35.000  
  21914485.634   115161629.473       -1224.153          48.000  
  21923618.041   115209406.645       -1224.152          37.000  
  21950579.378   115351116.076       -1224.038          37.000  
  21856215.744   114855204.106       -1224.135          40.000  
  22054612.957   115897779.065       -1224.109          38.000  
 25  8 12  9 10 11.2010000  0 27G 5G 1G30G 3G 4G17G19G 7G12G22G 6G18
                                G29G24G21G23G26G 8G32G15G14G31G 2G28
                                G11G 9G10
  21914522.746   115161938.150       -1224.230          49.000  
  21914578.877   115161849.979       -1224.266          48.000  
  22019199.762   115711700.490       -1224.368          38.000  
  21914701.476   115162051.350       -1224.302          51.000  
  21914551.775   115161872.433       -1224.307          51.000  
  21912834.791   115152757.341       -1224.229          35.000  
  21976999.640   115489949.985       -1224.279          39.000  
  21914703.029   115162363.529       -1224.307          44.000  
  21794720.043   114532065.806       -1224.221          38.000  
  22049090.881   115868768.931       -1224.276          38.000  
  21914572.176   115162093.958       -1224.304          51.000  
  21774210.058   114424293.221       -1224.371          39.000  
  21751350.952   114304154.277       -1224.237          37.000  
  21921803.647   115199747.858       -1224.373          37.000  
  21949161.442   115343616.387       -1224.279          38.000  
  21760437.195   114351803.891       -1224.379          38.000  
  21912540.296   115151175.770       -1224.208          35.000  
  21914584.113   115161892.621       -1224.276          49.000  
  21933631.904   115262031.870       -1224.061          34.000  
  21860952.993   114880099.880       -1224.354          39.000  
  21834579.749   114741501.879       -1224.316          38.000  
  22029464.711   115765616.228       -1224.255          35.000  
  21914532.254   115161874.276       -1224.291          48.000  
  21923664.668   115209651.448       -1224.245          37.000  
  21950625.986   115351360.895       -1224.391          37.000  
  21856262.378   114855448.918       -1224.316          40.000  
  22054659.546   115898023.870       -1224.291          38.000  
 25  8 12  9 10 11.4010000  0 27G 5G 1G30G 3G 4G17G19G 7G12G22G 6G18
                                G29G24G21G23G26G 8G32G15G14G31G 2G28
                                G11G 9G10
  21914569.351   115162183.009       -1224.056          49.000  
  21914625.492   115162094.841       -1224.081          48.000  
  22019246.370   115711945.334       -1224.140          38.000  
  21914748.431   115162296.212       -1224.092          51.000  
  21914598.755   115162117.286       -1224.063          51.000  
  21912881.495   115153002.245       -1223.954          36.000  
  21977046.229   115490194.874       -1224.052          39.000  
  21914749.615   115162608.377       -1224.139          45.000  
  21794766.651   114532310.682       -1224.119          38.000  
  22049137.531   115869013.774       -1224.036          38.000  
  21914618.529   115162338.806       -1224.075          51.000  
  21774256.635   114424538.000       -1223.933          39.000  
  21751397.555   114304399.197       -1224.200          37.000  
  21921850.247   115199992.660       -1223.984          37.000  
  21949208.036   115343861.229       -1224.111          38.000  
  21760483.817   114352048.712       -1223.912          40.000  
  21912586.880   115151420.617       -1224.118          35.000  
  21914630.725   115162137.483       -1224.146          49.000  
  21933678.474   115262276.791       -1223.927          34.000  
  21860999.571   114880344.680       -1223.901          39.000  
  21834626.308   114741746.698       -1224.113          38.000  
  22029511.278   115765861.048       -1224.015          35.000  
  21914578.850   115162119.130       -1224.076          48.000  
  21923711.289   115209896.339       -1224.089          37.000  
  21950672.569   115351605.760       -1224.279          37.000  
  21856308.991   114855693.743       -1224.039          40.000  
  22054706.152   115898268.754       -1224.101          38.000  
 25  8 12  9 10 11.6010000  0 28G 5G 1G30G 3G 4G17G19G 7G12G22G25G 6
                                G18G29G24G21G23G26G 8G32G15G14G31G 2
                                G28G11G 9G10
  21914615.949   115162427.851       -1224.390          49.000  
  21914672.130   115162339.683       -1224.456          48.000  
  22019292.959   115712190.177       -1224.405          38.000  
  21914795.049   115162541.052       -1224.412          51.000  
  21914645.860   115162362.127       -1224.397          51.000  
  21912928.100   115153247.084       -1224.630          36.000  
  21977092.814   115490439.709       -1224.499          39.000  
  21914796.237   115162853.222       -1224.435          45.000  
  21794813.261   114532555.528       -1224.641          38.000  
  22049184.122   115869258.623       -1224.475          38.000  
  22017254.553   115701452.6151      -1224.274          35.000  
  21914664.972   115162583.647       -1224.391          51.000  
  21774303.225   114424782.859       -1224.202          39.000  
  21751444.185   114304644.032       -1224.739          37.000  
  21921896.837   115200237.513       -1224.396          37.000  
  21949254.646   115344106.073       -1224.383          38.000  
  21760530.405   114352293.562       -1224.380          40.000  
  21912633.475   115151665.450       -1224.366          35.000  
  21914677.300   115162382.318       -1224.400          49.000  
  21933725.111   115262521.634       -1224.675          34.000  
  21861046.189   114880589.535       -1224.290          39.000  
  21834672.920   114741991.543       -1224.373          38.000  
  22029557.896   115766105.890       -1224.160          35.000  
  21914625.481   115162363.970       -1224.385          48.000  
  21923757.917   115210141.174       -1224.513          37.000  
  21950719.195   115351850.595       -1224.406          37.000  
  21856355.569   114855938.589       -1224.324          40.000  
  22054752.738   115898513.588       -1224.514          38.000  
 25  8 12  9 10 11.8010000  0 28G 5G 1G30G 3G 4G17G19G 7G12G22G25G 6
                                G18G29G24G21G23G26G 8G32G15G14G31G 2
                                G28G11G 9G10
  21914662.557   115162672.684       -1224.053          49.000  
  21914718.708   115162584.516       -1224.123          48.000  
  22019339.540   115712435.011       -1224.099          38.000  
  21914841.726   115162785.886       -1224.092          51.000  
  21914692.932   115162606.962       -1224.144          51.000  
  21912974.606   115153491.914       -1223.945          36.000  
  21977139.392   115490684.542       -1224.251          39.000  
  21914842.857   115163098.053       -1224.158          45.000  
  21794859.883   114532800.354       -1224.088          38.000  
  22049230.761   115869503.449       -1224.029          38.000  
  22017301.159   115701697.455       -1224.374          35.000  
  21914711.302   115162828.481       -1224.132          51.000  
  21774349.815   114425027.704       -1224.172          39.000  
  21751490.842   114304888.856       -1224.214          37.000  
  21921943.441   115200482.343       -1224.089          37.000  
  21949301.255   115344350.912       -1224.223          38.000  
  21760576.987   114352538.395       -1224.152          40.000  
  21912680.104   115151910.298       -1224.297          34.000  
  21914723.916   115162627.153       -1224.079          49.000  
  21933771.724   115262766.458       -1224.217          34.000  
  21861092.773   114880834.368       -1223.882          39.000  
  21834719.550   114742236.376       -1224.098          37.000  
  22029604.511   115766350.734       -1224.141          35.000  
  21914672.068   115162608.804       -1224.072          48.000  
  21923804.538   115210386.003       -1223.922          37.000  
  21950765.777   115352095.422       -1223.757          37.000  
  21856402.170   114856183.426       -1224.175          40.000  
  22054799.323   115898758.420       -1223.967          39.000  
 25  8 12  9 10 12.0010000  0 28G 5G 1G30G 3G 4G17G19G 7G12G22G25G 6
                                G18G29G24G21G23G26G 8G32G15G14G31G 2
                                G28G11G 9G10
  21914709.181   115162917.526       -1224.238          49.000  
  21914765.283   115162829.356       -1224.232          48.000  
  22019386.176   115712679.846       -1224.210          38.000  
  21914887.955   115163030.728       -1224.238          51.000  
  21914740.068   115162851.801       -1224.200          51.000  
  21913021.244   115153736.766       -1224.418          36.000  
  21977185.992   115490929.375       -1224.081          39.000  
  21914889.448   115163342.892       -1224.108          45.000  
  21794906.499   114533045.201       -1224.307          38.000  
  22049277.275   115869748.291       -1224.100          38.000  
  22017347.774   115701942.283       -1224.074          35.000  
  21914757.877   115163073.322       -1224.240          51.000  
  21774396.368   114425272.542       -1224.341          39.000  
  21751537.431   114305133.693       -1224.268          37.000  
  21921990.032   115200727.189       -1224.233          36.000  
  21949347.837   115344595.736       -1224.103          38.000  
  21760623.595   114352783.231       -1224.147          40.000  
  21912726.719   115152155.127       -1224.105          34.000  
  21914770.493   115162871.993       -1224.232          49.000  
  21933818.319   115263011.306       -1224.415          34.000  
  21861139.340   114881079.216       -1224.263          39.000  
  21834766.130   114742481.218       -1224.246          37.000  
  22029651.118   115766595.579       -1224.290          35.000  
  21914718.691   115162853.646       -1224.264          48.000  
  21923851.149   115210630.852       -1224.308          37.000  
  21950812.380   115352340.281       -1224.296          37.000  
  21856448.787   114856428.263       -1224.169          40.000  
  22054845.909   115899003.271       -1224.273          39.000  
 25  8 12  9 10 12.2010000  0 28G 5G 1G30G 3G 4G17G19G 7G12G22G25G 6
                                G18G29G24G21G23G26G 8G32G15G14G31G 2
                                G28G11G 9G10
  21914755.797   115163162.352       -1224.326          49.000  
  21914811.878   115163074.180       -1224.207          48.000  
  22019432.783   115712924.678       -1224.369          38.000  
  21914934.814   115163275.553       -1224.247          51.000  
  21914787.008   115163096.630       -1224.264          51.000  
  21913067.885   115153981.569       -1224.157          36.000  
  21977232.568   115491174.178       -1223.662          39.000  
  21914936.041   115163587.724       -1224.217          45.000  
  21794953.069   114533290.015       -1224.088          38.000  
  22049323.861   115869993.114       -1224.109          38.000  
  22017394.368   115702187.117       -1224.299          34.000  
  21914804.340   115163318.149       -1224.306          51.000  
  21774443.003   114425517.373       -1224.440          38.000  
  21751583.958   114305378.526       -1224.313          37.000  
  21922036.592   115200972.053       -1224.982          36.000  
  21949394.472   115344840.583       -1224.353          38.000  
  21760670.216   114353028.072       -1224.425          40.000  
  21912773.333   115152399.978       -1224.670          33.000  
  21914817.137   115163116.818       -1224.258          49.000  
  21933864.864   115263256.117       -1223.993          34.000  
  21861185.949   114881324.035       -1224.214          39.000  
  21834812.714   114742726.063       -1224.619          37.000  
  22029697.717   115766840.413       -1224.551          35.000  
  21914765.298   115163098.467       -1224.208          48.000  
  21923897.747   115210875.642       -1223.748          37.000  
  21950858.989   115352585.103       -1224.419          37.000  
  21856495.406   114856673.107       -1224.497          40.000  
  22054892.551   115899248.091       -1224.280          39.000  
 25  8 12  9 10 12.4010000  0 28G 5G 1G30G 3G 4G17G19G 7G12G22G25G 6
                                G18G29G24G21G23G26G 8G32G15G14G31G 2
                                G28G11G 9G10
  21914802.370   115163407.173       -1224.264          49.000  
  21914858.489   115163319.003       -1224.313          48.000  
  22019479.357   115713169.500       -1224.250          39.000  
  21914982.414   115163520.376       -1224.281          51.000  
  21914833.149   115163341.454       -1224.295          51.000  
  21913114.481   115154226.392       -1224.403          36.000  
  21977279.193   115491419.004       -1224.557          39.000  
  21914982.614   115163832.548       -1224.375          45.000  
  21794999.680   114533534.838       -1224.457          38.000  
  22049370.431   115870237.943       -1224.466          39.000  
  22017440.929   115702431.938       -1224.215          34.000  
  21914850.492   115163562.971       -1224.281          51.000  
  21774489.537   114425762.195       -1224.137          39.000  
  21751630.555   114305623.346       -1224.258          37.000  
  21922083.214   115201216.883       -1224.106          36.000  
  21949441.053   115345085.406       -1224.277          38.000  
  21760716.776   114353272.893       -1224.194          38.000  
  21912819.967   115152644.798       -1224.046          36.000  
  21914863.669   115163361.640       -1224.335          49.000  
  21933911.477   115263500.938       -1224.300          35.000  
  21861232.555   114881568.851       -1224.375          39.000  
  21834859.294   114742970.877       -1224.166          37.000  
  22029744.280   115767085.243       -1224.181          35.000  
  21914811.840   115163343.290       -1224.294          49.000  
  21923944.354   115211120.470       -1224.562          37.000  
  21950905.583   115352829.916       -1224.289          38.000  
  21856542.028   114856917.929       -1224.172          40.000  
  22054939.116   115899492.908       -1224.404          39.000  
 25  8 12  9 10 12.6010000  0 28G 5G 1G30G 3G 4G17G19G 7G12G22G25G 6
                                G18G29G24G21G23G26G 8G32G15G14G31G 2
                                G28G11G 9G10
  21914848.992   115163652.013       -1224.202          49.000  
  21914905.055   115163563.838       -1224.215          48.000  
  22019525.916   115713414.332       -1224.067          39.000  
  21915029.949   115163765.209       -1224.176          51.000  
  21914879.388   115163586.284       -1224.151          51.000  
  21913161.073   115154471.228       -1224.251          37.000  
  21977325.785   115491663.819       -1224.074          39.000  
  21915029.189   115164077.380       -1224.157          45.000  
  21795046.304   114533779.668       -1224.171          38.000  
  22049417.051   115870482.760       -1224.050          39.000  
  22017487.448   115702676.776       -1224.159          34.000  
  21914896.637   115163807.803       -1224.124          51.000  
  21774536.136   114426007.035       -1224.174          39.000  
  21751677.110   114305868.185       -1224.230          37.000  
  21922129.816   115201461.718       -1224.117          36.000  
  21949487.657   115345330.230       -1224.001          38.000  
  21760763.366   114353517.729       -1224.059          38.000  
  21912866.563   115152889.641       -1224.166          36.000  
  21914910.212   115163606.472       -1224.158          50.000  
  21933958.061   115263745.774       -1224.133          35.000  
  21861279.153   114881813.688       -1224.259          38.000  
  21834905.933   114743215.721       -1224.272          37.000  
  22029790.902   115767330.074       -1224.202          36.000  
  21914858.414   115163588.128       -1224.255          49.000  
  21923990.916   115211365.285       -1224.167          37.000  
  21950952.202   115353074.752       -1224.170          38.000  
  21856588.602   114857162.767       -1224.182          40.000  
  22054985.703   115899737.745       -1224.283          39.000  
 25  8 12  9 10 12.8010000  0 28G 5G 1G30G 3G 4G17G19G 7G12G22G25G 6
                                G18G29G24G21G23G26G 8G32G15G14G31G 2
                                G28G11G 9G10
  21914895.626   115163896.850       -1224.342          49.000  
  21914951.670   115163808.678       -1224.333          48.000  
  22019572.474   115713659.175       -1224.305          39.000  
  21915077.253   115164010.046       -1224.348          51.000  
  21914925.594   115163831.125       -1224.359          51.000  
  21913207.722   115154716.062       -1224.374          37.000  
  21977372.393   115491908.666       -1224.370          39.000  
  21915075.782   115164322.216       -1224.366          45.000  
  21795092.943   114534024.506       -1224.404          38.000  
  22049463.652   115870727.606       -1224.354          39.000  
  22017534.048   115702921.615       -1224.231          34.000  
  21914942.879   115164052.646       -1224.378          51.000  
  21774582.713   114426251.878       -1224.481          39.000  
  21751723.719   114306113.025       -1224.403          37.000  
  21922176.408   115201706.559       -1224.473          36.000  
  21949534.278   115345575.077       -1224.378          39.000  
  21760809.987   114353762.577       -1224.537          38.000  
  21912913.106   115153134.485       -1224.497          36.000  
  21914956.761   115163851.313       -1224.385          50.000  
  21934004.661   115263990.616       -1224.491          35.000  
  21861325.760   114882058.519       -1224.155          38.000  
  21834952.518   114743460.558       -1224.443          37.000  
  22029837.491   115767574.912       -1224.403          36.000  
  21914905.009   115163832.962       -1224.342          49.000  
  21924037.480   115211610.128       -1224.396          36.000  
  21950998.772   115353319.590       -1224.316          38.000  
  21856635.185   114857407.602       -1224.298          40.000  
  22055032.291   115899982.579       -1224.276          39.000  
 25  8 12  9 10 13.0010000  0 28G 5G 1G30G 3G 4G17G19G 7G12G22G25G 6
                                G18G29G24G21G23G26G 8G32G15G14G31G 2
                                G28G11G 9G10
  21914942.237   115164141.712       -1224.515          49.000  
  21914998.279   115164053.540       -1224.588          48.000  
  22019619.065   115713904.035       -1224.563          39.000  
  21915124.402   115164254.907       -1224.521          51.000  
  21914971.821   115164075.985       -1224.554          51.000  
  21913254.256   115154960.930       -1224.539          37.000  
  21977418.960   115492153.526       -1224.722          39.000  
  21915122.368   115164567.078       -1224.569          45.000  
  21795139.532   114534269.367       -1224.441          38.000  
  22049510.236   115870972.472       -1224.666          39.000  
  22017580.610   115703166.487       -1224.752          34.000  
  21914989.088   115164297.504       -1224.577          51.000  
  21774629.336   114426496.728       -1224.463          39.000  
  21751770.357   114306357.887       -1224.578          38.000  
  21922223.037   115201951.412       -1224.537          35.000  
  21949580.917   115345819.936       -1224.540          39.000  
  21760856.608   114354007.431       -1224.642          38.000  
  21912959.731   115153379.324       -1224.369          36.000  
  21915003.404   115164096.174       -1224.575          50.000  
  21934051.266   115264235.464       -1224.486          36.000  
  21861372.333   114882303.391       -1224.462          38.000  
  21834999.158   114743705.413       -1224.467          37.000  
  22029884.105   115767819.764       -1224.378          36.000  
  21914951.614   115164077.824       -1224.522          49.000  
  21924084.083   115211854.981       -1224.637          36.000  
  21951045.344   115353564.457       -1224.401          38.000  
  21856681.782   114857652.463       -1224.535          40.000  
  22055078.894   115900227.443       -1224.513          39.000  
 25  8 12  9 10 13.2010000  0 28G 5G 1G30G 3G 4G17G19G 7G12G22G25G 6
                                G18G29G24G21G23G26G 8G32G15G14G31G 2
                                G28G11G 9G10
  21914988.836   115164386.592       -1224.342          49.000  
  21915044.839   115164298.418       -1224.295          48.000  
  22019665.615   115714148.910       -1224.273          39.000  
  21915171.513   115164499.786       -1224.343          51.000  
  21915017.996   115164320.859       -1224.319          51.000  
  21913300.824   115155205.855       -1224.437          37.000  
  21977465.570   115492398.419       -1224.299          37.000  
  21915168.981   115164811.961       -1224.294          45.000  
  21795186.122   114534514.267       -1224.484          38.000  
  22049556.870   115871217.369       -1224.294          39.000  
  22017627.214   115703411.340       -1224.374          34.000  
  21915035.388   115164542.383       -1224.271          51.000  
  21774675.918   114426741.598       -1224.210          39.000  
  21751816.937   114306602.752       -1224.222          37.000  
  21922269.642   115202196.260       -1224.265          36.000  
  21949627.503   115346064.796       -1224.209          38.000  
  21760903.229   114354252.324       -1224.357          38.000  
  21913006.308   115153624.189       -1224.278          33.000  
  21915049.967   115164341.056       -1224.348          50.000  
  21934097.871   115264480.329       -1224.177          33.000  
  21861418.914   114882548.279       -1224.340          38.000  
  21835045.799   114743950.275       -1224.341          37.000  
  22029930.736   115768064.649       -1224.224          33.000  
  21914998.193   115164322.707       -1224.340          48.000  
  21924130.682   115212099.904       -1224.388          36.000  
  21951091.989   115353809.329       -1224.386          38.000  
  21856728.394   114857897.313       -1224.181          40.000  
  22055125.512   115900472.319       -1224.379          39.000  
 25  8 12  9 10 13.4010000  0 28G 5G 1G30G 3G 4G17G19G 7G12G22G25G 6
                                G18G29G24G21G23G26G 8G32G15G14G31G 2
                                G28G11G 9G10
  21915035.459   115164631.442       -1224.268          49.000  
  21915091.439   115164543.271       -1224.252          47.000  
  22019712.221   115714393.766       -1224.227          39.000  
  21915218.518   115164744.640       -1224.292          51.000  
  21915064.115   115164565.713       -1224.267          51.000  
  21913347.472   115155450.702       -1224.510          37.000  
  21977512.147   115492643.270       -1224.290          37.000  
  21915215.560   115165056.813       -1224.227          45.000  
  21795232.709   114534759.113       -1224.370          38.000  
  22049603.421   115871462.218       -1224.373          39.000  
  22017673.792   115703656.193       -1224.228          34.000  
  21915081.942   115164787.239       -1224.279          51.000  
  21774722.528   114426986.457       -1224.316          39.000  
  21751863.551   114306847.607       -1224.161          37.000  
  21922316.221   115202441.113       -1223.978          36.000  
  21949674.112   115346309.657       -1224.230          38.000  
  21760949.829   114354497.172       -1224.302          38.000  
  21913052.923   115153869.047       -1224.047          33.000  
  21915096.570   115164585.908       -1224.266          50.000  
  21934144.502   115264725.191       -1224.303          33.000  
  21861465.515   114882793.127       -1224.307          38.000  
  21835092.389   114744195.138       -1224.423          38.000  
  22029977.371   115768309.509       -1224.282          33.000  
  21915044.805   115164567.558       -1224.287          48.000  
  21924177.227   115212344.749       -1224.368          36.000  
  21951138.544   115354054.177       -1224.279          38.000  
  21856774.968   114858142.174       -1224.231          40.000  
  22055172.088   115900717.170       -1224.275          39.000  
 25  8 12  9 10 13.6010000  0 28G 5G 1G30G 3G 4G17G19G 7G12G22G25G 6
                                G18G29G24G21G23G26G 8G32G15G14G31G 2
                                G28G11G 9G10
  21915082.076   115164876.285       -1224.187          49.000  
  21915138.049   115164788.120       -1224.261          47.000  
  22019758.802   115714638.617       -1224.249          40.000  
  21915265.531   115164989.486       -1224.257          51.000  
  21915110.228   115164810.560       -1224.224          51.000  
  21913394.039   115155695.533       -1224.192          37.000  
  21977558.757   115492888.118       -1224.188          37.000  
  21915262.189   115165301.664       -1224.263          45.000  
  21795279.298   114535003.960       -1224.325          38.000  
  22049650.042   115871707.062       -1224.227          39.000  
  22017720.376   115703901.054       -1224.032          33.000  
  21915128.364   115165032.086       -1224.250          51.000  
  21774769.117   114427231.299       -1224.231          39.000  
  21751910.173   114307092.459       -1224.380          37.000  
  21922362.859   115202685.972       -1224.274          36.000  
  21949720.727   115346554.517       -1224.255          38.000  
  21760996.410   114354742.026       -1224.172          39.000  
  21913099.533   115154113.909       -1224.262          33.000  
  21915143.087   115164830.757       -1224.223          50.000  
  21934191.070   115264970.032       -1224.331          33.000  
  21861512.098   114883037.967       -1224.075          38.000  
  21835139.007   114744439.979       -1224.202          38.000  
  22030023.953   115768554.354       -1224.161          33.000  
  21915091.403   115164812.402       -1224.213          48.000  
  21924223.796   115212589.595       -1224.302          36.000  
  21951185.156   115354299.026       -1224.213          38.000  
  21856821.528   114858387.021       -1224.271          40.000  
  22055218.693   115900962.010       -1224.264          39.000  
 25  8 12  9 10 13.8010000  0 28G 5G 1G30G 3G 4G17G19G 7G12G22G25G 6
                                G18G29G24G21G23G26G 8G32G15G14G31G 2
                                G28G11G 9G10
  21915128.659   115165121.103       -1223.904          49.000  
  21915184.657   115165032.937       -1224.020          47.000  
  22019805.438   115714883.437       -1224.072          40.000  
  21915312.588   115165234.305       -1224.021          51.000  
  21915156.392   115165055.378       -1223.982          51.000  
  21913440.647   115155940.351       -1223.846          38.000  
  21977605.291   115493132.941       -1224.056          37.000  
  21915308.796   115165546.484       -1224.034          45.000  
  21795325.852   114535248.777       -1224.015          38.000  
  22049696.611   115871951.881       -1223.941          39.000  
  22017766.958   115704145.897       -1224.507          33.000  
  21915174.839   115165276.904       -1223.967          51.000  
  21774815.713   114427476.122       -1224.009          39.000  
  21751956.768   114307337.266       -1223.796          37.000  
  21922409.449   115202930.782       -1224.010          36.000  
  21949767.284   115346799.336       -1224.216          38.000  
  21761043.048   114354986.848       -1224.181          39.000  
  21913146.118   115154358.724       -1224.055          33.000  
  21915189.678   115165075.574       -1223.943          50.000  
  21934237.642   115265214.857       -1224.091          33.000  
  21861558.682   114883282.793       -1223.948          39.000  
  21835185.626   114744684.796       -1224.012          38.000  
  22030070.547   115768799.182       -1224.014          33.000  
  21915137.979   115165057.219       -1223.902          48.000  
  21924270.401   115212834.413       -1224.014          36.000  
  21951231.733   115354543.841       -1223.875          38.000  
  21856868.107   114858631.838       -1223.955          40.000  
  22055265.303   115901206.832       -1223.855          39.000  
 25  8 12  9 10 14.0010000  0 28G 5G 1G30G 3G 4G17G19G 7G12G22G25G 6
                                G18G29G24G21G23G26G 8G32G15G14G31G 2
                                G28G11G 9G10
  21915175.272   115165365.950       -1224.220          49.000  
  21915231.280   115165277.784       -1224.324          47.000  
  22019851.998   115715128.288       -1224.416          40.000  
  21915359.456   115165479.151       -1224.284          51.000  
  21915202.627   115165300.229       -1224.349          51.000  
  21913487.296   115156185.166       -1223.548          38.000  
  21977651.929   115493377.791       -1224.419          37.000  
  21915355.371   115165791.332       -1224.371          45.000  
  21795372.443   114535493.619       -1224.226          38.000  
  22049743.222   115872196.721       -1224.113          39.000  
  22017813.531   115704390.726       -1224.436          33.000  
  21915221.467   115165521.749       -1224.264          51.000  
  21774862.265   114427720.982       -1224.556          39.000  
  21752003.361   114307582.111       -1224.175          37.000  
  21922456.033   115203175.637       -1224.469          36.000  
  21949813.848   115347044.180       -1224.253          38.000  
  21761089.648   114355231.690       -1224.240          39.000  
  21913192.754   115154603.588       -1224.526          33.000  
  21915236.285   115165320.423       -1224.286          50.000  
  21934284.246   115265459.687       -1224.170          33.000  
  21861605.286   114883527.649       -1224.465          39.000  
  21835232.220   114744929.648       -1224.440          38.000  
  22030117.047   115769044.025       -1224.555          33.000  
  21915184.569   115165302.067       -1224.238          48.000  
  21924316.998   115213079.254       -1224.240          37.000  
  21951278.339   115354788.685       -1224.161          38.000  
  21856914.722   114858876.701       -1224.556          40.000  
  22055311.886   115901451.683       -1224.359          39.000  
 25  8 12  9 10 14.2010000  0 28G 5G 1G30G 3G 4G17G19G 7G12G22G25G 6
                                G18G29G24G21G23G26G 8G32G15G14G31G 2
                                G28G11G 9G10
  21915221.878   115165610.798       -1224.264          49.000  
  21915277.823   115165522.631       -1224.260          47.000  
  22019898.532   115715373.132       -1224.261          39.000  
  21915406.094   115165723.997       -1224.253          51.000  
  21915248.958   115165545.076       -1224.261          51.000  
  21913533.947   115156430.011       -1224.513          37.000  
  21977698.501   115493622.636       -1224.158          38.000  
  21915401.972   115166036.179       -1224.182          45.000  
  21795419.012   114535738.458       -1224.281          38.000  
  22049789.802   115872441.570       -1224.328          39.000  
  22017860.106   115704635.567       -1224.146          34.000  
  21915268.379   115165766.598       -1224.259          51.000  
  21774908.844   114427965.820       -1224.088          39.000  
  21752049.956   114307826.953       -1224.424          37.000  
  21922502.611   115203420.476       -1224.054          36.000  
  21949860.423   115347289.014       -1224.166          38.000  
  21761136.248   114355476.536       -1224.327          39.000  
  21913239.327   115154848.415       -1224.147          34.000  
  21915282.914   115165565.269       -1224.232          50.000  
  21934330.828   115265704.524       -1224.319          35.000  
  21861651.888   114883772.496       -1224.114          38.000  
  21835278.817   114745174.492       -1224.098          38.000  
  22030163.647   115769288.876       -1224.059          34.000  
  21915231.146   115165546.915       -1224.265          48.000  
  21924363.603   115213324.108       -1224.260          37.000  
  21951324.907   115355033.527       -1224.213          38.000  
  21856961.317   114859121.543       -1224.045          40.000  
  22055358.470   115901696.535       -1224.173          39.000  
