     2.10           OBSERVATION DATA    M (MIXED)           RINEX VERSION / TYPE
RTKCONV 2.4.2                           20200423 111837 UTC PGM / RUN BY / DATE 
log: G:\54\GPS\0423\gps-3                                   COMMENT             
format: u-blox                                              COMMENT             
                                                            MARKER NAME         
                                                            MARKER NUMBER       
                                                            OBSERVER / AGENCY   
                                                            REC # / TYPE / VERS 
                                                            ANT # / TYPE        
        0.0000        0.0000        0.0000                  APPROX POSITION XYZ 
        0.0000        0.0000        0.0000                  ANTENNA: DELTA H/E/N
     1     1                                                WAVELENGTH FACT L1/2
     4    C1    L1    D1    S1                              # / TYPES OF OBSERV 
  2025     8    12     8    49   47.0000000     GPS         TIME OF FIRST OBS   
  2025     8    12     8    52   21.2000000     GPS         TIME OF LAST OBS    
                                                            END OF HEADER       
 25  8 12  8 49 47.0000000  0 30G 5G 1G 2G 3G 4G27G18G 9G 7G24G25G10
                                G 6G16G12G19G21G13G30G 8G28G22G32G11
                                G23G17G14G26G20G15
  21629108.239   113661796.301       -1226.251          47.000  
  21629101.479   113661695.246       -1226.226          49.000  
  21629164.621   113661961.449       -1226.304          49.000  
  21629177.926   113661903.451       -1226.324          49.000  
  21629100.330   113661728.586       -1226.272          49.000  
  21836301.534   114750533.920       -1226.330          38.000  
  21488741.309   112924086.374       -1226.279          42.000  
  21788247.712   114498021.911       -1226.250          38.000  
  21629203.162   113662215.071       -1226.220          49.000  
  21553504.888   113264440.535       -1226.235          37.000  
  21537684.190   113181287.459       -1226.226          36.000  
  21773589.492   114420943.575       -1226.276          38.000  
  21629104.015   113661950.388       -1226.319          49.000  
  21559382.428   113295312.931       -1226.293          39.000  
  21765648.050                       -1226.351          38.000  
  21710289.557   114088368.427       -1226.229          38.000  
  21540609.803   113196713.505       -1226.278          41.000  
  21696806.457   114017481.545       -1226.265          32.000  
  21664865.478   113849593.464       -1226.251          40.000  
  21629037.577   113661739.724       -1226.277          49.000  
  21655488.744   113800395.901       -1226.320          39.000  
  21666919.239   113860472.488       -1226.284          37.000  
  21523612.936   113107327.527       -1226.273          39.000  
  21796446.678   114541116.316       -1226.156          38.000  
  21623833.949   113634014.123       -1226.223          38.000  
  21715266.813   114114519.737       -1226.266          38.000  
  21782964.181   114470270.987       -1226.251          40.000  
  21726115.717   114171500.474       -1226.218          37.000  
  21575780.073   113381520.953       -1226.217          38.000  
  21539438.713   113190527.146       -1226.224          38.000  
 25  8 12  8 49 47.2000000  0 30G 5G 1G 2G 3G 4G27G18G 9G 7G24G25G10
                                G 6G16G12G19G21G13G30G 8G28G22G32G11
                                G23G17G14G26G20G15
  21629154.985   113662041.552       -1226.357          47.000  
  21629148.080   113661940.500       -1226.313          49.000  
  21629211.290   113662206.701       -1226.273          49.000  
  21629224.618   113662148.704       -1226.266          49.000  
  21629146.943   113661973.837       -1226.255          49.000  
  21836348.216   114750779.169       -1226.261          38.000  
  21488787.936   112924331.628       -1226.290          41.000  
  21788294.397   114498267.166       -1226.257          38.000  
  21629249.576   113662460.325       -1226.265          49.000  
  21553551.501   113264685.789       -1226.296          37.000  
  21537730.861   113181532.714       -1226.218          36.000  
  21773636.024   114421188.828       -1226.303          38.000  
  21629150.679   113662195.637       -1226.221          49.000  
  21559429.103   113295558.182       -1226.252          39.000  
  21765695.441                       -1226.351          38.000  
  21710336.178   114088613.681       -1226.283          38.000  
  21540656.460   113196958.756       -1226.219          41.000  
  21696853.135   114017726.793       -1226.257          32.000  
  21664912.189   113849838.720       -1226.278          40.000  
  21629083.993   113661984.976       -1226.239          49.000  
  21655535.410   113800641.151       -1226.214          39.000  
  21666965.928   113860717.739       -1226.240          36.000  
  21523659.629   113107572.781       -1226.250          39.000  
  21796493.361   114541361.574       -1226.225          38.000  
  21623880.597   113634259.375       -1226.181          38.000  
  21715313.551   114114764.985       -1226.173          38.000  
  21783010.892   114470516.240       -1226.244          40.000  
  21726162.344   114171745.723       -1226.278          37.000  
  21575826.755   113381766.206       -1226.243          38.000  
  21539485.391   113190772.397       -1226.240          38.000  
 25  8 12  8 49 47.4000000  0 30G 5G 1G 2G 3G 4G27G18G 9G 7G24G25G10
                                G 6G16G12G19G21G13G30G 8G28G22G32G11
                                G23G17G14G26G20G15
  21629201.644   113662286.834       -1226.252          47.000  
  21629194.767   113662185.785       -1226.212          49.000  
  21629257.962   113662451.983       -1226.281          49.000  
  21629271.309   113662393.995       -1226.269          49.000  
  21629193.631   113662219.126       -1226.256          49.000  
  21836394.894   114751024.466       -1226.299          38.000  
  21488834.672   112924576.919       -1226.324          40.000  
  21788341.000   114498512.446       -1226.293          38.000  
  21629296.276   113662705.618       -1226.207          49.000  
  21553598.181   113264931.071       -1226.283          37.000  
  21537777.510   113181777.993       -1226.163          36.000  
  21773682.647   114421434.093       -1226.243          38.000  
  21629197.355   113662440.927       -1226.251          49.000  
  21559475.791   113295803.494       -1226.345          39.000  
  21765742.081                       -1226.351          38.000  
  21710382.883   114088858.973       -1226.272          38.000  
  21540703.176   113197204.059       -1226.317          41.000  
  21696899.846   114017972.097       -1226.342          32.000  
  21664958.863   113850084.012       -1226.258          40.000  
  21629130.793   113662230.266       -1226.268          49.000  
  21655582.082   113800886.424       -1226.218          39.000  
  21667012.648   113860963.020       -1226.287          36.000  
  21523706.324   113107818.089       -1226.333          38.000  
  21796540.062   114541606.875       -1226.260          38.000  
  21623927.279   113634504.694       -1226.367          38.000  
  21715360.199   114115010.281       -1226.346          38.000  
  21783057.576   114470761.539       -1226.289          40.000  
  21726209.076   114171991.062       -1226.397          37.000  
  21575873.448   113382011.483       -1226.205          38.000  
  21539532.101   113191017.688       -1226.295          38.000  
 25  8 12  8 49 47.6000000  0 30G 5G 1G 2G 3G 4G27G18G 9G 7G24G25G10
                                G 6G16G12G19G21G13G30G 8G28G22G32G11
                                G23G17G14G26G20G15
  21629248.373   113662532.109       -1226.449          47.000  
  21629241.429   113662431.057       -1226.333          49.000  
  21629304.616   113662697.251       -1226.263          49.000  
  21629318.000   113662639.263       -1226.250          49.000  
  21629240.313   113662464.396       -1226.306          49.000  
  21836441.597   114751269.728       -1226.316          38.000  
  21488881.332   112924822.190       -1226.466          40.000  
  21788387.633   114498757.718       -1226.427          39.000  
  21629342.621   113662950.895       -1226.489          49.000  
  21553644.828   113265176.346       -1226.465          37.000  
  21537824.221   113182023.271       -1226.437          36.000  
  21773729.271   114421679.372       -1226.415          37.000  
  21629244.051   113662686.199       -1226.312          49.000  
  21559522.444   113296048.756       -1226.455          39.000  
  21765789.584                       -1226.351          38.000  
  21710429.551   114089104.244       -1226.403          38.000  
  21540749.914   113197449.329       -1226.520          41.000  
  21696946.607   114018217.361       -1226.372          32.000  
  21665005.542   113850329.283       -1226.417          40.000  
  21629177.468   113662475.537       -1226.478          49.000  
  21655628.773   113801131.700       -1226.329          39.000  
  21667059.304   113861208.293       -1226.418          36.000  
  21523752.999   113108063.357       -1226.515          38.000  
  21796586.764   114541852.146       -1226.485          38.000  
  21623973.958   113634749.963       -1226.598          38.000  
  21715406.960   114115255.551       -1226.532          38.000  
  21783104.275   114471006.812       -1226.451          40.000  
  21726255.701   114172236.319       -1226.590          37.000  
  21575920.097   113382256.756       -1226.357          37.000  
  21539578.760   113191262.957       -1226.440          38.000  
 25  8 12  8 49 47.8000000  0 30G 5G 1G 2G 3G 4G27G18G 9G 7G24G25G10
                                G 6G16G12G19G21G13G30G 8G28G22G32G11
                                G23G17G14G26G20G15
  21629295.048   113662777.388       -1226.527          47.000  
  21629288.105   113662676.336       -1226.351          49.000  
  21629351.273   113662942.532       -1226.353          49.000  
  21629364.679   113662884.546       -1226.322          49.000  
  21629286.978   113662709.676       -1226.454          49.000  
  21836488.297   114751515.010       -1226.217          38.000  
  21488928.043   112925067.468       -1226.447          40.000  
  21788434.257   114499002.998       -1226.481          39.000  
  21629389.083   113663196.167       -1226.471          49.000  
  21553691.470   113265421.623       -1226.652          37.000  
  21537870.910   113182268.550       -1226.583          36.000  
  21773775.863   114421924.645       -1226.312          37.000  
  21629290.730   113662931.478       -1226.450          49.000  
  21559569.144   113296294.038       -1226.611          38.000  
  21765837.265                       -1226.351          38.000  
  21710476.256   114089349.525       -1226.546          38.000  
  21540796.584   113197694.607       -1226.531          41.000  
  21696993.351   114018462.638       -1226.708          32.000  
  21665052.220   113850574.562       -1226.514          40.000  
  21629224.049   113662720.814       -1226.445          49.000  
  21655675.415   113801376.982       -1226.439          38.000  
  21667106.011   113861453.574       -1226.474          36.000  
  21523799.741   113108308.637       -1226.576          38.000  
  21796633.437   114542097.423       -1226.561          38.000  
  21624020.638   113634995.234       -1226.427          38.000  
  21715453.632   114115500.824       -1226.392          38.000  
  21783150.933   114471252.090       -1226.536          40.000  
  21726302.392   114172481.591       -1226.540          37.000  
  21575966.814   113382502.037       -1226.439          37.000  
  21539625.453   113191508.234       -1226.527          38.000  
 25  8 12  8 49 48.0000000  0 30G 5G 1G 2G 3G 4G27G18G 9G 7G24G25G10
                                G 6G16G12G19G21G13G30G 8G28G22G32G11
                                G23G17G14G26G20G15
  21629341.746   113663022.640       -1226.194          47.000  
  21629334.674   113662921.599       -1226.195          49.000  
  21629397.937   113663187.789       -1226.226          49.000  
  21629411.368   113663129.811       -1226.275          49.000  
  21629333.596   113662954.928       -1226.200          49.000  
  21836535.004   114751760.286       -1226.338          38.000  
  21488974.715   112925312.727       -1226.289          40.000  
  21788480.936   114499248.253       -1226.226          39.000  
  21629436.341   113663441.426       -1226.091          49.000  
  21553738.169   113265666.869       -1226.097          37.000  
  21537917.517   113182513.794       -1226.063          36.000  
  21773822.490   114422169.912       -1226.374          37.000  
  21629337.379   113663176.733       -1226.231          49.000  
  21559615.805   113296539.283       -1226.088          38.000  
  21765884.225                       -1226.351          38.000  
  21710522.933   114089594.777       -1226.193          38.000  
  21540843.263   113197939.862       -1226.232          41.000  
  21697040.013   114018707.883       -1226.112          31.000  
  21665098.913   113850819.813       -1226.166          40.000  
  21629270.864   113662966.071       -1226.239          49.000  
  21655722.080   113801622.240       -1226.363          38.000  
  21667152.652   113861698.831       -1226.259          36.000  
  21523846.435   113108553.887       -1226.228          38.000  
  21796680.094   114542342.674       -1226.101          38.000  
  21624067.331   113635240.494       -1226.196          38.000  
  21715500.352   114115746.089       -1226.280          38.000  
  21783197.644   114471497.340       -1226.208          40.000  
  21726349.063   114172726.837       -1226.001          38.000  
  21576013.481   113382747.297       -1226.273          37.000  
  21539672.123   113191753.485       -1226.080          38.000  
 25  8 12  8 49 48.2000000  0 30G 5G 1G 2G 3G 4G27G18G 9G 7G24G25G10
                                G 6G16G12G19G21G13G30G 8G28G22G32G11
                                G23G17G14G26G20G15
  21629388.396   113663267.912       -1226.627          47.000  
  21629381.362   113663166.853       -1226.437          49.000  
  21629444.601   113663433.064       -1226.535          49.000  
  21629458.064   113663375.068       -1226.441          49.000  
  21629380.256   113663200.189       -1226.373          49.000  
  21836581.715   114752005.535       -1226.450          37.000  
  21489021.427   112925557.980       -1226.321          40.000  
  21788527.492   114499493.519       -1226.525          39.000  
  21629483.840   113663686.691       -1226.472          49.000  
  21553784.800   113265912.145       -1226.600          37.000  
  21537964.244   113182759.075       -1226.593          36.000  
  21773869.099   114422415.158       -1226.351          37.000  
  21629384.034   113663421.995       -1226.412          49.000  
  21559662.474   113296784.533       -1226.056          38.000  
  21765930.582                       -1226.351          38.000  
  21710569.618   114089840.044       -1226.503          38.000  
  21540889.933   113198185.123       -1226.412          41.000  
  21697086.691   114018953.165       -1226.524          31.000  
  21665145.599   113851065.076       -1226.427          40.000  
  21629317.901   113663211.337       -1226.511          49.000  
  21655768.726   113801867.506       -1226.542          38.000  
  21667199.376   113861944.086       -1226.323          36.000  
  21523893.166   113108799.145       -1226.313          38.000  
  21796726.777   114542587.937       -1226.280          38.000  
  21624114.023   113635485.753       -1226.487          38.000  
  21715547.047   114115991.350       -1226.613          38.000  
  21783244.289   114471742.597       -1226.282          40.000  
  21726395.809   114172972.094       -1226.089          38.000  
  21576060.199   113382992.565       -1226.643          37.000  
  21539718.806   113191998.760       -1226.586          38.000  
 25  8 12  8 49 48.4000000  0 30G 5G 1G 2G 3G 4G27G18G 9G 7G24G25G10
                                G 6G16G12G19G21G13G30G 8G28G22G32G11
                                G23G17G14G26G20G15
  21629435.091   113663513.181       -1226.402          47.000  
  21629427.965   113663412.119       -1226.350          49.000  
  21629491.262   113663678.326       -1226.405          49.000  
  21629504.736   113663620.338       -1226.339          49.000  
  21629426.860   113663445.458       -1226.403          49.000  
  21836628.374   114752250.800       -1226.346          38.000  
  21489068.096   112925803.247       -1226.416          40.000  
  21788574.149   114499738.787       -1226.323          39.000  
  21629530.629   113663931.960       -1226.383          49.000  
  21553831.465   113266157.412       -1226.147          37.000  
  21538010.886   113183004.340       -1226.239          36.000  
  21773915.707   114422660.431       -1226.345          37.000  
  21629430.715   113663667.261       -1226.349          49.000  
  21559709.159   113297029.801       -1226.500          38.000  
  21765972.886                       -1226.351          38.000  
  21710616.285   114090085.319       -1226.277          38.000  
  21540936.578   113198430.388       -1226.389          41.000  
  21697133.467   114019198.414       -1226.498          31.000  
  21665192.295   113851310.342       -1226.324          40.000  
  21629365.295   113663456.601       -1226.306          49.000  
  21655815.416   113802112.771       -1226.340          39.000  
  21667246.018   113862189.354       -1226.369          36.000  
  21523939.877   113109044.412       -1226.458          38.000  
  21796773.452   114542833.202       -1226.513          39.000  
  21624160.679   113635731.018       -1226.365          39.000  
  21715593.708   114116236.615       -1226.313          38.000  
  21783290.995   114471987.863       -1226.385          40.000  
  21726442.477   114173217.371       -1226.560          38.000  
  21576106.869   113383237.834       -1226.195          37.000  
  21539765.495   113192244.025       -1226.306          38.000  
 25  8 12  8 49 48.6000000  0 30G 5G 1G 2G 3G 4G27G18G 9G 7G24G25G10
                                G 6G16G12G19G21G13G30G 8G28G22G32G11
                                G23G17G14G26G20G15
  21629481.725   113663758.419       -1226.172          47.000  
  21629474.594   113663657.364       -1226.096          49.000  
  21629537.921   113663923.564       -1226.095          49.000  
  21629551.434   113663865.578       -1226.137          49.000  
  21629473.489   113663690.698       -1226.189          49.000  
  21836675.074   114752496.049       -1226.322          38.000  
  21489114.763   112926048.485       -1226.177          40.000  
  21788620.734   114499984.024       -1226.113          39.000  
  21629577.645   113664177.198       -1226.144          49.000  
  21553878.076   113266402.657       -1226.149          38.000  
  21538057.547   113183249.577       -1225.924          36.000  
  21773962.295   114422905.670       -1226.079          37.000  
  21629477.351   113663912.498       -1226.173          49.000  
  21559755.858   113297275.034       -1226.166          39.000  
  21766014.559                       -1226.351          38.000  
  21710662.958   114090330.553       -1225.910          38.000  
  21540983.261   113198675.633       -1226.229          41.000  
  21697180.149   114019443.648       -1225.981          31.000  
  21665238.998   113851555.584       -1226.184          40.000  
  21629412.069   113663701.847       -1226.193          49.000  
  21655862.080   113802358.017       -1226.302          39.000  
  21667292.704   113862434.588       -1226.052          37.000  
  21523986.564   113109289.655       -1226.237          38.000  
  21796820.125   114543078.442       -1226.236          39.000  
  21624207.346   113635976.266       -1226.249          39.000  
  21715640.342   114116481.863       -1226.189          38.000  
  21783337.697   114472233.101       -1226.138          40.000  
  21726489.169   114173462.592       -1225.986          38.000  
  21576153.509   113383483.080       -1226.208          37.000  
  21539812.171   113192489.271       -1226.167          38.000  
 25  8 12  8 49 48.8000000  0 30G 5G 1G 2G 3G 4G27G18G 9G 7G24G25G10
                                G 6G16G12G19G21G13G30G 8G28G22G32G11
                                G23G17G14G26G20G15
  21629528.439   113664003.665       -1226.130          47.000  
  21629521.254   113663902.610       -1226.167          49.000  
  21629584.590   113664168.808       -1226.163          49.000  
  21629598.119   113664110.824       -1226.181          49.000  
  21629520.069   113663935.943       -1226.162          49.000  
  21836721.791   114752741.292       -1226.199          38.000  
  21489161.408   112926293.734       -1226.206          40.000  
  21788667.395   114500229.276       -1226.257          39.000  
  21629624.705   113664422.450       -1226.226          49.000  
  21553924.750   113266647.903       -1226.228          37.000  
  21538104.218   113183494.835       -1226.295          36.000  
  21774008.927   114423150.919       -1226.145          37.000  
  21629524.007   113664157.745       -1226.135          49.000  
  21559802.501   113297520.284       -1226.239          39.000  
  21766058.392                       -1226.351          38.000  
  21710709.626   114090575.815       -1226.363          38.000  
  21541029.930   113198920.879       -1226.221          41.000  
  21697226.850   114019688.904       -1226.186          32.000  
  21665285.716   113851800.836       -1226.290          40.000  
  21629459.313   113663947.092       -1226.215          49.000  
  21655908.780   113802603.260       -1226.175          39.000  
  21667339.340   113862679.843       -1226.192          37.000  
  21524033.229   113109534.893       -1226.143          38.000  
  21796866.814   114543323.693       -1226.279          39.000  
  21624254.040   113636221.507       -1226.104          39.000  
  21715687.030   114116727.108       -1226.181          38.000  
  21783384.385   114472478.347       -1226.115          40.000  
  21726535.844   114173707.850       -1226.268          38.000  
  21576200.149   113383728.330       -1226.270          37.000  
  21539858.832   113192734.512       -1226.162          38.000  
 25  8 12  8 49 49.0000000  0 30G 5G 1G 2G 3G 4G27G18G 9G 7G24G25G10
                                G 6G16G12G19G21G13G30G 8G28G22G32G11
                                G23G17G14G26G20G15
  21629575.086   113664248.911       -1226.227          47.000  
  21629567.887   113664147.851       -1226.255          49.000  
  21629631.266   113664414.054       -1226.234          49.000  
  21629644.799   113664356.068       -1226.229          49.000  
  21629566.703   113664181.188       -1226.253          49.000  
  21836768.446   114752986.538       -1226.307          38.000  
  21489208.124   112926538.978       -1226.306          40.000  
  21788713.992   114500474.518       -1226.321          39.000  
  21629671.637   113664667.693       -1226.214          49.000  
  21553971.353   113266893.144       -1226.261          37.000  
  21538150.893   113183740.077       -1226.350          35.000  
  21774055.511   114423396.168       -1226.271          37.000  
  21629570.665   113664402.988       -1226.241          49.000  
  21559849.197   113297765.526       -1226.334          39.000  
  21766104.849                       -1226.351          38.000  
  21710756.330   114090821.052       -1226.432          38.000  
  21541076.622   113199166.123       -1226.295          41.000  
  21697273.598   114019934.149       -1226.468          32.000  
  21665332.374   113852046.075       -1226.332          40.000  
  21629506.441   113664192.336       -1226.273          49.000  
  21655955.458   113802848.507       -1226.307          39.000  
  21667386.046   113862925.088       -1226.310          37.000  
  21524079.924   113109780.144       -1226.322          38.000  
  21796913.487   114543568.928       -1226.255          39.000  
  21624300.721   113636466.755       -1226.286          39.000  
  21715733.693   114116972.354       -1226.320          38.000  
  21783431.076   114472723.594       -1226.299          40.000  
  21726582.542   114173953.089       -1226.390          38.000  
  21576246.802   113383973.571       -1226.288          37.000  
  21539905.499   113192979.763       -1226.332          38.000  
 25  8 12  8 49 49.2000000  0 30G 5G 1G 2G 3G 4G27G18G 9G 7G24G25G10
                                G 6G16G12G19G21G13G30G 8G28G22G32G11
                                G23G17G14G26G20G15
  21629621.759   113664494.137       -1226.244          47.000  
  21629614.528   113664393.090       -1226.195          49.000  
  21629677.928   113664659.291       -1226.172          49.000  
  21629691.479   113664601.300       -1226.146          49.000  
  21629613.331   113664426.425       -1226.172          49.000  
  21836815.126   114753231.779       -1226.218          38.000  
  21489254.752   112926784.220       -1226.219          40.000  
  21788760.634   114500719.755       -1226.264          39.000  
  21629718.935   113664912.925       -1226.259          49.000  
  21554018.043   113267138.361       -1226.185          37.000  
  21538197.555   113183985.314       -1226.223          35.000  
  21774102.079   114423641.413       -1226.284          37.000  
  21629617.338   113664648.225       -1226.138          49.000  
  21559895.829   113298010.775       -1226.208          39.000  
  21766152.544                       -1226.351          38.000  
  21710803.006   114091066.287       -1226.284          38.000  
  21541123.295   113199411.358       -1226.244          41.000  
  21697320.315   114020179.372       -1226.209          32.000  
  21665379.060   113852291.308       -1226.191          40.000  
  21629553.624   113664437.574       -1226.217          49.000  
  21656002.164   113803093.756       -1226.186          39.000  
  21667432.693   113863170.333       -1226.263          37.000  
  21524126.593   113110025.378       -1226.163          39.000  
  21796960.198   114543814.154       -1226.124          39.000  
  21624347.425   113636711.985       -1226.147          39.000  
  21715780.351   114117217.587       -1226.184          38.000  
  21783477.743   114472968.827       -1226.198          40.000  
  21726629.217   114174198.329       -1226.194          38.000  
  21576293.476   113384218.806       -1226.260          38.000  
  21539952.186   113193224.975       -1226.193          38.000  
 25  8 12  8 49 49.4000000  0 30G 5G 1G 2G 3G 4G27G18G 9G 7G24G25G10
                                G 6G16G12G19G21G13G30G 8G28G22G32G11
                                G23G17G14G26G20G15
  21629668.408   113664739.385       -1226.226          47.000  
  21629661.164   113664638.336       -1226.195          49.000  
  21629724.603   113664904.536       -1226.183          49.000  
  21629738.178   113664846.546       -1226.175          49.000  
  21629659.971   113664671.673       -1226.175          49.000  
  21836861.813   114753477.024       -1226.280          38.000  
  21489301.425   112927029.466       -1226.213          40.000  
  21788807.223   114500964.996       -1226.202          39.000  
  21629766.538   113665158.168       -1226.189          49.000  
  21554064.650   113267383.611       -1226.157          37.000  
  21538244.248   113184230.558       -1226.173          36.000  
  21774148.667   114423886.651       -1226.213          37.000  
  21629663.994   113664893.472       -1226.202          49.000  
  21559942.518   113298256.021       -1226.310          39.000  
  21766198.889                       -1226.351          38.000  
  21710849.694   114091311.528       -1226.163          38.000  
  21541169.987   113199656.604       -1226.202          41.000  
  21697367.022   114020424.624       -1226.255          32.000  
  21665425.710   113852536.553       -1226.189          40.000  
  21629601.002   113664682.818       -1226.194          48.000  
  21656048.844   113803339.000       -1226.274          39.000  
  21667479.404   113863415.576       -1226.232          37.000  
  21524173.339   113110270.627       -1226.259          39.000  
  21797006.893   114544059.406       -1226.241          39.000  
  21624394.074   113636957.237       -1226.256          39.000  
  21715827.018   114117462.833       -1226.220          39.000  
  21783524.412   114473214.074       -1226.220          40.000  
  21726675.957   114174443.577       -1226.213          38.000  
  21576340.153   113384464.050       -1226.195          38.000  
  21539998.867   113193470.224       -1226.167          38.000  
 25  8 12  8 49 49.6000000  0 30G 5G 1G 2G 3G 4G27G18G 9G 7G24G25G10
                                G 6G16G12G19G21G13G30G 8G28G22G32G11
                                G23G17G14G26G20G15
  21629715.156   113664984.645       -1226.443          47.000  
  21629707.804   113664883.595       -1226.357          49.000  
  21629771.278   113665149.789       -1226.274          49.000  
  21629784.856   113665091.806       -1226.343          49.000  
  21629706.659   113664916.933       -1226.384          49.000  
  21836908.490   114753722.277       -1226.467          38.000  
  21489348.086   112927274.725       -1226.472          40.000  
  21788853.908   114501210.263       -1226.573          39.000  
  21629814.178   113665403.430       -1226.404          49.000  
  21554111.332   113267628.877       -1226.538          37.000  
  21538290.922   113184475.825       -1226.526          36.000  
  21774195.358   114424131.914       -1226.421          37.000  
  21629710.682   113665138.727       -1226.312          49.000  
  21559989.134   113298501.278       -1226.477          39.000  
  21766244.866                       -1226.351          38.000  
  21710896.372   114091556.797       -1226.512          38.000  
  21541216.689   113199901.864       -1226.432          41.000  
  21697413.797   114020669.879       -1226.310          32.000  
  21665472.397   113852781.813       -1226.396          40.000  
  21629648.313   113664928.077       -1226.444          49.000  
  21656095.538   113803584.255       -1226.466          39.000  
  21667526.042   113863660.840       -1226.521          37.000  
  21524220.033   113110515.884       -1226.426          39.000  
  21797053.557   114544304.660       -1226.405          39.000  
  21624440.756   113637202.493       -1226.451          39.000  
  21715873.706   114117708.093       -1226.485          39.000  
  21783571.100   114473459.331       -1226.432          40.000  
  21726722.618   114174688.844       -1226.597          38.000  
  21576386.818   113384709.316       -1226.558          38.000  
  21540045.561   113193715.485       -1226.398          38.000  
 25  8 12  8 49 49.8000000  0 30G 5G 1G 2G 3G 4G27G18G 9G 7G24G25G10
                                G 6G16G12G19G21G13G30G 8G28G22G32G11
                                G23G17G14G26G20G15
  21629761.793   113665229.897       -1226.343          47.000  
  21629754.460   113665128.850       -1226.341          49.000  
  21629817.957   113665395.048       -1226.350          49.000  
  21629831.529   113665337.060       -1226.329          49.000  
  21629753.316   113665162.186       -1226.330          49.000  
  21836955.165   114753967.528       -1226.260          39.000  
  21489394.801   112927519.975       -1226.318          40.000  
  21788900.476   114501455.509       -1226.442          39.000  
  21629861.816   113665648.680       -1226.318          49.000  
  21554157.969   113267874.124       -1226.494          37.000  
  21538337.668   113184721.075       -1226.521          36.000  
  21774241.988   114424377.164       -1226.405          37.000  
  21629757.334   113665383.985       -1226.375          49.000  
  21560035.811   113298746.531       -1226.381          39.000  
  21766291.618                       -1226.351          38.000  
  21710943.101   114091802.045       -1226.528          38.000  
  21541263.378   113200147.114       -1226.287          41.000  
  21697460.583   114020915.138       -1226.400          32.000  
  21665519.060   113853027.065       -1226.350          40.000  
  21629695.547   113665173.328       -1226.378          48.000  
  21656142.235   113803829.509       -1226.417          39.000  
  21667572.744   113863906.088       -1226.324          37.000  
  21524266.736   113110761.137       -1226.343          39.000  
  21797100.250   114544549.920       -1226.429          38.000  
  21624487.442   113637447.745       -1226.337          39.000  
  21715920.380   114117953.340       -1226.260          39.000  
  21783617.745   114473704.586       -1226.370          40.000  
  21726769.337   114174934.090       -1226.490          38.000  
  21576433.470   113384954.564       -1226.344          38.000  
  21540092.217   113193960.739       -1226.376          38.000  
 25  8 12  8 49 50.0000000  0 30G 5G 1G 2G 3G 4G27G18G 9G 7G24G25G10
                                G 6G16G12G19G21G13G30G 8G28G22G32G11
                                G23G17G14G26G20G15
  21629808.512   113665475.173       -1226.581          47.000  
  21629801.077   113665374.115       -1226.385          49.000  
  21629864.608   113665640.311       -1226.381          49.000  
  21629878.211   113665582.325       -1226.384          49.000  
  21629799.895   113665407.442       -1226.228          49.000  
  21837001.896   114754212.787       -1226.235          39.000  
  21489441.447   112927765.228       -1226.125          40.000  
  21788947.169   114501700.776       -1226.432          39.000  
  21629909.265   113665893.947       -1226.492          49.000  
  21554204.635   113268119.402       -1226.593          37.000  
  21538384.344   113184966.329       -1226.169          36.000  
  21774288.517   114424622.415       -1226.119          37.000  
  21629804.015   113665629.246       -1226.313          49.000  
  21560082.464   113298991.787       -1226.178          38.000  
  21766339.268                       -1226.351          39.000  
  21710989.785   114092047.307       -1226.373          38.000  
  21541310.070   113200392.382       -1226.396          41.000  
  21697507.242   114021160.410       -1226.570          32.000  
  21665565.748   113853272.327       -1226.326          40.000  
  21629742.843   113665418.588       -1226.299          48.000  
  21656188.908   113804074.760       -1226.144          39.000  
  21667619.394   113864151.348       -1226.298          37.000  
  21524313.419   113111006.399       -1226.299          39.000  
  21797146.911   114544795.186       -1226.528          38.000  
  21624534.157   113637693.013       -1226.477          39.000  
  21715967.072   114118198.605       -1226.327          39.000  
  21783664.466   114473949.852       -1226.431          40.000  
  21726815.970   114175179.359       -1226.439          38.000  
  21576480.168   113385199.825       -1226.342          38.000  
  21540138.922   113194206.016       -1226.622          38.000  
 25  8 12  8 49 50.2000000  0 30G 5G 1G 2G 3G 4G27G18G 9G 7G24G25G10
                                G 6G16G12G19G21G13G30G 8G28G22G32G11
                                G23G17G14G26G20G15
  21629855.170   113665720.440       -1226.327          47.000  
  21629847.702   113665619.382       -1226.392          49.000  
  21629911.286   113665885.579       -1226.338          49.000  
  21629924.890   113665827.590       -1226.330          49.000  
  21629846.545   113665652.711       -1226.390          49.000  
  21837048.567   114754458.062       -1226.500          38.000  
  21489488.154   112928010.495       -1226.476          40.000  
  21788993.797   114501946.040       -1226.279          39.000  
  21629955.304   113666139.213       -1226.293          49.000  
  21554251.272   113268364.669       -1226.399          37.000  
  21538431.036   113185211.598       -1226.530          35.000  
  21774335.161   114424867.683       -1226.521          37.000  
  21629850.687   113665874.516       -1226.363          49.000  
  21560129.158   113299237.055       -1226.469          38.000  
  21766387.814                       -1226.351          39.000  
  21711036.477   114092292.575       -1226.444          38.000  
  21541356.764   113200637.652       -1226.395          42.000  
  21697553.965   114021405.676       -1226.178          32.000  
  21665612.427   113853517.593       -1226.391          40.000  
  21629789.279   113665663.857       -1226.378          49.000  
  21656235.617   113804320.027       -1226.429          39.000  
  21667666.097   113864396.611       -1226.530          37.000  
  21524360.119   113111251.670       -1226.396          39.000  
  21797193.591   114545040.453       -1226.305          39.000  
  21624580.874   113637938.282       -1226.365          39.000  
  21716013.739   114118443.871       -1226.391          39.000  
  21783711.162   114474195.122       -1226.336          40.000  
  21726862.656   114175424.625       -1226.453          38.000  
  21576526.836   113385445.088       -1226.311          38.000  
  21540185.586   113194451.283       -1226.235          38.000  
 25  8 12  8 49 50.4000000  0 30G 5G 1G 2G 3G 4G27G18G 9G 7G24G25G10
                                G 6G16G12G19G21G13G30G 8G28G22G32G11
                                G23G17G14G26G20G15
  21629901.934   113665965.722       -1226.317          47.000  
  21629894.305   113665864.662       -1226.318          49.000  
  21629957.953   113666130.860       -1226.326          49.000  
  21629971.585   113666072.871       -1226.325          49.000  
  21629893.167   113665897.987       -1226.255          49.000  
  21837095.287   114754703.346       -1226.468          38.000  
  21489534.797   112928255.772       -1226.318          40.000  
  21789040.487   114502191.328       -1226.442          39.000  
  21630001.225   113666384.499       -1226.356          49.000  
  21554297.925   113268609.947       -1226.384          37.000  
  21538477.743   113185456.873       -1226.394          35.000  
  21774381.787   114425112.965       -1226.531          37.000  
  21629897.369   113666119.792       -1226.261          49.000  
  21560175.842   113299482.329       -1226.312          38.000  
  21766435.453                       -1226.351          38.000  
  21711083.141   114092537.848       -1226.355          37.000  
  21541403.440   113200882.935       -1226.398          42.000  
  21697600.691   114021650.962       -1226.276          32.000  
  21665659.133   113853762.872       -1226.365          40.000  
  21629835.281   113665909.138       -1226.343          49.000  
  21656282.329   113804565.304       -1226.299          39.000  
  21667712.753   113864641.887       -1226.359          37.000  
  21524406.789   113111496.950       -1226.362          38.000  
  21797240.273   114545285.733       -1226.197          39.000  
  21624627.527   113638183.565       -1226.351          39.000  
  21716060.420   114118689.157       -1226.335          38.000  
  21783757.879   114474440.407       -1226.388          40.000  
  21726909.296   114175669.897       -1226.353          38.000  
  21576573.537   113385690.369       -1226.356          38.000  
  21540232.287   113194696.574       -1226.360          38.000  
 25  8 12  8 49 50.6000000  0 30G 5G 1G 2G 3G 4G27G18G 9G 7G24G25G10
                                G 6G16G12G19G21G13G30G 8G28G22G32G11
                                G23G17G14G26G20G15
  21629948.588   113666210.968       -1226.233          47.000  
  21629940.973   113666109.903       -1226.176          49.000  
  21630004.601   113666376.101       -1226.165          49.000  
  21630018.279   113666318.111       -1226.172          49.000  
  21629939.784   113666143.229       -1226.185          49.000  
  21837141.948   114754948.581       -1226.299          38.000  
  21489581.467   112928501.013       -1226.223          40.000  
  21789087.055   114502436.565       -1226.223          39.000  
  21630046.983   113666629.741       -1226.242          49.000  
  21554344.556   113268855.192       -1226.249          37.000  
  21538524.467   113185702.122       -1226.326          35.000  
  21774428.437   114425358.195       -1226.138          37.000  
  21629944.047   113666365.034       -1226.170          49.000  
  21560222.536   113299727.569       -1226.223          38.000  
  21766484.001                       -1226.351          38.000  
  21711129.830   114092783.089       -1226.074          37.000  
  21541450.121   113201128.171       -1226.238          42.000  
  21697647.334   114021896.207       -1226.381          32.000  
  21665705.772   113854008.111       -1226.244          40.000  
  21629881.140   113666154.377       -1226.238          49.000  
  21656329.008   113804810.545       -1226.205          39.000  
  21667759.466   113864887.126       -1226.224          37.000  
  21524453.460   113111742.188       -1226.265          38.000  
  21797286.972   114545530.980       -1226.322          39.000  
  21624674.201   113638428.807       -1226.304          39.000  
  21716107.094   114118934.395       -1226.229          38.000  
  21783804.568   114474685.645       -1226.278          40.000  
  21726955.969   114175915.140       -1226.148          38.000  
  21576620.211   113385935.608       -1226.238          38.000  
  21540278.976   113194941.812       -1226.251          38.000  
 25  8 12  8 49 50.8000000  0 30G 5G 1G 2G 3G 4G27G18G 9G 7G24G25G10
                                G 6G16G12G19G21G13G30G 8G28G22G32G11
                                G23G17G14G26G20G15
  21629995.330   113666456.223       -1226.289          47.000  
  21629987.610   113666355.163       -1226.304          49.000  
  21630051.263   113666621.363       -1226.369          49.000  
  21630064.953   113666563.369       -1226.305          49.000  
  21629986.391   113666388.487       -1226.343          49.000  
  21837188.648   114755193.831       -1226.242          38.000  
  21489628.126   112928746.272       -1226.304          40.000  
  21789133.714   114502681.826       -1226.406          39.000  
  21630092.788   113666874.994       -1226.272          48.000  
  21554391.230   113269100.450       -1226.387          37.000  
  21538571.175   113185947.379       -1226.394          35.000  
  21774475.080   114425603.452       -1226.276          37.000  
  21629990.733   113666610.293       -1226.349          49.000  
  21560269.209   113299972.825       -1226.288          38.000  
  21766532.464                       -1226.351          38.000  
  21711176.495   114093028.354       -1226.365          37.000  
  21541496.838   113201373.428       -1226.304          42.000  
  21697693.982   114022141.459       -1226.328          33.000  
  21665752.505   113854253.368       -1226.290          40.000  
  21629927.318   113666399.634       -1226.316          49.000  
  21656375.699   113805055.802       -1226.270          39.000  
  21667806.143   113865132.387       -1226.410          37.000  
  21524500.134   113111987.443       -1226.293          38.000  
  21797333.665   114545776.235       -1226.303          39.000  
  21624720.871   113638674.059       -1226.271          39.000  
  21716153.775   114119179.652       -1226.251          38.000  
  21783851.280   114474930.900       -1226.325          40.000  
  21727002.625   114176160.407       -1226.487          38.000  
  21576666.890   113386180.862       -1226.288          38.000  
  21540325.697   113195187.069       -1226.304          38.000  
 25  8 12  8 49 51.0000000  0 30G 5G 1G 2G 3G 4G27G18G 9G 7G24G25G10
                                G 6G16G12G19G21G13G30G 8G28G22G32G11
                                G23G17G14G26G20G15
  21630041.962   113666701.456       -1226.105          47.000  
  21630034.275   113666600.407       -1226.134          49.000  
  21630097.934   113666866.608       -1226.243          49.000  
  21630111.641   113666808.611       -1226.211          49.000  
  21630032.989   113666633.734       -1226.195          49.000  
  21837235.302   114755439.101       -1226.377          38.000  
  21489674.812   112928991.520       -1226.248          40.000  
  21789180.301   114502927.058       -1226.175          39.000  
  21630138.642   113667120.240       -1226.129          48.000  
  21554437.840   113269345.652       -1226.035          37.000  
  21538617.856   113186192.605       -1226.155          35.000  
  21774521.743   114425848.705       -1226.199          37.000  
  21630037.370   113666855.539       -1226.161          49.000  
  21560315.936   113300218.082       -1226.250          38.000  
  21766580.523                       -1226.351          39.000  
  21711223.192   114093273.591       -1226.137          37.000  
  21541543.524   113201618.674       -1226.222          42.000  
  21697740.662   114022386.700       -1226.188          33.000  
  21665799.174   113854498.609       -1226.159          40.000  
  21629974.005   113666644.876       -1226.205          49.000  
  21656422.415   113805301.070       -1226.257          39.000  
  21667852.811   113865377.641       -1226.201          37.000  
  21524546.793   113112232.688       -1226.184          38.000  
  21797380.331   114546021.471       -1226.202          39.000  
  21624767.523   113638919.301       -1226.131          39.000  
  21716200.477   114119424.907       -1226.183          38.000  
  21783897.929   114475176.144       -1226.271          40.000  
  21727049.306   114176405.632       -1226.112          38.000  
  21576713.547   113386426.101       -1226.182          38.000  
  21540372.371   113195432.291       -1226.097          38.000  
 25  8 12  8 49 51.2000000  0 30G 5G 1G 2G 3G 4G27G18G 9G 7G24G25G10
                                G 6G16G12G19G21G13G30G 8G28G22G32G11
                                G23G17G14G26G20G15
  21630088.667   113666946.710       -1226.290          47.000  
  21630080.914   113666845.654       -1226.274          49.000  
  21630144.605   113667111.848       -1226.190          49.000  
  21630158.309   113667053.857       -1226.247          49.000  
  21630079.660   113666878.979       -1226.228          49.000  
  21837282.026   114755684.332       -1226.240          38.000  
  21489721.409   112929236.763       -1226.317          40.000  
  21789226.996   114503172.310       -1226.298          39.000  
  21630184.542   113667365.490       -1226.266          48.000  
  21554484.499   113269590.912       -1226.189          37.000  
  21538664.549   113186437.859       -1226.282          35.000  
  21774568.341   114426093.950       -1226.218          37.000  
  21630084.041   113667100.784       -1226.256          49.000  
  21560362.589   113300463.331       -1226.340          38.000  
  21766626.991                       -1226.351          39.000  
  21711269.861   114093518.844       -1226.279          37.000  
  21541590.182   113201863.921       -1226.331          42.000  
  21697787.425   114022631.948       -1226.277          33.000  
  21665845.866   113854743.859       -1226.251          40.000  
  21630021.059   113666890.125       -1226.272          49.000  
  21656469.090   113805546.310       -1226.282          39.000  
  21667899.479   113865622.885       -1226.333          37.000  
  21524593.484   113112477.935       -1226.288          38.000  
  21797427.024   114546266.717       -1226.250          39.000  
  21624814.187   113639164.554       -1226.342          39.000  
  21716247.182   114119670.153       -1226.343          38.000  
  21783944.621   114475421.385       -1226.243          40.000  
  21727096.000   114176650.890       -1226.271          38.000  
  21576760.179   113386671.350       -1226.213          38.000  
  21540419.066   113195677.546       -1226.233          38.000  
 25  8 12  8 49 51.4000000  0 30G 5G 1G 2G 3G 4G27G18G 9G 7G24G25G10
                                G 6G16G12G19G21G13G30G 8G28G22G32G11
                                G23G17G14G26G20G15
  21630135.301   113667191.966       -1226.420          47.000  
  21630127.519   113667090.917       -1226.433          49.000  
  21630191.273   113667357.115       -1226.387          49.000  
  21630204.985   113667299.117       -1226.362          49.000  
  21630126.267   113667124.244       -1226.439          49.000  
  21837328.657   114755929.592       -1226.179          38.000  
  21489768.109   112929482.024       -1226.364          40.000  
  21789273.608   114503417.569       -1226.352          39.000  
  21630230.595   113667610.747       -1226.369          48.000  
  21554531.146   113269836.177       -1226.539          37.000  
  21538711.210   113186683.119       -1226.409          35.000  
  21774614.997   114426339.212       -1226.426          37.000  
  21630130.675   113667346.048       -1226.392          49.000  
  21560409.269   113300708.590       -1226.429          38.000  
  21766670.676                       -1226.351          39.000  
  21711316.515   114093764.107       -1226.471          37.000  
  21541636.848   113202109.180       -1226.427          42.000  
  21697834.146   114022877.209       -1226.438          33.000  
  21665892.530   113854989.120       -1226.465          40.000  
  21630068.062   113667135.385       -1226.394          49.000  
  21656515.773   113805791.571       -1226.348          39.000  
  21667946.172   113865868.146       -1226.393          37.000  
  21524640.197   113112723.196       -1226.400          38.000  
  21797473.676   114546511.982       -1226.381          39.000  
  21624860.841   113639409.812       -1226.500          39.000  
  21716293.820   114119915.410       -1226.382          38.000  
  21783991.282   114475666.648       -1226.395          40.000  
  21727142.731   114176896.154       -1226.517          38.000  
  21576806.841   113386916.610       -1226.335          38.000  
  21540465.746   113195922.810       -1226.471          38.000  
 25  8 12  8 49 51.6000000  0 30G 5G 1G 2G 3G 4G27G18G 9G 7G24G25G10
                                G 6G16G12G19G21G13G30G 8G28G22G32G11
                                G23G17G14G26G20G15
  21630181.983   113667437.222       -1226.310          47.000  
  21630174.095   113667336.178       -1226.347          49.000  
  21630237.941   113667602.376       -1226.342          49.000  
  21630251.659   113667544.382       -1226.359          49.000  
  21630172.873   113667369.503       -1226.327          49.000  
  21837375.389   114756174.864       -1226.333          38.000  
  21489814.753   112929727.283       -1226.268          40.000  
  21789320.289   114503662.830       -1226.340          39.000  
  21630276.606   113667856.007       -1226.353          48.000  
  21554577.773   113270081.429       -1226.344          37.000  
  21538757.876   113186928.376       -1226.309          36.000  
  21774661.652   114426584.478       -1226.503          37.000  
  21630177.335   113667591.307       -1226.323          49.000  
  21560455.983   113300953.845       -1226.302          38.000  
  21766714.719                       -1226.351          39.000  
  21711363.181   114094009.364       -1226.395          37.000  
  21541683.517   113202354.440       -1226.340          42.000  
  21697880.825   114023122.461       -1226.190          33.000  
  21665939.204   113855234.380       -1226.362          40.000  
  21630114.709   113667380.642       -1226.296          49.000  
  21656562.428   113806036.831       -1226.276          39.000  
  21667992.819   113866113.403       -1226.337          37.000  
  21524686.873   113112968.454       -1226.322          38.000  
  21797520.365   114546757.238       -1226.270          39.000  
  21624907.524   113639655.070       -1226.375          39.000  
  21716340.522   114120160.671       -1226.322          38.000  
  21784037.983   114475911.911       -1226.362          40.000  
  21727189.401   114177141.404       -1226.271          38.000  
  21576853.477   113387161.878       -1226.421          38.000  
  21540512.446   113196168.060       -1226.251          38.000  
 25  8 12  8 49 51.8000000  0 30G 5G 1G 2G 3G 4G27G18G 9G 7G24G25G10
                                G 6G16G12G19G21G13G30G 8G28G22G32G11
                                G23G17G14G26G20G15
  21630228.653   113667682.496       -1226.297          47.000  
  21630220.730   113667581.442       -1226.107          49.000  
  21630284.618   113667847.639       -1226.088          49.000  
  21630298.347   113667789.652       -1226.280          49.000  
  21630219.490   113667614.773       -1226.258          49.000  
  21837422.070   114756420.135       -1226.269          39.000  
  21489861.483   112929972.561       -1226.382          40.000  
  21789366.897   114503908.107       -1226.315          39.000  
  21630322.750   113668101.275       -1226.238          48.000  
  21554624.428   113270326.723       -1226.709          37.000  
  21538804.574   113187173.658       -1226.451          36.000  
  21774708.260   114426829.751       -1226.323          37.000  
  21630223.983   113667836.569       -1226.136          49.000  
  21560502.630   113301199.114       -1226.224          38.000  
  21766759.706                       -1226.351          39.000  
  21711409.883   114094254.634       -1226.251          37.000  
  21541730.207   113202599.714       -1226.334          42.000  
  21697927.567   114023367.725       -1226.021          33.000  
  21665985.890   113855479.655       -1226.333          40.000  
  21630161.300   113667625.917       -1226.274          49.000  
  21656609.139   113806282.092       -1226.000          39.000  
  21668039.512   113866358.675       -1226.223          37.000  
  21524733.546   113113213.738       -1226.523          38.000  
  21797567.070   114547002.522       -1226.501          39.000  
  21624954.201   113639900.338       -1226.219          39.000  
  21716387.240   114120405.936       -1226.120          38.000  
  21784084.681   114476157.191       -1226.429          40.000  
  21727236.107   114177386.682       -1226.304          38.000  
  21576900.168   113387407.146       -1226.255          38.000  
  21540559.108   113196413.325       -1226.119          38.000  
 25  8 12  8 49 52.0000000  0 30G 5G 1G 2G 3G 4G27G18G 9G 7G24G25G10
                                G 6G16G12G19G21G13G30G 8G28G22G32G11
                                G23G17G14G26G20G15
  21630275.290   113667927.748       -1226.219          47.000  
  21630267.359   113667826.699       -1226.285          49.000  
  21630331.285   113668092.897       -1226.272          49.000  
  21630345.034   113668034.911       -1226.266          49.000  
  21630266.135   113667860.027       -1226.259          49.000  
  21837468.801   114756665.387       -1226.247          39.000  
  21489908.144   112930217.815       -1226.201          40.000  
  21789413.592   114504153.363       -1226.278          39.000  
  21630369.349   113668346.527       -1226.332          48.000  
  21554671.115   113270571.977       -1226.028          37.000  
  21538851.231   113187418.920       -1226.307          35.000  
  21774754.886   114427075.006       -1226.133          38.000  
  21630270.637   113668081.824       -1226.259          49.000  
  21560549.312   113301444.371       -1226.256          38.000  
  21766803.137                       -1226.351          39.000  
  21711456.542   114094499.887       -1226.180          37.000  
  21541776.862   113202844.968       -1226.252          42.000  
  21697974.285   114023612.983       -1226.275          33.000  
  21666032.563   113855724.909       -1226.260          40.000  
  21630207.040   113667871.172       -1226.312          49.000  
  21656655.820   113806527.344       -1226.401          38.000  
  21668086.182   113866603.932       -1226.284          37.000  
  21524780.258   113113458.996       -1226.200          38.000  
  21797613.779   114547247.776       -1226.141          39.000  
  21625000.894   113640145.591       -1226.348          39.000  
  21716433.926   114120651.192       -1226.452          38.000  
  21784131.363   114476402.444       -1226.201          40.000  
  21727282.744   114177631.937       -1226.281          38.000  
  21576946.828   113387652.402       -1226.232          38.000  
  21540605.813   113196658.582       -1226.305          38.000  
 25  8 12  8 49 52.2000000  0 30G 5G 1G 2G 3G 4G27G18G 9G 7G24G25G10
                                G 6G16G12G19G21G13G30G 8G28G22G32G11
                                G23G17G14G26G20G15
  21630321.930   113668172.997       -1226.214          47.000  
  21630314.000   113668071.942       -1226.244          49.000  
  21630377.940   113668338.138       -1226.260          49.000  
  21630391.716   113668280.151       -1226.240          49.000  
  21630312.770   113668105.268       -1226.207          49.000  
  21837515.439   114756910.624       -1226.120          39.000  
  21489954.853   112930463.062       -1226.195          40.000  
  21789460.180   114504398.602       -1226.226          38.000  
  21630416.220   113668591.770       -1226.236          49.000  
  21554717.741   113270817.234       -1226.304          37.000  
  21538897.885   113187664.154       -1226.122          35.000  
  21774801.544   114427320.248       -1226.240          38.000  
  21630317.309   113668327.069       -1226.237          49.000  
  21560595.999   113301689.615       -1226.238          38.000  
  21766848.574                       -1226.351          39.000  
  21711503.219   114094745.132       -1226.232          37.000  
  21541823.538   113203090.209       -1226.183          42.000  
  21698021.027   114023858.231       -1226.311          33.000  
  21666079.241   113855970.152       -1226.252          40.000  
  21630252.902   113668116.413       -1226.225          49.000  
  21656702.474   113806772.577       -1226.087          38.000  
  21668132.869   113866849.173       -1226.260          38.000  
  21524826.934   113113704.240       -1226.218          38.000  
  21797660.438   114547493.024       -1226.148          39.000  
  21625047.534   113640390.823       -1226.176          39.000  
  21716480.596   114120896.423       -1226.208          38.000  
  21784178.063   114476647.686       -1226.173          41.000  
  21727329.435   114177877.181       -1226.240          38.000  
  21576993.519   113387897.645       -1226.259          38.000  
  21540652.486   113196903.829       -1226.221          38.000  
 25  8 12  8 49 52.4000000  0 30G 5G 1G 2G 3G 4G27G18G 9G 7G24G25G10
                                G 6G16G12G19G21G13G30G 8G28G22G32G11
                                G23G17G14G26G20G15
  21630368.627   113668418.255       -1226.269          47.000  
  21630360.611   113668317.195       -1226.232          49.000  
  21630424.594   113668583.394       -1226.251          49.000  
  21630438.396   113668525.403       -1226.234          49.000  
  21630359.388   113668350.523       -1226.220          49.000  
  21837562.150   114757155.887       -1226.253          39.000  
  21490001.560   112930708.320       -1226.270          40.000  
  21789506.853   114504643.859       -1226.270          38.000  
  21630463.029   113668837.024       -1226.211          49.000  
  21554764.428   113271062.483       -1226.260          37.000  
  21538944.577   113187909.412       -1226.118          35.000  
  21774848.211   114427565.505       -1226.318          38.000  
  21630363.986   113668572.323       -1226.225          49.000  
  21560642.699   113301934.866       -1226.184          38.000  
  21766895.250                       -1226.351          39.000  
  21711549.908   114094990.388       -1226.311          38.000  
  21541870.165   113203335.467       -1226.278          42.000  
  21698067.726   114024103.477       -1226.089          33.000  
  21666125.935   113856215.407       -1226.263          40.000  
  21630298.889   113668361.669       -1226.217          49.000  
  21656749.147   113807017.835       -1226.138          38.000  
  21668179.524   113867094.426       -1226.207          38.000  
  21524873.636   113113949.497       -1226.222          38.000  
  21797707.157   114547738.280       -1226.225          39.000  
  21625094.216   113640636.079       -1226.180          39.000  
  21716527.214   114121141.678       -1226.163          39.000  
  21784224.766   114476892.941       -1226.173          41.000  
  21727376.077   114178122.433       -1226.246          38.000  
  21577040.195   113388142.899       -1226.251          38.000  
  21540699.164   113197149.084       -1226.237          38.000  
 25  8 12  8 49 52.6000000  0 30G 5G 1G 2G 3G 4G27G18G 9G 7G24G25G10
                                G 6G16G12G19G21G13G30G 8G28G22G32G11
                                G23G17G14G26G20G15
  21630415.276   113668663.499       -1226.241          47.000  
  21630407.181   113668562.440       -1226.249          49.000  
  21630471.252   113668828.640       -1226.215          49.000  
  21630485.085   113668770.648       -1226.183          49.000  
  21630405.979   113668595.772       -1226.182          49.000  
  21837608.807   114757401.132       -1226.282          39.000  
  21490048.246   112930953.562       -1226.188          40.000  
  21789553.468   114504889.102       -1226.235          38.000  
  21630509.846   113669082.270       -1226.261          49.000  
  21554811.093   113271307.730       -1226.261          37.000  
  21538991.255   113188154.663       -1226.226          35.000  
  21774894.827   114427810.754       -1226.181          38.000  
  21630410.645   113668817.568       -1226.182          49.000  
  21560689.387   113302180.115       -1226.261          38.000  
  21766943.755                       -1226.351          39.000  
  21711596.607   114095235.632       -1226.189          38.000  
  21541916.890   113203580.714       -1226.261          42.000  
  21698114.489   114024348.725       -1226.194          34.000  
  21666172.587   113856460.653       -1226.195          40.000  
  21630344.913   113668606.916       -1226.234          49.000  
  21656795.822   113807263.082       -1226.193          38.000  
  21668226.200   113867339.673       -1226.159          38.000  
  21524920.320   113114194.748       -1226.299          38.000  
  21797753.819   114547983.524       -1226.301          39.000  
  21625140.863   113640881.329       -1226.181          39.000  
  21716573.912   114121386.929       -1226.260          39.000  
  21784271.392   114477138.188       -1226.136          41.000  
  21727422.789   114178367.684       -1226.213          37.000  
  21577086.872   113388388.146       -1226.201          38.000  
  21540745.799   113197394.329       -1226.312          38.000  
 25  8 12  8 49 52.8000000  0 30G 5G 1G 2G 3G 4G27G18G 9G 7G24G25G10
                                G 6G16G12G19G21G13G30G 8G28G22G32G11
                                G23G17G14G26G20G15
  21630462.016   113668908.741       -1226.210          47.000  
  21630453.769   113668807.680       -1226.165          49.000  
  21630517.913   113669073.880       -1226.118          49.000  
  21630531.777   113669015.883       -1226.147          49.000  
  21630452.612   113668841.010       -1226.119          49.000  
  21837655.520   114757646.380       -1226.224          39.000  
  21490094.928   112931198.785       -1226.163          40.000  
  21789600.135   114505134.329       -1226.094          38.000  
  21630556.023   113669327.512       -1226.163          48.000  
  21554857.751   113271552.926       -1226.178          37.000  
  21539037.894   113188399.903       -1226.202          35.000  
  21774941.476   114428055.973       -1226.002          38.000  
  21630457.312   113669062.813       -1226.143          49.000  
  21560736.071   113302425.392       -1226.277          38.000  
  21766995.678                       -1226.351          39.000  
  21711643.248   114095480.861       -1226.133          38.000  
  21541963.533   113203825.960       -1226.158          42.000  
  21698161.164   114024593.992       -1226.320          33.000  
  21666219.280   113856705.893       -1226.143          40.000  
  21630390.885   113668852.147       -1226.136          49.000  
  21656842.451   113807508.332       -1226.267          38.000  
  21668272.889   113867584.930       -1226.112          37.000  
  21524966.985   113114439.979       -1226.161          39.000  
  21797800.509   114548228.741       -1226.305          39.000  
  21625187.556   113641126.588       -1226.132          39.000  
  21716620.566   114121632.172       -1226.183          39.000  
  21784318.096   114477383.419       -1226.104          41.000  
  21727469.457   114178612.901       -1226.124          37.000  
  21577133.534   113388633.350       -1226.034          38.000  
  21540792.495   113197639.583       -1226.302          38.000  
 25  8 12  8 49 53.0000000  0 30G 5G 1G 2G 3G 4G27G18G 9G 7G24G25G10
                                G 6G16G12G19G21G13G30G 8G28G22G32G11
                                G23G17G14G26G20G15
  21630508.698   113669153.959       -1226.137          47.000  
  21630500.432   113669052.899       -1226.105          49.000  
  21630564.567   113669319.101       -1226.065          49.000  
  21630578.456   113669261.102       -1226.052          49.000  
  21630499.245   113669086.234       -1226.095          49.000  
  21837702.179   114757891.597       -1226.141          39.000  
  21490141.609   112931444.010       -1226.121          40.000  
  21789646.753   114505379.557       -1226.106          38.000  
  21630601.832   113669572.734       -1226.157          48.000  
  21554904.405   113271798.161       -1225.996          38.000  
  21539084.615   113188645.132       -1226.206          35.000  
  21774988.195   114428301.204       -1226.107          38.000  
  21630503.974   113669308.032       -1226.058          49.000  
  21560782.712   113302670.609       -1226.318          38.000  
  21767046.136                       -1226.351          39.000  
  21711689.958   114095726.090       -1226.134          38.000  
  21542010.216   113204071.181       -1226.185          42.000  
  21698207.870   114024839.207       -1226.179          33.000  
  21666265.929   113856951.115       -1226.175          40.000  
  21630436.859   113669097.370       -1226.116          49.000  
  21656889.126   113807753.552       -1226.135          37.000  
  21668319.596   113867830.151       -1226.182          37.000  
  21525013.696   113114685.201       -1226.084          39.000  
  21797847.156   114548473.964       -1226.111          39.000  
  21625234.218   113641371.807       -1226.227          38.000  
  21716667.243   114121877.392       -1226.204          38.000  
  21784364.739   114477628.642       -1226.123          41.000  
  21727516.147   114178858.138       -1226.072          37.000  
  21577180.200   113388878.581       -1226.124          38.000  
  21540839.150   113197884.800       -1226.207          38.000  
 25  8 12  8 49 53.2000000  0 30G 5G 1G 2G 3G 4G27G18G 9G 7G24G25G10
                                G 6G16G12G19G21G13G30G 8G28G22G32G11
                                G23G17G14G26G20G15
  21630555.384   113669399.199       -1226.372          46.000  
  21630547.088   113669298.133       -1226.234          49.000  
  21630611.242   113669564.334       -1226.216          49.000  
  21630625.123   113669506.340       -1226.226          49.000  
  21630545.936   113669331.465       -1226.262          49.000  
  21837748.919   114758136.837       -1226.379          39.000  
  21490188.318   112931689.252       -1226.432          40.000  
  21789693.438   114505624.792       -1226.380          38.000  
  21630647.736   113669817.976       -1226.390          48.000  
  21554951.075   113272043.399       -1226.447          38.000  
  21539131.299   113188890.365       -1226.382          35.000  
  21775034.897   114428546.440       -1226.345          38.000  
  21630550.641   113669553.267       -1226.240          49.000  
  21560829.383   113302915.838       -1226.320          38.000  
  21767097.078                       -1226.351          39.000  
  21711736.615   114095971.327       -1226.393          38.000  
  21542056.888   113204316.415       -1226.316          42.000  
  21698254.599   114025084.447       -1226.398          33.000  
  21666312.607   113857196.351       -1226.360          40.000  
  21630483.254   113669342.610       -1226.379          49.000  
  21656935.790   113807998.784       -1226.313          37.000  
  21668366.283   113868075.391       -1226.364          37.000  
  21525060.401   113114930.439       -1226.313          39.000  
  21797893.840   114548719.202       -1226.346          39.000  
  21625280.921   113641617.042       -1226.374          38.000  
  21716713.939   114122122.628       -1226.340          38.000  
  21784411.476   114477873.877       -1226.305          41.000  
  21727562.822   114179103.374       -1226.486          38.000  
  21577226.865   113389123.814       -1226.351          39.000  
  21540885.818   113198130.038       -1226.318          38.000  
 25  8 12  8 49 53.4000000  0 30G 5G 1G 2G 3G 4G27G18G 9G 7G24G25G10
                                G 6G16G12G19G21G13G30G 8G28G22G32G11
                                G23G17G14G26G20G15
  21630602.028   113669644.439       -1226.359          46.000  
  21630593.748   113669543.377       -1226.291          49.000  
  21630657.913   113669809.578       -1226.265          49.000  
  21630671.810   113669751.583       -1226.245          49.000  
  21630592.581   113669576.707       -1226.318          49.000  
  21837795.589   114758382.080       -1226.411          39.000  
  21490234.984   112931934.490       -1226.373          40.000  
  21789740.061   114505870.033       -1226.359          38.000  
  21630693.587   113670063.213       -1226.347          48.000  
  21554997.669   113272288.638       -1226.333          38.000  
  21539177.990   113189135.606       -1226.415          35.000  
  21775081.548   114428791.680       -1226.380          38.000  
  21630597.308   113669798.509       -1226.285          49.000  
  21560876.059   113303161.081       -1226.348          38.000  
  21767147.982                       -1226.351          39.000  
  21711783.333   114096216.570       -1226.326          38.000  
  21542103.602   113204561.660       -1226.399          42.000  
  21698301.323   114025329.676       -1226.255          33.000  
  21666359.272   113857441.591       -1226.340          40.000  
  21630529.418   113669587.849       -1226.357          49.000  
  21656982.478   113808244.027       -1226.397          37.000  
  21668412.994   113868320.632       -1226.355          37.000  
  21525107.077   113115175.679       -1226.290          39.000  
  21797940.517   114548964.443       -1226.338          39.000  
  21625327.644   113641862.283       -1226.326          38.000  
  21716760.622   114122367.869       -1226.331          38.000  
  21784458.135   114478119.121       -1226.377          41.000  
  21727609.479   114179348.612       -1226.361          38.000  
  21577273.529   113389369.057       -1226.353          39.000  
  21540932.500   113198375.281       -1226.392          38.000  
 25  8 12  8 49 53.6000000  0 30G 5G 1G 2G 3G 4G27G18G 9G 7G24G25G10
                                G 6G16G12G19G21G13G30G 8G28G22G32G11
                                G23G17G14G26G20G15
  21630648.698   113669889.710       -1226.449          46.000  
  21630640.412   113669788.649       -1226.473          49.000  
  21630704.565   113670054.854       -1226.535          49.000  
  21630718.475   113669996.856       -1226.449          49.000  
  21630639.181   113669821.978       -1226.514          49.000  
  21837842.313   114758627.343       -1226.342          39.000  
  21490281.690   112932179.776       -1226.781          40.000  
  21789786.758   114506115.311       -1226.632          39.000  
  21630739.692   113670308.485       -1226.481          48.000  
  21555044.337   113272533.924       -1226.812          38.000  
  21539224.649   113189380.903       -1227.094          35.000  
  21775128.190   114429036.949       -1226.469          38.000  
  21630643.984   113670043.782       -1226.455          49.000  
  21560922.706   113303406.322       -1225.922          38.000  
  21767197.013                       -1226.351          39.000  
  21711829.984   114096461.834       -1226.318          38.000  
  21542150.280   113204806.919       -1226.372          42.000  
  21698348.000   114025574.933       -1226.126          33.000  
  21666405.971   113857686.863       -1226.460          40.000  
  21630575.683   113669833.124       -1226.560          49.000  
  21657029.126   113808489.297       -1226.537          37.000  
  21668459.710   113868565.875       -1225.957          36.000  
  21525153.731   113115420.949       -1226.442          39.000  
  21797987.201   114549209.735       -1226.907          39.000  
  21625374.353   113642107.534       -1226.067          38.000  
  21716807.271   114122613.136       -1226.389          38.000  
  21784504.822   114478364.402       -1226.751          41.000  
  21727656.190   114179593.884       -1226.535          38.000  
  21577320.192   113389614.347       -1226.908          39.000  
  21540979.175   113198620.541       -1226.365          38.000  
 25  8 12  8 49 53.8000000  0 30G 5G 1G 2G 3G 4G27G18G 9G 7G24G25G10
                                G 6G16G12G19G21G13G30G 8G28G22G32G11
                                G23G17G14G26G20G15
  21630695.360   113670134.981       -1226.542          46.000  
  21630687.077   113670033.921       -1226.561          49.000  
  21630751.226   113670300.125       -1226.509          49.000  
  21630765.161   113670242.131       -1226.460          49.000  
  21630685.841   113670067.255       -1226.632          49.000  
  21837888.972   114758872.609       -1226.444          38.000  
  21490328.369   112932425.048       -1226.287          40.000  
  21789833.368   114506360.582       -1226.472          39.000  
  21630787.015   113670553.759       -1226.581          48.000  
  21555090.965   113272779.196       -1226.580          38.000  
  21539271.358   113189626.171       -1226.237          35.000  
  21775174.815   114429282.221       -1226.375          38.000  
  21630690.635   113670289.056       -1226.559          49.000  
  21560969.383   113303651.596       -1226.801          38.000  
  21767243.079                       -1226.351          39.000  
  21711876.712   114096707.109       -1226.634          38.000  
  21542196.952   113205052.192       -1226.548          41.000  
  21698394.742   114025820.209       -1226.854          34.000  
  21666452.640   113857932.134       -1226.633          40.000  
  21630622.781   113670078.394       -1226.465          49.000  
  21657075.829   113808734.567       -1226.562          39.000  
  21668506.392   113868811.148       -1226.794          37.000  
  21525200.405   113115666.220       -1226.484          39.000  
  21798033.882   114549455.010       -1226.475          39.000  
  21625420.989   113642352.802       -1226.638          38.000  
  21716853.951   114122858.407       -1226.508          38.000  
  21784551.522   114478609.670       -1226.360          41.000  
  21727702.883   114179839.160       -1226.683          37.000  
  21577366.905   113389859.613       -1226.177          38.000  
  21541025.872   113198865.816       -1226.527          38.000  
 25  8 12  8 49 54.0000000  0 30G 5G 1G 2G 3G 4G27G18G 9G 7G24G25G10
                                G 6G16G12G19G21G13G30G 8G28G22G32G11
                                G23G17G14G26G20G15
  21630741.999   113670380.243       -1226.150          46.000  
  21630733.720   113670279.181       -1226.224          49.000  
  21630797.894   113670545.388       -1226.248          49.000  
  21630811.842   113670487.397       -1226.254          49.000  
  21630732.439   113670312.514       -1226.208          49.000  
  21837935.671   114759117.881       -1226.251          38.000  
  21490375.069   112932670.319       -1226.165          40.000  
  21789880.019   114506605.846       -1226.158          38.000  
  21630834.295   113670799.018       -1226.145          49.000  
  21555137.632   113273024.453       -1226.018          38.000  
  21539318.005   113189871.442       -1226.005          34.000  
  21775221.458   114429527.488       -1226.253          38.000  
  21630737.263   113670534.317       -1226.236          49.000  
  21561016.039   113303896.843       -1226.088          38.000  
  21767290.376                       -1226.351          39.000  
  21711923.379   114096952.360       -1226.092          38.000  
  21542243.609   113205297.450       -1226.129          41.000  
  21698441.500   114026065.460       -1226.249          34.000  
  21666499.317   113858177.395       -1226.223          40.000  
  21630670.010   113670323.660       -1226.222          49.000  
  21657122.476   113808979.829       -1226.169          39.000  
  21668553.098   113869056.399       -1226.205          37.000  
  21525247.087   113115911.486       -1226.218          39.000  
  21798080.565   114549700.274       -1226.129          39.000  
  21625467.655   113642598.065       -1226.307          38.000  
  21716900.610   114123103.671       -1226.240          38.000  
  21784598.229   114478854.942       -1226.211          41.000  
  21727749.561   114180084.410       -1226.013          37.000  
  21577413.587   113390104.894       -1226.262          38.000  
  21541072.544   113199111.077       -1226.180          38.000  
 25  8 12  8 49 54.2000000  0 30G 5G 1G 2G 3G 4G27G18G 9G 7G24G25G10
                                G 6G16G12G19G21G13G30G 8G28G22G32G11
                                G23G17G14G26G20G15
  21630788.688   113670625.514       -1226.469          46.000  
  21630780.348   113670524.451       -1226.405          49.000  
  21630844.568   113670790.656       -1226.433          49.000  
  21630858.553   113670732.664       -1226.432          49.000  
  21630779.087   113670557.783       -1226.412          49.000  
  21837982.355   114759363.151       -1226.605          38.000  
  21490421.790   112932915.590       -1226.486          40.000  
  21789926.684   114506851.113       -1226.344          38.000  
  21630881.540   113671044.292       -1226.437          49.000  
  21555184.259   113273269.735       -1226.448          38.000  
  21539364.649   113190116.721       -1226.525          34.000  
  21775268.128   114429772.750       -1226.346          38.000  
  21630783.962   113670779.585       -1226.397          49.000  
  21561062.726   113304142.119       -1226.351          38.000  
  21767334.560                       -1226.351          39.000  
  21711970.078   114097197.630       -1226.307          38.000  
  21542290.290   113205542.723       -1226.429          41.000  
  21698488.284   114026310.733       -1226.396          34.000  
  21666545.987   113858422.664       -1226.441          40.000  
  21630717.151   113670568.927       -1226.438          49.000  
  21657169.140   113809225.101       -1226.462          39.000  
  21668599.793   113869301.670       -1226.409          37.000  
  21525293.808   113116156.755       -1226.458          39.000  
  21798127.249   114549945.550       -1226.500          39.000  
  21625514.315   113642843.328       -1226.441          39.000  
  21716947.274   114123348.938       -1226.479          38.000  
  21784644.961   114479100.210       -1226.536          41.000  
  21727796.218   114180329.697       -1226.471          37.000  
  21577460.234   113390350.157       -1226.448          38.000  
  21541119.223   113199356.350       -1226.437          38.000  
 25  8 12  8 49 54.4000000  0 30G 5G 1G 2G 3G 4G27G18G 9G 7G24G25G10
                                G 6G16G12G19G21G13G30G 8G28G22G32G11
                                G23G17G14G26G20G15
  21630835.331   113670870.775       -1226.318          46.000  
  21630826.934   113670769.715       -1226.286          49.000  
  21630891.246   113671035.920       -1226.305          49.000  
  21630905.249   113670977.927       -1226.333          49.000  
  21630825.724   113670803.049       -1226.304          49.000  
  21838029.079   114759608.401       -1226.227          38.000  
  21490468.483   112933160.852       -1226.321          39.000  
  21789973.307   114507096.381       -1226.285          38.000  
  21630928.788   113671289.554       -1226.286          49.000  
  21555230.925   113273515.000       -1226.398          38.000  
  21539411.285   113190361.978       -1226.315          34.000  
  21775314.795   114430018.014       -1226.271          37.000  
  21630830.609   113671024.851       -1226.297          49.000  
  21561109.406   113304387.390       -1226.354          38.000  
  21767378.455                       -1226.351          39.000  
  21712016.714   114097442.902       -1226.297          38.000  
  21542336.935   113205787.987       -1226.333          41.000  
  21698534.966   114026556.000       -1226.337          34.000  
  21666592.685   113858667.930       -1226.366          39.000  
  21630764.090   113670814.192       -1226.312          49.000  
  21657215.830   113809470.365       -1226.351          39.000  
  21668646.487   113869546.935       -1226.372          38.000  
  21525340.435   113116402.016       -1226.361          39.000  
  21798173.898   114550190.809       -1226.352          38.000  
  21625561.021   113643088.593       -1226.310          39.000  
  21716993.931   114123594.200       -1226.307          38.000  
  21784691.648   114479345.471       -1226.364          41.000  
  21727842.914   114180574.960       -1226.377          37.000  
  21577506.920   113390595.420       -1226.328          38.000  
  21541165.882   113199601.612       -1226.333          38.000  
 25  8 12  8 49 54.6000000  0 30G 5G 1G 2G 3G 4G27G18G 9G 7G24G25G10
                                G 6G16G12G19G21G13G30G 8G28G22G32G11
                                G23G17G14G26G20G15
  21630882.008   113671116.032       -1226.463          46.000  
  21630873.602   113671014.974       -1226.365          49.000  
  21630937.914   113671281.177       -1226.381          49.000  
  21630951.931   113671223.192       -1226.388          49.000  
  21630872.352   113671048.310       -1226.418          49.000  
  21838075.748   114759853.669       -1226.632          38.000  
  21490515.178   112933406.105       -1226.484          39.000  
  21790019.966   114507341.618       -1226.267          38.000  
  21630975.657   113671534.814       -1226.454          49.000  
  21555277.574   113273760.234       -1226.249          38.000  
  21539457.950   113190607.192       -1226.237          34.000  
  21775361.452   114430263.313       -1226.436          38.000  
  21630877.280   113671270.113       -1226.384          49.000  
  21561156.107   113304632.667       -1226.389          38.000  
  21767419.770                       -1226.351          39.000  
  21712063.424   114097688.155       -1226.318          38.000  
  21542383.641   113206033.239       -1226.412          41.000  
  21698581.724   114026801.206       -1226.465          34.000  
  21666639.300   113858913.187       -1226.440          39.000  
  21630810.768   113671059.457       -1226.442          49.000  
  21657262.492   113809715.627       -1226.446          39.000  
  21668693.160   113869792.187       -1226.423          38.000  
  21525387.101   113116647.251       -1226.432          39.000  
  21798220.545   114550436.038       -1226.407          38.000  
  21625607.707   113643333.870       -1226.557          38.000  
  21717040.649   114123839.492       -1226.567          38.000  
  21784738.315   114479590.720       -1226.428          41.000  
  21727889.583   114180820.194       -1226.315          37.000  
  21577553.614   113390840.683       -1226.455          38.000  
  21541212.570   113199846.879       -1226.449          38.000  
 25  8 12  8 49 54.8000000  0 30G 5G 1G 2G 3G 4G27G18G 9G 7G24G25G10
                                G 6G16G12G19G21G13G30G 8G28G22G32G11
                                G23G17G14G26G20G15
  21630928.678   113671361.286       -1226.255          46.000  
  21630920.245   113671260.229       -1226.195          49.000  
  21630984.573   113671526.425       -1226.165          49.000  
  21630998.625   113671468.442       -1226.172          49.000  
  21630918.963   113671293.562       -1226.171          49.000  
  21838122.439   114760098.910       -1226.201          37.000  
  21490561.844   112933651.358       -1226.211          39.000  
  21790066.583   114507586.879       -1226.200          38.000  
  21631022.485   113671780.065       -1226.178          49.000  
  21555324.260   113274005.499       -1226.205          38.000  
  21539504.609   113190852.459       -1226.178          34.000  
  21775408.075   114430508.555       -1226.279          38.000  
  21630923.929   113671515.366       -1226.177          49.000  
  21561202.778   113304877.924       -1226.410          38.000  
  21767463.098                       -1226.351          38.000  
  21712110.071   114097933.416       -1226.253          38.000  
  21542430.315   113206278.494       -1226.188          41.000  
  21698628.444   114027046.475       -1226.288          34.000  
  21666685.998   113859158.441       -1226.202          39.000  
  21630857.418   113671304.708       -1226.251          49.000  
  21657309.179   113809960.880       -1226.231          39.000  
  21668739.831   113870037.443       -1226.189          37.000  
  21525433.744   113116892.510       -1226.167          39.000  
  21798267.193   114550681.295       -1226.189          38.000  
  21625654.397   113643579.115       -1226.161          38.000  
  21717087.286   114124084.738       -1226.291          38.000  
  21784784.999   114479835.975       -1226.223          41.000  
  21727936.287   114181065.457       -1226.206          37.000  
  21577600.285   113391085.937       -1226.255          38.000  
  21541259.251   113200092.129       -1226.224          38.000  
 25  8 12  8 49 55.0000000  0 30G 5G 1G 2G 3G 4G27G18G 9G 7G24G25G10
                                G 6G16G12G19G21G13G30G 8G28G22G32G11
                                G23G17G14G26G20G15
  21630975.365   113671606.583       -1226.620          46.000  
  21630966.899   113671505.524       -1226.537          49.000  
  21631031.251   113671771.723       -1226.532          49.000  
  21631045.312   113671713.735       -1226.533          49.000  
  21630965.636   113671538.854       -1226.445          49.000  
  21838169.115   114760344.207       -1226.511          37.000  
  21490608.513   112933896.653       -1226.538          39.000  
  21790113.246   114507832.173       -1226.621          38.000  
  21631069.270   113672025.363       -1226.571          49.000  
  21555370.897   113274250.790       -1226.615          38.000  
  21539551.281   113191097.755       -1226.636          35.000  
  21775454.718   114430753.854       -1226.598          38.000  
  21630970.601   113671760.659       -1226.494          49.000  
  21561249.450   113305123.210       -1226.521          37.000  
  21767508.095                       -1226.351          38.000  
  21712156.778   114098178.707       -1226.639          38.000  
  21542477.041   113206523.789       -1226.592          41.000  
  21698675.267   114027291.763       -1226.489          34.000  
  21666732.690   113859403.737       -1226.591          39.000  
  21630904.054   113671550.002       -1226.550          49.000  
  21657355.875   113810206.174       -1226.565          39.000  
  21668786.513   113870282.741       -1226.595          37.000  
  21525480.407   113117137.804       -1226.578          39.000  
  21798313.871   114550926.594       -1226.688          38.000  
  21625701.039   113643824.419       -1226.520          38.000  
  21717134.008   114124330.034       -1226.534          38.000  
  21784831.695   114480081.270       -1226.569          41.000  
  21727982.928   114181310.749       -1226.671          37.000  
  21577646.934   113391331.230       -1226.562          38.000  
  21541305.905   113200337.426       -1226.603          38.000  
 25  8 12  8 49 55.2000000  0 30G 5G 1G 2G 3G 4G27G18G 9G 7G24G25G10
                                G 6G16G12G19G21G13G30G 8G28G22G32G11
                                G23G17G14G26G20G15
  21631022.042   113671851.846       -1226.421          46.000  
  21631013.518   113671750.788       -1226.301          49.000  
  21631077.941   113672016.991       -1226.309          49.000  
  21631092.016   113671959.000       -1226.339          49.000  
  21631012.293   113671784.126       -1226.329          49.000  
  21838215.830   114760589.477       -1226.437          37.000  
  21490655.210   112934141.921       -1226.356          39.000  
  21790159.844   114508077.435       -1226.368          38.000  
  21631116.151   113672270.630       -1226.372          49.000  
  21555417.595   113274496.047       -1226.295          38.000  
  21539597.961   113191343.013       -1226.270          35.000  
  21775501.387   114430999.121       -1226.466          38.000  
  21631017.247   113672005.929       -1226.369          49.000  
  21561296.119   113305368.476       -1226.346          37.000  
  21767554.143                       -1226.351          38.000  
  21712203.437   114098423.971       -1226.362          38.000  
  21542523.695   113206769.055       -1226.344          41.000  
  21698722.009   114027537.035       -1226.281          34.000  
  21666779.356   113859649.004       -1226.396          39.000  
  21630950.750   113671795.268       -1226.359          49.000  
  21657402.477   113810451.441       -1226.310          39.000  
  21668833.191   113870528.002       -1226.408          37.000  
  21525527.097   113117383.071       -1226.371          39.000  
  21798360.515   114551171.850       -1226.281          38.000  
  21625747.727   113644069.687       -1226.363          38.000  
  21717180.679   114124575.303       -1226.379          37.000  
  21784878.362   114480326.531       -1226.333          41.000  
  21728029.606   114181556.007       -1226.404          37.000  
  21577693.617   113391576.496       -1226.433          38.000  
  21541352.615   113200582.687       -1226.335          39.000  
 25  8 12  8 49 55.4000000  0 30G 5G 1G 2G 3G 4G27G18G 9G 7G24G25G10
                                G 6G16G12G19G21G13G30G 8G28G22G32G11
                                G23G17G14G26G20G15
  21631068.713   113672097.100       -1226.014          46.000  
  21631060.148   113671996.046       -1226.131          49.000  
  21631124.617   113672262.247       -1226.213          49.000  
  21631138.711   113672204.249       -1226.007          49.000  
  21631058.903   113672029.378       -1226.100          49.000  
  21838262.513   114760834.733       -1226.265          37.000  
  21490701.879   112934387.176       -1226.097          39.000  
  21790206.524   114508322.700       -1226.334          38.000  
  21631162.947   113672515.885       -1226.152          49.000  
  21555464.206   113274741.320       -1226.344          38.000  
  21539644.591   113191588.294       -1226.479          35.000  
  21775548.009   114431244.347       -1225.563          38.000  
  21631063.915   113672251.181       -1226.088          49.000  
  21561342.787   113305613.719       -1225.737          37.000  
  21767599.631                       -1226.351          38.000  
  21712250.133   114098669.226       -1226.106          38.000  
  21542570.428   113207014.310       -1226.136          41.000  
  21698768.732   114027782.330       -1226.851          33.000  
  21666826.025   113859894.254       -1226.088          39.000  
  21630997.538   113672040.520       -1226.073          49.000  
  21657449.162   113810696.697       -1226.084          39.000  
  21668879.866   113870773.263       -1226.244          37.000  
  21525573.758   113117628.341       -1226.434          39.000  
  21798407.205   114551417.135       -1226.588          38.000  
  21625794.366   113644314.929       -1225.895          38.000  
  21717227.394   114124820.536       -1225.691          37.000  
  21784925.049   114480571.800       -1226.353          41.000  
  21728076.252   114181801.277       -1226.362          37.000  
  21577740.287   113391821.751       -1226.179          38.000  
  21541399.306   113200827.943       -1226.136          39.000  
 25  8 12  8 49 55.6000000  0 30G 5G 1G 2G 3G 4G27G18G 9G 7G24G25G10
                                G 6G16G12G19G21G13G30G 8G28G22G32G11
                                G23G17G14G26G20G15
  21631115.364   113672342.370       -1226.514          46.000  
  21631106.818   113672241.308       -1226.332          49.000  
  21631171.291   113672507.507       -1226.310          49.000  
  21631185.400   113672449.510       -1226.313          49.000  
  21631105.554   113672274.640       -1226.326          49.000  
  21838309.208   114761079.989       -1226.267          37.000  
  21490748.574   112934632.441       -1226.412          39.000  
  21790253.181   114508567.964       -1226.312          38.000  
  21631210.372   113672761.148       -1226.372          49.000  
  21555510.874   113274986.593       -1226.394          38.000  
  21539691.273   113191833.563       -1226.299          34.000  
  21775594.665   114431489.612       -1226.590          38.000  
  21631110.607   113672496.441       -1226.346          49.000  
  21561389.484   113305858.985       -1226.587          37.000  
  21767645.456                       -1226.351          38.000  
  21712296.810   114098914.494       -1226.356          38.000  
  21542617.109   113207259.574       -1226.351          41.000  
  21698815.366   114028027.591       -1226.236          34.000  
  21666872.686   113860139.519       -1226.372          39.000  
  21631044.625   113672285.782       -1226.425          49.000  
  21657495.828   113810941.958       -1226.404          39.000  
  21668926.551   113871018.530       -1226.353          37.000  
  21525620.452   113117873.601       -1226.283          39.000  
  21798453.891   114551662.389       -1226.205          38.000  
  21625841.049   113644560.195       -1226.507          38.000  
  21717274.017   114125065.798       -1226.535          37.000  
  21784971.733   114480817.056       -1226.324          41.000  
  21728122.955   114182046.549       -1226.387          37.000  
  21577786.939   113392067.012       -1226.345          38.000  
  21541445.999   113201073.205       -1226.393          38.000  
 25  8 12  8 49 55.8000000  0 30G 5G 1G 2G 3G 4G27G18G 9G 7G24G25G10
                                G 6G16G12G19G21G13G30G 8G28G22G32G11
                                G23G17G14G26G20G15
  21631162.029   113672587.644       -1226.530          46.000  
  21631153.487   113672486.586       -1226.416          49.000  
  21631217.966   113672752.787       -1226.346          49.000  
  21631232.084   113672694.789       -1226.360          49.000  
  21631152.201   113672519.917       -1226.430          49.000  
  21838355.858   114761325.275       -1226.352          37.000  
  21490795.236   112934877.718       -1226.499          39.000  
  21790299.865   114508813.251       -1226.587          38.000  
  21631257.366   113673006.427       -1226.516          49.000  
  21555557.545   113275231.872       -1226.602          38.000  
  21539737.919   113192078.848       -1226.567          34.000  
  21775641.337   114431734.877       -1226.427          38.000  
  21631157.275   113672741.719       -1226.391          49.000  
  21561436.162   113306104.254       -1226.506          38.000  
  21767691.415                       -1226.351          38.000  
  21712343.470   114099159.773       -1226.508          38.000  
  21542663.791   113207504.854       -1226.530          41.000  
  21698862.041   114028272.873       -1226.470          34.000  
  21666919.359   113860384.797       -1226.470          39.000  
  21631091.524   113672531.059       -1226.424          49.000  
  21657542.556   113811187.236       -1226.430          39.000  
  21668973.213   113871263.808       -1226.516          37.000  
  21525667.151   113118118.883       -1226.423          39.000  
  21798500.564   114551907.683       -1226.539          38.000  
  21625887.695   113644805.470       -1226.430          38.000  
  21717320.721   114125311.074       -1226.418          38.000  
  21785018.432   114481062.343       -1226.415          41.000  
  21728169.659   114182291.831       -1226.731          37.000  
  21577833.610   113392312.288       -1226.427          38.000  
  21541492.648   113201318.485       -1226.431          38.000  
 25  8 12  8 49 56.0000000  0 30G 5G 1G 2G 3G 4G27G18G 9G 7G24G25G10
                                G 6G16G12G19G21G13G30G 8G28G22G32G11
                                G23G17G14G26G20G15
  21631208.710   113672832.899       -1226.335          46.000  
  21631200.120   113672731.845       -1226.373          49.000  
  21631264.632   113672998.045       -1226.307          49.000  
  21631278.763   113672940.048       -1226.334          49.000  
  21631198.878   113672765.177       -1226.386          49.000  
  21838402.553   114761570.527       -1226.386          37.000  
  21490841.938   112935122.975       -1226.416          39.000  
  21790346.507   114509058.502       -1226.399          38.000  
  21631304.246   113673251.680       -1226.363          49.000  
  21555604.179   113275477.126       -1226.387          38.000  
  21539784.616   113192324.108       -1226.509          34.000  
  21775688.018   114431980.137       -1226.391          38.000  
  21631203.938   113672986.980       -1226.365          49.000  
  21561482.884   113306349.512       -1226.354          38.000  
  21767738.129                       -1226.351          38.000  
  21712390.158   114099405.030       -1226.402          38.000  
  21542710.451   113207750.109       -1226.348          41.000  
  21698908.707   114028518.131       -1226.398          34.000  
  21666966.074   113860630.054       -1226.381          39.000  
  21631138.355   113672776.317       -1226.388          49.000  
  21657589.188   113811432.490       -1226.329          39.000  
  21669019.881   113871509.065       -1226.422          38.000  
  21525713.810   113118364.140       -1226.405          39.000  
  21798547.244   114552152.934       -1226.429          38.000  
  21625934.395   113645050.724       -1226.345          38.000  
  21717367.402   114125556.332       -1226.401          38.000  
  21785065.075   114481307.599       -1226.449          41.000  
  21728216.338   114182537.084       -1226.458          37.000  
  21577880.293   113392557.545       -1226.335          38.000  
  21541539.332   113201563.741       -1226.437          38.000  
 25  8 12  8 49 56.2000000  0 30G 5G 1G 2G 3G 4G27G18G 9G 7G24G25G10
                                G 6G16G12G19G21G13G30G 8G28G22G32G11
                                G23G17G14G26G20G15
  21631255.342   113673078.159       -1226.306          46.000  
  21631246.748   113672977.102       -1226.314          49.000  
  21631311.299   113673243.301       -1226.244          49.000  
  21631325.451   113673185.304       -1226.243          49.000  
  21631245.515   113673010.430       -1226.283          49.000  
  21838449.184   114761815.784       -1226.198          37.000  
  21490888.614   112935368.232       -1226.329          39.000  
  21790393.179   114509303.763       -1226.388          38.000  
  21631351.400   113673496.939       -1226.269          49.000  
  21555650.826   113275722.381       -1226.277          38.000  
  21539831.331   113192569.364       -1226.382          34.000  
  21775734.665   114432225.396       -1226.274          37.000  
  21631250.597   113673232.235       -1226.277          49.000  
  21561529.559   113306594.767       -1226.237          38.000  
  21767785.404                       -1226.351          38.000  
  21712436.858   114099650.289       -1226.302          39.000  
  21542757.131   113207995.366       -1226.304          41.000  
  21698955.388   114028763.384       -1226.277          35.000  
  21667012.756   113860875.309       -1226.262          39.000  
  21631185.069   113673021.572       -1226.263          49.000  
  21657635.914   113811677.748       -1226.232          39.000  
  21669066.545   113871754.321       -1226.260          38.000  
  21525760.490   113118609.394       -1226.222          39.000  
  21798593.947   114552398.189       -1226.297          38.000  
  21625981.061   113645295.984       -1226.277          38.000  
  21717414.094   114125801.592       -1226.359          38.000  
  21785111.754   114481552.854       -1226.303          41.000  
  21728262.979   114182782.340       -1226.365          37.000  
  21577926.964   113392802.801       -1226.270          37.000  
  21541585.988   113201808.998       -1226.252          38.000  
 25  8 12  8 49 56.4000000  0 30G 5G 1G 2G 3G 4G27G18G 9G 7G24G25G10
                                G 6G16G12G19G21G13G30G 8G28G22G32G11
                                G23G17G14G26G20G15
  21631301.983   113673323.412       -1226.377          46.000  
  21631293.398   113673222.351       -1226.339          49.000  
  21631357.994   113673488.553       -1226.338          49.000  
  21631372.139   113673430.564       -1226.306          49.000  
  21631292.164   113673255.685       -1226.343          49.000  
  21838495.858   114762061.039       -1226.392          37.000  
  21490935.314   112935613.482       -1226.292          39.000  
  21790439.768   114509548.999       -1226.427          38.000  
  21631398.159   113673742.186       -1226.355          49.000  
  21555697.490   113275967.602       -1226.232          38.000  
  21539878.015   113192814.581       -1226.354          34.000  
  21775781.286   114432470.691       -1226.573          38.000  
  21631297.255   113673477.491       -1226.354          49.000  
  21561576.247   113306840.042       -1226.382          38.000  
  21767833.331                       -1226.351          38.000  
  21712483.519   114099895.538       -1226.420          38.000  
  21542803.781   113208240.609       -1226.385          41.000  
  21699002.011   114029008.593       -1226.283          34.000  
  21667059.444   113861120.571       -1226.412          39.000  
  21631231.351   113673266.830       -1226.369          49.000  
  21657682.548   113811923.001       -1226.278          39.000  
  21669113.209   113871999.571       -1226.420          37.000  
  21525807.177   113118854.627       -1226.354          39.000  
  21798640.588   114552643.402       -1226.161          38.000  
  21626027.755   113645541.240       -1226.364          38.000  
  21717460.739   114126046.872       -1226.458          38.000  
  21785158.433   114481798.096       -1226.319          41.000  
  21728309.669   114183027.561       -1226.183          37.000  
  21577973.610   113393048.052       -1226.300          37.000  
  21541632.695   113202054.247       -1226.403          38.000  
 25  8 12  8 49 56.6000000  0 30G 5G 1G 2G 3G 4G27G18G 9G 7G24G25G10
                                G 6G16G12G19G21G13G30G 8G28G22G32G11
                                G23G17G14G26G20G15
  21631348.640   113673568.644       -1226.263          46.000  
  21631340.028   113673467.588       -1226.219          49.000  
  21631404.653   113673733.790       -1226.261          49.000  
  21631418.814   113673675.800       -1226.292          49.000  
  21631338.783   113673500.923       -1226.279          49.000  
  21838542.493   114762306.268       -1226.239          37.000  
  21490981.982   112935858.715       -1226.163          39.000  
  21790486.428   114509794.239       -1226.150          38.000  
  21631444.619   113673987.422       -1226.233          49.000  
  21555744.141   113276212.851       -1226.182          38.000  
  21539924.596   113193059.822       -1226.179          34.000  
  21775827.934   114432715.909       -1226.205          38.000  
  21631343.927   113673722.727       -1226.247          49.000  
  21561622.925   113307085.275       -1226.313          38.000  
  21767881.287                       -1226.351          38.000  
  21712530.205   114100140.774       -1226.147          38.000  
  21542850.428   113208485.844       -1226.188          41.000  
  21699048.761   114029253.841       -1226.325          34.000  
  21667106.114   113861365.802       -1226.188          39.000  
  21631277.449   113673512.064       -1226.279          49.000  
  21657729.233   113812168.242       -1226.240          39.000  
  21669159.908   113872244.804       -1226.234          37.000  
  21525853.846   113119099.864       -1226.224          39.000  
  21798687.235   114552888.656       -1226.185          38.000  
  21626074.402   113645786.469       -1226.203          38.000  
  21717507.442   114126292.099       -1226.332          38.000  
  21785205.129   114482043.336       -1226.255          41.000  
  21728356.341   114183272.809       -1226.108          37.000  
  21578020.265   113393293.289       -1226.230          37.000  
  21541679.367   113202299.483       -1226.185          38.000  
 25  8 12  8 49 56.8000000  0 30G 5G 1G 2G 3G 4G27G18G 9G 7G24G25G10
                                G 6G16G12G19G21G13G30G 8G28G22G32G11
                                G23G17G14G26G20G15
  21631395.257   113673813.890       -1225.998          46.000  
  21631386.694   113673712.830       -1225.966          49.000  
  21631451.300   113673979.029       -1225.959          49.000  
  21631465.487   113673921.043       -1226.033          49.000  
  21631385.382   113673746.163       -1225.953          49.000  
  21838589.191   114762551.506       -1225.913          37.000  
  21491028.691   112936103.962       -1225.968          39.000  
  21790533.021   114510039.488       -1226.040          38.000  
  21631491.050   113674232.664       -1225.978          49.000  
  21555790.810   113276458.098       -1226.011          38.000  
  21539971.282   113193305.071       -1226.058          35.000  
  21775874.593   114432961.161       -1225.988          38.000  
  21631390.578   113673967.967       -1226.007          49.000  
  21561669.663   113307330.524       -1226.029          37.000  
  21767929.326                       -1226.351          38.000  
  21712576.869   114100386.022       -1225.993          38.000  
  21542897.111   113208731.092       -1226.006          41.000  
  21699095.475   114029499.079       -1226.032          34.000  
  21667152.788   113861611.047       -1225.938          39.000  
  21631323.699   113673757.307       -1225.991          49.000  
  21657775.895   113812413.485       -1225.943          39.000  
  21669206.582   113872490.048       -1226.039          37.000  
  21525900.544   113119345.109       -1225.953          39.000  
  21798733.918   114553133.895       -1225.930          38.000  
  21626121.065   113646031.714       -1225.899          38.000  
  21717554.104   114126537.342       -1225.933          38.000  
  21785251.803   114482288.577       -1225.967          41.000  
  21728403.041   114183518.057       -1226.026          37.000  
  21578066.943   113393538.536       -1226.023          37.000  
  21541726.065   113202544.735       -1226.089          38.000  
 25  8 12  8 49 57.0000000  0 30G 5G 1G 2G 3G 4G27G18G 9G 7G24G25G10
                                G 6G16G12G19G21G13G30G 8G28G22G32G11
                                G23G17G14G26G20G15
  21631441.975   113674059.133       -1226.354          46.000  
  21631433.327   113673958.074       -1226.283          49.000  
  21631497.958   113674224.276       -1226.344          49.000  
  21631512.166   113674166.286       -1226.284          49.000  
  21631432.037   113673991.409       -1226.296          49.000  
  21838635.859   114762796.763       -1226.441          37.000  
  21491075.386   112936349.208       -1226.400          39.000  
  21790579.672   114510284.729       -1226.343          38.000  
  21631537.418   113674477.910       -1226.327          49.000  
  21555837.440   113276703.330       -1226.194          38.000  
  21540017.975   113193550.310       -1226.350          35.000  
  21775921.219   114433206.402       -1226.289          38.000  
  21631437.267   113674213.210       -1226.264          49.000  
  21561716.294   113307575.758       -1226.266          37.000  
  21767975.113                       -1226.351          38.000  
  21712623.536   114100631.264       -1226.363          38.000  
  21542943.812   113208976.334       -1226.357          41.000  
  21699142.220   114029744.320       -1226.404          34.000  
  21667199.473   113861856.293       -1226.401          39.000  
  21631370.115   113674002.553       -1226.338          49.000  
  21657822.585   113812658.734       -1226.420          39.000  
  21669253.269   113872735.287       -1226.169          37.000  
  21525947.230   113119590.353       -1226.350          39.000  
  21798780.614   114553379.139       -1226.295          38.000  
  21626167.725   113646276.964       -1226.365          38.000  
  21717600.812   114126782.592       -1226.411          38.000  
  21785298.500   114482533.826       -1226.387          41.000  
  21728449.700   114183763.286       -1226.161          37.000  
  21578113.571   113393783.783       -1226.461          37.000  
  21541772.749   113202789.978       -1226.340          38.000  
 25  8 12  8 49 57.2000000  0 30G 5G 1G 2G 3G 4G27G18G 9G 7G24G25G10
                                G 6G16G12G19G21G13G30G 8G28G22G32G11
                                G23G17G14G26G20G15
  21631488.602   113674304.390       -1226.423          46.000  
  21631479.912   113674203.328       -1226.307          49.000  
  21631544.641   113674469.539       -1226.495          49.000  
  21631558.843   113674411.537       -1226.319          49.000  
  21631478.665   113674236.660       -1226.274          49.000  
  21838682.568   114763042.017       -1226.586          37.000  
  21491122.072   112936594.445       -1226.190          39.000  
  21790626.310   114510529.986       -1226.410          38.000  
  21631583.781   113674723.165       -1226.419          49.000  
  21555884.101   113276948.602       -1226.510          38.000  
  21540064.635   113193795.550       -1226.011          35.000  
  21775967.820   114433451.637       -1225.891          38.000  
  21631483.936   113674458.468       -1226.398          49.000  
  21561763.011   113307821.009       -1226.150          37.000  
  21768022.611                       -1226.351          38.000  
  21712670.214   114100876.518       -1226.296          38.000  
  21542990.476   113209221.595       -1226.486          41.000  
  21699188.868   114029989.603       -1227.004          34.000  
  21667246.136   113862101.538       -1226.229          39.000  
  21631416.395   113674247.802       -1226.301          49.000  
  21657869.220   113812903.978       -1226.243          39.000  
  21669299.969   113872980.553       -1226.577          37.000  
  21525993.921   113119835.606       -1226.343          39.000  
  21798827.249   114553624.417       -1226.759          38.000  
  21626214.410   113646522.213       -1226.340          38.000  
  21717647.457   114127027.831       -1226.205          38.000  
  21785345.174   114482779.077       -1226.379          41.000  
  21728496.405   114184008.561       -1226.532          37.000  
  21578160.246   113394029.021       -1226.226          37.000  
  21541819.446   113203035.233       -1226.340          38.000  
 25  8 12  8 49 57.4000000  0 30G 5G 1G 2G 3G 4G27G18G 9G 7G24G25G10
                                G 6G16G12G19G21G13G30G 8G28G22G32G11
                                G23G17G14G26G20G15
  21631535.309   113674549.638       -1226.422          46.000  
  21631526.563   113674448.580       -1226.430          49.000  
  21631591.300   113674714.787       -1226.404          49.000  
  21631605.532   113674656.785       -1226.412          49.000  
  21631525.318   113674481.909       -1226.424          49.000  
  21838729.195   114763287.263       -1226.104          37.000  
  21491168.763   112936839.690       -1226.487          39.000  
  21790672.980   114510775.244       -1226.416          38.000  
  21631630.535   113674968.417       -1226.425          49.000  
  21555930.748   113277193.857       -1226.434          38.000  
  21540111.326   113194040.806       -1226.569          35.000  
  21776014.487   114433696.889       -1226.678          38.000  
  21631530.613   113674703.718       -1226.430          49.000  
  21561809.678   113308066.258       -1226.576          37.000  
  21768072.704                       -1226.351          38.000  
  21712716.909   114101121.775       -1226.585          38.000  
  21543037.148   113209466.841       -1226.302          41.000  
  21699235.554   114030234.852       -1226.146          34.000  
  21667292.795   113862346.791       -1226.482          40.000  
  21631462.472   113674493.054       -1226.430          49.000  
  21657915.913   113813149.228       -1226.443          39.000  
  21669346.653   113873225.803       -1226.314          37.000  
  21526040.608   113120080.855       -1226.321          39.000  
  21798873.904   114553869.667       -1226.133          38.000  
  21626261.088   113646767.462       -1226.386          38.000  
  21717694.122   114127273.082       -1226.413          38.000  
  21785391.838   114483024.329       -1226.357          41.000  
  21728543.068   114184253.815       -1226.458          37.000  
  21578206.925   113394274.276       -1226.396          37.000  
  21541866.126   113203280.483       -1226.462          39.000  
 25  8 12  8 49 57.6000000  0 30G 5G 1G 2G 3G 4G27G18G 9G 7G24G25G10
                                G 6G16G12G19G21G13G30G 8G28G22G32G11
                                G23G17G14G26G20G15
  21631581.954   113674794.893       -1226.105          46.000  
  21631573.187   113674693.834       -1226.178          49.000  
  21631637.967   113674960.043       -1226.232          49.000  
  21631652.200   113674902.038       -1226.166          49.000  
  21631571.921   113674727.163       -1226.180          49.000  
  21838775.898   114763532.532       -1226.165          37.000  
  21491215.436   112937084.949       -1226.222          39.000  
  21790719.584   114511020.497       -1226.191          38.000  
  21631677.339   113675213.669       -1226.099          49.000  
  21555977.405   113277439.104       -1226.031          38.000  
  21540157.978   113194286.052       -1226.145          34.000  
  21776061.184   114433942.142       -1226.343          38.000  
  21631577.237   113674948.971       -1226.198          49.000  
  21561856.376   113308311.507       -1226.199          38.000  
  21768122.456                       -1226.351          38.000  
  21712763.624   114101367.023       -1226.158          38.000  
  21543083.822   113209712.105       -1226.194          41.000  
  21699282.202   114030480.114       -1226.063          34.000  
  21667339.497   113862592.044       -1226.186          40.000  
  21631508.666   113674738.309       -1226.178          49.000  
  21657962.568   113813394.481       -1226.140          39.000  
  21669393.315   113873471.061       -1226.169          37.000  
  21526087.289   113120326.113       -1226.169          39.000  
  21798920.627   114554114.927       -1226.025          38.000  
  21626307.786   113647012.720       -1226.144          38.000  
  21717740.745   114127518.338       -1226.151          38.000  
  21785438.511   114483269.584       -1226.139          41.000  
  21728589.768   114184499.069       -1226.190          37.000  
  21578253.579   113394519.533       -1226.224          38.000  
  21541912.828   113203525.739       -1226.141          39.000  
 25  8 12  8 49 57.8000000  0 30G 5G 1G 2G 3G 4G27G18G 9G 7G24G25G10
                                G 6G16G12G19G21G13G30G 8G28G22G32G11
                                G23G17G14G26G20G15
  21631628.647   113675040.140       -1226.380          46.000  
  21631619.793   113674939.078       -1226.308          49.000  
  21631684.627   113675205.280       -1226.218          49.000  
  21631698.879   113675147.283       -1226.282          49.000  
  21631618.541   113674972.405       -1226.256          49.000  
  21838822.520   114763777.773       -1226.335          37.000  
  21491262.094   112937330.191       -1226.328          40.000  
  21790766.279   114511265.743       -1226.340          38.000  
  21631724.216   113675458.915       -1226.347          49.000  
  21556024.060   113277684.345       -1226.260          38.000  
  21540204.646   113194531.292       -1226.250          34.000  
  21776107.886   114434187.387       -1226.351          38.000  
  21631623.895   113675194.213       -1226.282          49.000  
  21561903.081   113308556.749       -1226.311          38.000  
  21768172.628                       -1226.351          38.000  
  21712810.288   114101612.267       -1226.307          39.000  
  21543130.470   113209957.346       -1226.356          41.000  
  21699328.948   114030725.351       -1226.305          34.000  
  21667386.144   113862837.288       -1226.320          40.000  
  21631555.069   113674983.554       -1226.366          49.000  
  21658009.267   113813639.726       -1226.327          39.000  
  21669439.970   113873716.309       -1226.419          37.000  
  21526133.959   113120571.355       -1226.222          39.000  
  21798967.324   114554360.173       -1226.351          38.000  
  21626354.439   113647257.969       -1226.404          38.000  
  21717787.449   114127763.579       -1226.228          38.000  
  21785485.212   114483514.832       -1226.345          41.000  
  21728636.426   114184744.308       -1226.338          37.000  
  21578300.215   113394764.778       -1226.348          38.000  
  21541959.504   113203770.983       -1226.410          39.000  
 25  8 12  8 49 58.0000000  0 30G 5G 1G 2G 3G 4G27G18G 9G 7G24G25G10
                                G 6G16G12G19G21G13G30G 8G28G22G32G11
                                G23G17G14G26G20G15
  21631675.298   113675285.384       -1226.319          46.000  
  21631666.416   113675184.325       -1226.299          49.000  
  21631731.296   113675450.531       -1226.292          49.000  
  21631745.552   113675392.531       -1226.291          49.000  
  21631665.176   113675217.653       -1226.272          49.000  
  21838869.165   114764023.024       -1226.363          37.000  
  21491308.765   112937575.438       -1226.287          40.000  
  21790812.881   114511510.994       -1226.402          38.000  
  21631771.051   113675704.160       -1226.312          49.000  
  21556070.741   113277929.599       -1226.329          38.000  
  21540251.272   113194776.543       -1226.343          34.000  
  21776154.523   114434432.629       -1226.219          37.000  
  21631670.541   113675439.461       -1226.285          49.000  
  21561949.801   113308801.997       -1226.326          38.000  
  21768219.521                       -1226.351          38.000  
  21712857.016   114101857.517       -1226.342          39.000  
  21543177.119   113210202.593       -1226.272          41.000  
  21699375.622   114030970.602       -1226.271          34.000  
  21667432.793   113863082.536       -1226.339          40.000  
  21631601.662   113675228.800       -1226.312          49.000  
  21658055.940   113813884.975       -1226.349          39.000  
  21669486.666   113873961.552       -1226.285          37.000  
  21526180.583   113120816.608       -1226.384          39.000  
  21799013.989   114554605.418       -1226.271          38.000  
  21626401.124   113647503.213       -1226.426          38.000  
  21717834.135   114128008.829       -1226.284          38.000  
  21785531.858   114483760.081       -1226.349          41.000  
  21728683.131   114184989.557       -1226.304          37.000  
  21578346.943   113395010.023       -1226.305          38.000  
  21542006.214   113204016.231       -1226.360          39.000  
 25  8 12  8 49 58.2000000  0 30G 5G 1G 2G 3G 4G27G18G 9G 7G24G25G10
                                G 6G16G12G19G21G13G30G 8G28G22G32G11
                                G23G17G14G26G20G15
  21631721.952   113675530.599       -1226.054          46.000  
  21631713.006   113675429.547       -1226.109          49.000  
  21631777.961   113675695.753       -1226.154          49.000  
  21631792.223   113675637.761       -1226.177          49.000  
  21631711.776   113675462.882       -1226.098          49.000  
  21838915.774   114764268.213       -1226.069          37.000  
  21491355.431   112937820.691       -1226.161          40.000  
  21790859.571   114511756.186       -1226.055          38.000  
  21631817.908   113675949.376       -1226.075          49.000  
  21556117.377   113278174.808       -1226.128          38.000  
  21540297.917   113195021.778       -1226.199          34.000  
  21776201.152   114434677.876       -1226.181          38.000  
  21631717.181   113675684.687       -1226.079          49.000  
  21561996.491   113309047.239       -1226.163          38.000  
  21768263.657                       -1226.351          38.000  
  21712903.717   114102102.729       -1226.081          38.000  
  21543223.750   113210447.798       -1226.074          41.000  
  21699422.348   114031215.779       -1226.111          34.000  
  21667479.457   113863327.770       -1226.101          40.000  
  21631648.830   113675474.025       -1226.061          49.000  
  21658102.638   113814130.190       -1226.010          39.000  
  21669533.296   113874206.745       -1226.147          37.000  
  21526227.255   113121061.832       -1226.162          39.000  
  21799060.676   114554850.600       -1225.977          38.000  
  21626447.783   113647748.431       -1225.990          38.000  
  21717880.829   114128254.047       -1226.031          37.000  
  21785578.533   114484005.298       -1226.098          41.000  
  21728729.785   114185234.752       -1226.131          37.000  
  21578393.609   113395255.268       -1226.229          38.000  
  21542052.909   113204261.467       -1226.112          39.000  
 25  8 12  8 49 58.4000000  0 30G 5G 1G 2G 3G 4G27G18G 9G 7G24G25G10
                                G 6G16G12G19G21G13G30G 8G28G22G32G11
                                G23G17G14G26G20G15
  21631768.572   113675775.843       -1226.153          46.000  
  21631759.618   113675674.790       -1226.226          49.000  
  21631824.620   113675940.994       -1226.272          49.000  
  21631838.895   113675883.002       -1226.290          49.000  
  21631758.453   113675708.125       -1226.246          49.000  
  21838962.487   114764513.460       -1226.118          37.000  
  21491402.148   112938065.925       -1226.277          40.000  
  21790906.192   114512001.437       -1226.202          38.000  
  21631864.602   113676194.621       -1226.172          49.000  
  21556164.052   113278420.052       -1226.115          38.000  
  21540344.605   113195267.015       -1226.282          34.000  
  21776247.796   114434923.117       -1226.392          38.000  
  21631763.834   113675929.931       -1226.225          49.000  
  21562043.204   113309292.477       -1226.213          38.000  
  21768309.619                       -1226.351          38.000  
  21712950.439   114102347.974       -1226.230          38.000  
  21543270.428   113210693.044       -1226.096          41.000  
  21699469.090   114031461.019       -1225.918          34.000  
  21667526.151   113863573.012       -1226.250          40.000  
  21631696.432   113675719.270       -1226.198          48.000  
  21658149.288   113814375.437       -1226.190          39.000  
  21669579.978   113874451.991       -1226.133          37.000  
  21526273.955   113121307.075       -1226.251          39.000  
  21799107.368   114555095.850       -1226.014          38.000  
  21626494.473   113647993.683       -1226.281          38.000  
  21717927.454   114128499.292       -1226.189          37.000  
  21785625.173   114484250.542       -1226.224          41.000  
  21728776.535   114185479.999       -1226.140          38.000  
  21578440.285   113395500.504       -1226.263          38.000  
  21542099.563   113204506.707       -1226.233          39.000  
 25  8 12  8 49 58.6000000  0 30G 5G 1G 2G 3G 4G27G18G 9G 7G24G25G10
                                G 6G16G12G19G21G13G30G 8G28G22G32G11
                                G23G17G14G26G20G15
  21631815.282   113676021.101       -1226.578          46.000  
  21631806.254   113675920.052       -1226.556          49.000  
  21631871.287   113676186.254       -1226.483          49.000  
  21631885.585   113676128.264       -1226.521          49.000  
  21631805.138   113675953.387       -1226.582          49.000  
  21839009.106   114764758.727       -1226.556          37.000  
  21491448.804   112938311.188       -1226.554          40.000  
  21790952.872   114512246.703       -1226.593          39.000  
  21631911.118   113676439.881       -1226.617          49.000  
  21556210.725   113278665.314       -1226.678          38.000  
  21540391.269   113195512.277       -1226.605          35.000  
  21776294.435   114435168.378       -1226.510          38.000  
  21631810.531   113676175.191       -1226.523          49.000  
  21562089.873   113309537.739       -1226.580          37.000  
  21768357.682                       -1226.351          38.000  
  21712997.123   114102593.235       -1226.545          38.000  
  21543317.110   113210938.310       -1226.625          41.000  
  21699515.792   114031706.290       -1226.681          33.000  
  21667572.812   113863818.274       -1226.615          40.000  
  21631743.962   113675964.532       -1226.602          48.000  
  21658195.983   113814620.701       -1226.635          39.000  
  21669626.634   113874697.252       -1226.545          37.000  
  21526320.630   113121552.336       -1226.687          39.000  
  21799154.051   114555341.116       -1226.678          38.000  
  21626541.160   113648238.945       -1226.663          38.000  
  21717974.169   114128744.558       -1226.686          37.000  
  21785671.891   114484495.803       -1226.569          41.000  
  21728823.207   114185725.266       -1226.669          38.000  
  21578486.943   113395745.773       -1226.643          37.000  
  21542146.209   113204751.967       -1226.669          39.000  
 25  8 12  8 49 58.8000000  0 30G 5G 1G 2G 3G 4G27G18G 9G 7G24G25G10
                                G 6G16G12G19G21G13G30G 8G28G22G32G11
                                G23G17G14G26G20G15
  21631861.895   113676266.352       -1226.218          46.000  
  21631852.901   113676165.293       -1226.141          49.000  
  21631917.968   113676431.497       -1226.082          49.000  
  21631932.285   113676373.509       -1226.131          49.000  
  21631851.719   113676198.633       -1226.179          49.000  
  21839055.773   114765003.965       -1226.003          37.000  
  21491495.483   112938556.429       -1226.088          40.000  
  21790999.474   114512491.941       -1226.118          39.000  
  21631957.391   113676685.121       -1226.110          49.000  
  21556257.373   113278910.562       -1226.309          38.000  
  21540437.926   113195757.520       -1226.156          35.000  
  21776341.036   114435413.611       -1225.952          38.000  
  21631857.149   113676420.436       -1226.141          49.000  
  21562136.602   113309782.986       -1226.193          37.000  
  21768404.309                       -1226.351          38.000  
  21713043.788   114102838.466       -1225.862          38.000  
  21543363.823   113211183.552       -1226.135          41.000  
  21699562.527   114031951.544       -1226.378          33.000  
  21667619.454   113864063.515       -1226.135          40.000  
  21631791.304   113676209.772       -1226.111          48.000  
  21658242.627   113814865.939       -1226.104          40.000  
  21669673.304   113874942.494       -1226.076          37.000  
  21526367.312   113121797.579       -1226.155          39.000  
  21799200.691   114555586.364       -1226.398          38.000  
  21626587.813   113648484.185       -1226.132          38.000  
  21718020.817   114128989.797       -1226.175          37.000  
  21785718.554   114484741.047       -1226.161          41.000  
  21728869.922   114185970.501       -1226.085          38.000  
  21578533.632   113395991.007       -1226.082          37.000  
  21542192.895   113204997.206       -1226.130          39.000  
 25  8 12  8 49 59.0000000  0 30G 5G 1G 2G 3G 4G27G18G 9G 7G24G25G10
                                G 6G16G12G19G21G13G30G 8G28G22G32G11
                                G23G17G14G26G20G15
  21631908.604   113676511.594       -1226.421          46.000  
  21631899.548   113676410.544       -1226.510          49.000  
  21631964.630   113676676.741       -1226.448          49.000  
  21631978.975   113676618.750       -1226.415          49.000  
  21631898.395   113676443.869       -1226.357          49.000  
  21839102.444   114765249.224       -1226.768          37.000  
  21491542.155   112938801.669       -1226.417          40.000  
  21791046.145   114512737.209       -1226.925          39.000  
  21632003.687   113676930.370       -1226.525          49.000  
  21556304.068   113279155.817       -1226.603          38.000  
  21540484.613   113196002.763       -1226.395          35.000  
  21776387.734   114435658.853       -1226.328          38.000  
  21631903.837   113676665.678       -1226.426          49.000  
  21562183.251   113310028.215       -1226.217          37.000  
  21768448.472                       -1226.351          38.000  
  21713090.417   114103083.725       -1226.529          38.000  
  21543410.480   113211428.800       -1226.542          41.000  
  21699609.209   114032196.836       -1227.598          33.000  
  21667666.109   113864308.761       -1226.565          40.000  
  21631838.308   113676455.013       -1226.414          48.000  
  21658289.292   113815111.175       -1226.383          40.000  
  21669719.971   113875187.756       -1226.774          37.000  
  21526413.982   113122042.834       -1226.660          39.000  
  21799247.381   114555831.616       -1226.791          38.000  
  21626634.504   113648729.423       -1226.374          38.000  
  21718067.500   114129235.034       -1226.368          37.000  
  21785765.242   114484986.286       -1226.496          41.000  
  21728916.584   114186215.778       -1226.926          38.000  
  21578580.257   113396236.242       -1226.316          37.000  
  21542239.573   113205242.448       -1226.458          39.000  
 25  8 12  8 49 59.2000000  0 30G 5G 1G 2G 3G 4G27G18G 9G 7G24G25G10
                                G 6G16G12G19G21G13G30G 8G28G22G32G11
                                G23G17G14G26G20G15
  21631955.235   113676756.844       -1226.120          46.000  
  21631946.144   113676655.792       -1226.155          49.000  
  21632011.288   113676921.997       -1226.198          49.000  
  21632025.667   113676864.002       -1226.213          49.000  
  21631945.015   113676689.122       -1226.203          49.000  
  21839149.142   114765494.471       -1225.991          37.000  
  21491588.854   112939046.921       -1226.108          40.000  
  21791092.763   114512982.465       -1225.990          39.000  
  21632050.310   113677175.625       -1226.173          49.000  
  21556350.747   113279401.074       -1226.141          38.000  
  21540531.231   113196248.017       -1226.260          35.000  
  21776434.407   114435904.106       -1226.303          38.000  
  21631950.478   113676910.933       -1226.192          49.000  
  21562229.955   113310273.471       -1226.290          37.000  
  21768495.593                       -1226.351          38.000  
  21713137.102   114103328.981       -1226.191          39.000  
  21543457.180   113211674.054       -1226.204          41.000  
  21699655.838   114032442.082       -1225.565          34.000  
  21667712.819   113864554.015       -1226.211          39.000  
  21631884.177   113676700.270       -1226.209          48.000  
  21658335.922   113815356.428       -1226.223          39.000  
  21669766.682   113875433.009       -1225.952          37.000  
  21526460.621   113122288.086       -1226.089          38.000  
  21799294.023   114556076.872       -1226.021          39.000  
  21626681.187   113648974.672       -1226.166          38.000  
  21718114.127   114129480.286       -1226.198          37.000  
  21785811.868   114485231.541       -1226.174          41.000  
  21728963.272   114186461.034       -1225.862          38.000  
  21578626.952   113396481.493       -1226.310          38.000  
  21542286.225   113205487.702       -1226.205          39.000  
 25  8 12  8 49 59.4000000  0 30G 5G 1G 2G 3G 4G27G18G 9G 7G24G25G10
                                G 6G16G12G19G21G13G30G 8G28G22G32G11
                                G23G17G14G26G20G15
  21632001.968   113677002.091       -1226.278          46.000  
  21631992.792   113676901.040       -1226.226          49.000  
  21632057.933   113677167.238       -1226.158          49.000  
  21632072.349   113677109.241       -1226.113          49.000  
  21631991.650   113676934.362       -1226.139          49.000  
  21839195.807   114765739.723       -1226.133          37.000  
  21491635.484   112939292.167       -1226.234          40.000  
  21791139.490   114513227.714       -1226.169          39.000  
  21632097.064   113677420.874       -1226.180          49.000  
  21556397.405   113279646.320       -1226.235          38.000  
  21540577.845   113196493.260       -1226.122          34.000  
  21776481.033   114436149.348       -1226.165          38.000  
  21631997.157   113677156.175       -1226.156          49.000  
  21562276.580   113310518.709       -1226.172          38.000  
  21768543.296                       -1226.351          38.000  
  21713183.741   114103574.225       -1226.241          39.000  
  21543503.857   113211919.300       -1226.233          41.000  
  21699702.405   114032687.351       -1226.187          34.000  
  21667759.510   113864799.260       -1226.173          39.000  
  21631929.873   113676945.514       -1226.194          49.000  
  21658382.591   113815601.665       -1226.150          39.000  
  21669813.314   113875678.266       -1226.221          37.000  
  21526507.292   113122533.332       -1226.146          38.000  
  21799340.706   114556322.123       -1226.245          39.000  
  21626727.833   113649219.911       -1226.098          38.000  
  21718160.785   114129725.531       -1226.255          38.000  
  21785858.573   114485476.784       -1226.170          41.000  
  21729009.959   114186706.290       -1226.163          38.000  
  21578673.611   113396726.732       -1226.201          38.000  
  21542332.910   113205732.945       -1226.201          39.000  
 25  8 12  8 49 59.6000000  0 30G 5G 1G 2G 3G 4G27G18G 9G 7G24G25G10
                                G 6G16G12G19G21G13G30G 8G28G22G32G11
                                G23G17G14G26G20G15
  21632048.577   113677247.316       -1225.985          46.000  
  21632039.454   113677146.264       -1226.059          49.000  
  21632104.612   113677412.466       -1226.052          49.000  
  21632119.050   113677354.470       -1226.065          49.000  
  21632038.272   113677179.595       -1226.094          49.000  
  21839242.525   114765984.953       -1226.077          37.000  
  21491682.147   112939537.391       -1226.017          40.000  
  21791186.082   114513472.941       -1226.084          39.000  
  21632144.437   113677666.099       -1226.018          49.000  
  21556444.054   113279891.546       -1226.050          38.000  
  21540624.556   113196738.490       -1226.083          34.000  
  21776527.718   114436394.576       -1226.043          38.000  
  21632043.792   113677401.404       -1226.018          49.000  
  21562323.262   113310763.940       -1226.089          38.000  
  21768591.996                       -1226.351          38.000  
  21713230.431   114103819.451       -1226.043          39.000  
  21543550.530   113212164.527       -1226.110          42.000  
  21699748.996   114032932.575       -1226.092          34.000  
  21667806.171   113865044.490       -1226.154          39.000  
  21631975.488   113677190.739       -1226.018          49.000  
  21658429.231   113815846.898       -1226.080          39.000  
  21669860.014   113875923.490       -1226.059          37.000  
  21526553.975   113122778.565       -1226.129          38.000  
  21799387.342   114556567.346       -1226.037          39.000  
  21626774.493   113649465.146       -1226.063          38.000  
  21718207.416   114129970.755       -1226.099          38.000  
  21785905.220   114485722.015       -1226.111          41.000  
  21729056.678   114186951.519       -1226.161          38.000  
  21578720.303   113396971.963       -1226.173          38.000  
  21542379.602   113205978.173       -1226.058          39.000  
 25  8 12  8 49 59.8000000  0 30G 5G 1G 2G 3G 4G27G18G 9G 7G24G25G10
                                G 6G16G12G19G21G13G30G 8G28G22G32G11
                                G23G17G14G26G20G15
  21632095.276   113677492.567       -1226.397          46.000  
  21632086.066   113677391.516       -1226.426          49.000  
  21632151.263   113677657.715       -1226.301          49.000  
  21632165.720   113677599.722       -1226.292          49.000  
  21632084.872   113677424.844       -1226.332          49.000  
  21839289.207   114766230.201       -1226.244          37.000  
  21491728.801   112939782.642       -1226.333          40.000  
  21791232.759   114513718.192       -1226.380          39.000  
  21632190.951   113677911.352       -1226.417          49.000  
  21556490.686   113280136.797       -1226.469          38.000  
  21540671.202   113196983.738       -1226.379          34.000  
  21776574.388   114436639.825       -1226.260          38.000  
  21632090.485   113677646.655       -1226.339          49.000  
  21562369.904   113311009.191       -1226.499          38.000  
  21768636.403                       -1226.351          38.000  
  21713277.081   114104064.702       -1226.489          39.000  
  21543597.200   113212409.779       -1226.324          42.000  
  21699795.636   114033177.832       -1226.509          34.000  
  21667852.901   113865289.737       -1226.398          39.000  
  21632021.078   113677435.991       -1226.357          49.000  
  21658475.915   113816092.145       -1226.345          39.000  
  21669906.637   113876168.743       -1226.324          37.000  
  21526600.611   113123023.812       -1226.333          38.000  
  21799434.031   114556812.601       -1226.509          39.000  
  21626821.155   113649710.394       -1226.252          38.000  
  21718254.088   114130216.007       -1226.303          38.000  
  21785951.942   114485967.266       -1226.284          40.000  
  21729103.315   114187196.763       -1226.473          38.000  
  21578766.972   113397217.212       -1226.365          38.000  
  21542426.313   113206223.424       -1226.470          38.000  
 25  8 12  8 50  0.0000000  0 30G 5G 1G 2G 3G 4G27G18G 9G 7G24G25G10
                                G 6G16G12G19G21G13G30G 8G28G22G32G11
                                G23G17G14G26G20G15
  21632141.904   113677737.811       -1226.210          46.000  
  21632132.706   113677636.768       -1226.251          49.000  
  21632197.943   113677902.970       -1226.297          49.000  
  21632212.394   113677844.978       -1226.277          49.000  
  21632131.498   113677670.093       -1226.240          49.000  
  21839335.924   114766475.478       -1226.397          37.000  
  21491775.507   112940027.875       -1226.251          39.000  
  21791279.365   114513963.410       -1226.274          39.000  
  21632237.224   113678156.604       -1226.265          48.000  
  21556537.331   113280381.995       -1226.055          38.000  
  21540717.866   113197228.964       -1226.251          34.000  
  21776621.040   114436885.087       -1226.185          38.000  
  21632137.121   113677891.906       -1226.240          49.000  
  21562416.618   113311254.462       -1226.246          38.000  
  21768679.527                       -1226.351          38.000  
  21713323.759   114104309.949       -1226.253          37.000  
  21543643.867   113212655.023       -1226.288          41.000  
  21699842.316   114033423.049       -1226.210          34.000  
  21667899.547   113865534.980       -1226.253          40.000  
  21632067.156   113677681.241       -1226.293          49.000  
  21658522.598   113816337.392       -1226.221          39.000  
  21669953.312   113876414.009       -1226.307          37.000  
  21526647.299   113123269.070       -1226.271          38.000  
  21799480.644   114557057.804       -1226.092          39.000  
  21626867.839   113649955.658       -1226.311          38.000  
  21718300.737   114130461.271       -1226.242          38.000  
  21785998.587   114486212.518       -1226.266          40.000  
  21729150.006   114187441.966       -1226.066          38.000  
  21578813.618   113397462.445       -1226.300          38.000  
  21542472.952   113206468.678       -1226.317          38.000  
 25  8 12  8 50  0.2000000  0 30G 5G 1G 2G 3G 4G27G18G 9G 7G24G25G10
                                G 6G16G12G19G21G13G30G 8G28G22G32G11
                                G23G17G14G26G20G15
  21632188.601   113677983.063       -1226.199          46.000  
  21632179.302   113677882.018       -1226.296          49.000  
  21632244.606   113678148.216       -1226.222          49.000  
  21632259.078   113678090.224       -1226.263          49.000  
  21632178.101   113677915.337       -1226.190          49.000  
  21839382.620   114766720.719       -1226.367          37.000  
  21491822.143   112940273.127       -1226.254          39.000  
  21791326.054   114514208.661       -1226.116          39.000  
  21632282.929   113678401.854       -1226.247          48.000  
  21556584.014   113280627.255       -1226.080          38.000  
  21540764.503   113197474.217       -1226.133          34.000  
  21776667.659   114437130.330       -1226.156          38.000  
  21632183.774   113678137.150       -1226.184          49.000  
  21562463.298   113311499.706       -1226.243          38.000  
  21768724.687                       -1226.351          38.000  
  21713370.405   114104555.193       -1226.095          37.000  
  21543690.516   113212900.268       -1226.165          41.000  
  21699889.011   114033668.301       -1226.241          33.000  
  21667946.240   113865780.228       -1226.142          40.000  
  21632113.450   113677926.488       -1226.235          49.000  
  21658569.268   113816582.638       -1226.211          39.000  
  21669999.950   113876659.255       -1226.295          36.000  
  21526693.995   113123514.314       -1226.224          38.000  
  21799527.314   114557303.071       -1226.236          39.000  
  21626914.547   113650200.898       -1226.202          38.000  
  21718347.422   114130706.521       -1226.301          38.000  
  21786045.261   114486457.761       -1226.168          40.000  
  21729196.664   114187687.223       -1226.062          38.000  
  21578860.258   113397707.694       -1226.204          39.000  
  21542519.687   113206713.920       -1226.176          38.000  
 25  8 12  8 50  0.4000000  0 30G 5G 1G 2G 3G 4G27G18G 9G 7G24G25G10
                                G 6G16G12G19G21G13G30G 8G28G22G32G11
                                G23G17G14G26G20G15
  21632235.311   113678228.320       -1226.330          46.000  
  21632225.896   113678127.269       -1226.286          49.000  
  21632291.301   113678393.471       -1226.359          49.000  
  21632305.763   113678335.478       -1226.347          49.000  
  21632224.734   113678160.591       -1226.305          49.000  
  21839429.301   114766965.971       -1226.359          37.000  
  21491868.813   112940518.377       -1226.301          39.000  
  21791372.633   114514453.917       -1226.332          39.000  
  21632328.701   113678647.108       -1226.318          48.000  
  21556630.660   113280872.515       -1226.322          38.000  
  21540811.175   113197719.478       -1226.335          35.000  
  21776714.338   114437375.590       -1226.246          38.000  
  21632230.465   113678382.405       -1226.333          49.000  
  21562509.968   113311744.964       -1226.372          37.000  
  21768772.248                       -1226.351          38.000  
  21713417.108   114104800.456       -1226.334          37.000  
  21543737.200   113213145.525       -1226.318          41.000  
  21699935.761   114033913.553       -1226.310          33.000  
  21667992.882   113866025.486       -1226.326          40.000  
  21632160.043   113678171.740       -1226.280          49.000  
  21658615.918   113816827.895       -1226.338          39.000  
  21670046.665   113876904.503       -1226.269          36.000  
  21526740.673   113123759.564       -1226.300          38.000  
  21799573.944   114557548.320       -1226.390          39.000  
  21626961.244   113650446.149       -1226.275          37.000  
  21718394.109   114130951.771       -1226.339          38.000  
  21786091.928   114486703.016       -1226.313          40.000  
  21729243.415   114187932.483       -1226.381          38.000  
  21578906.931   113397952.949       -1226.361          39.000  
  21542566.356   113206959.174       -1226.322          38.000  
 25  8 12  8 50  0.6000000  0 30G 5G 1G 2G 3G 4G27G18G 9G 7G24G25G10
                                G 6G16G12G19G21G13G30G 8G28G22G32G11
                                G23G17G14G26G20G15
  21632282.048   113678473.572       -1226.303          46.000  
  21632272.520   113678372.522       -1226.276          49.000  
  21632337.975   113678638.723       -1226.311          49.000  
  21632352.440   113678580.732       -1226.310          49.000  
  21632271.370   113678405.846       -1226.269          49.000  
  21839476.016   114767211.224       -1226.336          37.000  
  21491915.470   112940763.638       -1226.409          39.000  
  21791419.331   114514699.170       -1226.303          39.000  
  21632374.655   113678892.359       -1226.311          48.000  
  21556677.295   113281117.756       -1226.117          38.000  
  21540857.794   113197964.734       -1226.346          35.000  
  21776760.999   114437620.838       -1226.171          38.000  
  21632277.146   113678627.658       -1226.283          49.000  
  21562556.642   113311990.216       -1226.234          37.000  
  21768820.007                       -1226.351          38.000  
  21713463.815   114105045.700       -1226.312          37.000  
  21543783.862   113213390.779       -1226.296          41.000  
  21699982.458   114034158.808       -1226.243          33.000  
  21668039.592   113866270.739       -1226.343          40.000  
  21632206.648   113678416.995       -1226.336          49.000  
  21658662.626   113817073.148       -1226.322          38.000  
  21670093.330   113877149.763       -1226.401          36.000  
  21526787.347   113124004.822       -1226.362          38.000  
  21799620.622   114557793.576       -1226.347          39.000  
  21627007.924   113650691.411       -1226.326          37.000  
  21718440.785   114131197.029       -1226.382          37.000  
  21786138.561   114486948.274       -1226.359          40.000  
  21729290.042   114188177.728       -1226.172          38.000  
  21578953.569   113398198.204       -1226.370          39.000  
  21542613.033   113207204.432       -1226.361          38.000  
 25  8 12  8 50  0.8000000  0 30G 5G 1G 2G 3G 4G27G18G 9G 7G24G25G10
                                G 6G16G12G19G21G13G30G 8G28G22G32G11
                                G23G17G14G26G20G15
  21632328.653   113678718.835       -1226.469          46.000  
  21632319.181   113678617.784       -1226.402          49.000  
  21632384.636   113678883.986       -1226.495          49.000  
  21632399.121   113678825.987       -1226.331          49.000  
  21632318.010   113678651.108       -1226.449          49.000  
  21839522.653   114767456.464       -1226.071          37.000  
  21491962.152   112941008.896       -1226.503          39.000  
  21791465.931   114514944.431       -1226.436          39.000  
  21632420.880   113679137.617       -1226.438          48.000  
  21556723.938   113281363.043       -1226.849          38.000  
  21540904.455   113198209.982       -1226.317          35.000  
  21776807.676   114437866.081       -1226.041          38.000  
  21632323.816   113678872.923       -1226.501          49.000  
  21562603.363   113312235.467       -1226.272          37.000  
  21768868.164                       -1226.351          38.000  
  21713510.485   114105290.965       -1226.480          37.000  
  21543830.556   113213636.044       -1226.525          41.000  
  21700029.092   114034404.077       -1226.534          33.000  
  21668086.259   113866515.991       -1226.252          40.000  
  21632253.593   113678662.258       -1226.488          49.000  
  21658709.269   113817318.418       -1226.588          38.000  
  21670140.051   113877395.003       -1226.074          36.000  
  21526833.995   113124250.076       -1226.379          38.000  
  21799667.269   114558038.867       -1227.080          39.000  
  21627054.622   113650936.671       -1226.456          37.000  
  21718487.482   114131442.275       -1226.195          37.000  
  21786185.211   114487193.525       -1226.298          40.000  
  21729336.703   114188423.022       -1227.067          38.000  
  21579000.240   113398443.474       -1226.632          39.000  
  21542659.710   113207449.687       -1226.434          38.000  
 25  8 12  8 50  1.0000000  0 30G 5G 1G 2G 3G 4G27G18G 9G 7G24G25G10
                                G 6G16G12G19G21G13G30G 8G28G22G32G11
                                G23G17G14G26G20G15
  21632375.348   113678964.080       -1226.045          46.000  
  21632365.832   113678863.024       -1226.126          49.000  
  21632431.284   113679129.226       -1226.092          49.000  
  21632445.788   113679071.230       -1226.143          49.000  
  21632364.600   113678896.349       -1226.118          49.000  
  21839569.355   114767701.707       -1226.305          37.000  
  21492008.803   112941254.139       -1225.979          39.000  
  21791512.642   114515189.677       -1226.102          39.000  
  21632467.177   113679382.859       -1226.045          48.000  
  21556770.635   113281608.277       -1226.028          38.000  
  21540951.136   113198455.218       -1226.180          35.000  
  21776854.361   114438111.323       -1226.172          37.000  
  21632370.444   113679118.163       -1226.111          49.000  
  21562650.036   113312480.706       -1226.302          38.000  
  21768916.719                       -1226.351          38.000  
  21713557.163   114105536.202       -1226.034          37.000  
  21543877.243   113213881.288       -1225.972          41.000  
  21700075.658   114034649.326       -1226.044          33.000  
  21668132.937   113866761.237       -1226.104          40.000  
  21632301.402   113678907.502       -1226.072          48.000  
  21658755.937   113817563.661       -1226.101          38.000  
  21670186.692   113877640.242       -1226.332          36.000  
  21526880.690   113124495.320       -1226.091          38.000  
  21799713.963   114558284.109       -1225.971          39.000  
  21627101.261   113651181.922       -1225.997          37.000  
  21718534.169   114131687.521       -1226.214          37.000  
  21786231.937   114487438.770       -1226.101          40.000  
  21729383.370   114188668.255       -1225.915          38.000  
  21579046.908   113398688.719       -1225.936          38.000  
  21542706.392   113207694.932       -1225.979          38.000  
 25  8 12  8 50  1.2000000  0 30G 5G 1G 2G 3G 4G27G18G 9G 7G24G25G10
                                G 6G16G12G19G21G13G30G 8G28G22G32G11
                                G23G17G14G26G20G15
  21632422.005   113679209.335       -1226.223          46.000  
  21632412.477   113679108.274       -1226.179          49.000  
  21632477.949   113679374.477       -1226.167          49.000  
  21632492.474   113679316.478       -1226.161          49.000  
  21632411.232   113679141.601       -1226.179          49.000  
  21839616.014   114767946.954       -1226.232          37.000  
  21492055.524   112941499.398       -1226.213          39.000  
  21791559.242   114515434.927       -1226.213          39.000  
  21632513.348   113679628.115       -1226.263          48.000  
  21556817.328   113281853.536       -1226.191          38.000  
  21540997.801   113198700.472       -1226.191          35.000  
  21776901.074   114438356.576       -1226.297          37.000  
  21632417.123   113679363.413       -1226.168          49.000  
  21562696.735   113312725.952       -1226.271          38.000  
  21768962.336                       -1226.351          38.000  
  21713603.827   114105781.456       -1226.150          37.000  
  21543923.967   113214126.549       -1226.284          41.000  
  21700122.266   114034894.593       -1226.389          32.000  
  21668179.595   113867006.489       -1226.251          40.000  
  21632349.038   113679152.756       -1226.209          48.000  
  21658802.576   113817808.915       -1226.201          38.000  
  21670233.385   113877885.484       -1226.141          36.000  
  21526927.375   113124740.576       -1226.240          38.000  
  21799760.662   114558529.367       -1226.195          39.000  
  21627147.906   113651427.180       -1226.280          38.000  
  21718580.850   114131932.763       -1226.181          37.000  
  21786278.597   114487684.021       -1226.230          40.000  
  21729430.060   114188913.517       -1226.186          38.000  
  21579093.573   113398933.980       -1226.295          38.000  
  21542753.067   113207940.193       -1226.279          38.000  
 25  8 12  8 50  1.4000000  0 30G 5G 1G 2G 3G 4G27G18G 9G 7G24G25G10
                                G 6G16G12G19G21G13G30G 8G28G22G32G11
                                G23G17G14G26G20G15
  21632468.711   113679454.577       -1226.354          46.000  
  21632459.102   113679353.517       -1226.275          49.000  
  21632524.613   113679619.718       -1226.210          49.000  
  21632539.150   113679561.722       -1226.242          49.000  
  21632457.865   113679386.843       -1226.271          49.000  
  21839662.735   114768192.196       -1226.361          37.000  
  21492102.227   112941744.638       -1226.329          39.000  
  21791605.915   114515680.170       -1226.274          39.000  
  21632559.720   113679873.353       -1226.282          48.000  
  21556863.981   113282098.780       -1226.329          38.000  
  21541044.472   113198945.710       -1226.273          35.000  
  21776947.778   114438601.810       -1226.217          37.000  
  21632463.799   113679608.655       -1226.235          49.000  
  21562743.418   113312971.191       -1226.245          38.000  
  21769009.343                       -1226.351          38.000  
  21713650.491   114106026.701       -1226.361          37.000  
  21543970.641   113214371.789       -1226.390          42.000  
  21700168.816   114035139.831       -1226.584          32.000  
  21668226.293   113867251.727       -1226.242          40.000  
  21632396.529   113679397.995       -1226.310          48.000  
  21658849.251   113818054.153       -1226.302          38.000  
  21670280.048   113878130.728       -1226.257          36.000  
  21526974.091   113124985.814       -1226.300          38.000  
  21799807.355   114558774.612       -1226.374          39.000  
  21627194.596   113651672.419       -1226.349          38.000  
  21718627.516   114132178.008       -1226.281          37.000  
  21786325.294   114487929.260       -1226.277          40.000  
  21729476.664   114189158.760       -1226.322          38.000  
  21579140.239   113399179.216       -1226.290          38.000  
  21542799.765   113208185.428       -1226.265          38.000  
 25  8 12  8 50  1.6000000  0 30G 5G 1G 2G 3G 4G27G18G 9G 7G24G25G10
                                G 6G16G12G19G21G13G30G 8G28G22G32G11
                                G23G17G14G26G20G15
  21632515.349   113679699.799       -1226.282          46.000  
  21632505.725   113679598.743       -1226.305          49.000  
  21632571.270   113679864.952       -1226.369          49.000  
  21632585.822   113679806.950       -1226.325          49.000  
  21632504.501   113679632.071       -1226.299          49.000  
  21839709.377   114768437.415       -1226.256          37.000  
  21492148.929   112941989.859       -1226.265          40.000  
  21791652.539   114515925.394       -1226.280          40.000  
  21632606.249   113680118.579       -1226.272          48.000  
  21556910.606   113282344.008       -1226.324          38.000  
  21541091.100   113199190.936       -1226.222          36.000  
  21776994.430   114438847.039       -1226.231          37.000  
  21632510.471   113679853.886       -1226.345          49.000  
  21562790.130   113313216.420       -1226.252          38.000  
  21769058.462                       -1226.351          38.000  
  21713697.176   114106271.925       -1226.217          37.000  
  21544017.315   113214617.009       -1226.272          42.000  
  21700215.408   114035385.043       -1226.232          32.000  
  21668272.931   113867496.953       -1226.212          40.000  
  21632443.520   113679643.218       -1226.214          48.000  
  21658895.913   113818299.372       -1226.238          38.000  
  21670326.742   113878375.951       -1226.184          36.000  
  21527020.744   113125231.034       -1226.233          38.000  
  21799853.995   114559019.831       -1226.293          39.000  
  21627241.237   113651917.639       -1226.263          38.000  
  21718674.202   114132423.229       -1226.263          37.000  
  21786371.979   114488174.486       -1226.267          40.000  
  21729523.336   114189403.993       -1226.379          38.000  
  21579186.928   113399424.437       -1226.208          38.000  
  21542846.433   113208430.652       -1226.237          38.000  
 25  8 12  8 50  1.8000000  0 30G 5G 1G 2G 3G 4G27G18G 9G 7G24G25G10
                                G 6G16G12G19G21G13G30G 8G28G22G32G11
                                G23G17G14G26G20G15
  21632562.025   113679945.026       -1226.158          46.000  
  21632552.354   113679843.978       -1226.137          49.000  
  21632617.933   113680110.181       -1226.159          49.000  
  21632632.500   113680052.187       -1226.143          49.000  
  21632551.134   113679877.317       -1226.198          49.000  
  21839756.063   114768682.668       -1226.107          37.000  
  21492195.598   112942235.136       -1226.230          40.000  
  21791699.225   114516170.636       -1226.175          39.000  
  21632653.447   113680363.811       -1226.173          48.000  
  21556957.238   113282589.236       -1226.331          38.000  
  21541137.805   113199436.191       -1226.205          36.000  
  21777041.146   114439092.311       -1226.288          37.000  
  21632557.128   113680099.118       -1226.179          49.000  
  21562836.761   113313461.688       -1226.425          38.000  
  21769103.729                       -1226.351          38.000  
  21713743.832   114106517.168       -1226.245          37.000  
  21544063.992   113214862.248       -1226.135          41.000  
  21700262.031   114035630.276       -1226.222          32.000  
  21668319.619   113867742.215       -1226.195          40.000  
  21632490.409   113679888.466       -1226.198          48.000  
  21658942.583   113818544.628       -1226.202          38.000  
  21670373.412   113878621.206       -1226.187          36.000  
  21527067.419   113125476.298       -1226.228          38.000  
  21799900.652   114559265.063       -1226.189          39.000  
  21627287.897   113652162.866       -1226.013          38.000  
  21718720.863   114132668.452       -1226.117          37.000  
  21786418.648   114488419.725       -1226.104          40.000  
  21729570.005   114189649.228       -1226.293          38.000  
  21579233.602   113399669.687       -1226.183          38.000  
  21542893.120   113208675.863       -1226.111          38.000  
 25  8 12  8 50  2.0000000  0 30G 5G 1G 2G 3G 4G27G18G 9G 7G24G25G10
                                G 6G16G12G19G21G13G30G 8G28G22G32G11
                                G23G17G14G26G20G15
  21632608.652   113680190.279       -1226.337          46.000  
  21632598.974   113680089.230       -1226.331          49.000  
  21632664.595   113680355.432       -1226.326          49.000  
  21632679.178   113680297.435       -1226.274          49.000  
  21632597.776   113680122.564       -1226.333          49.000  
  21839802.719   114768927.915       -1226.432          37.000  
  21492242.298   112942480.379       -1226.470          40.000  
  21791745.863   114516415.885       -1226.372          39.000  
  21632700.994   113680609.064       -1226.350          48.000  
  21557003.909   113282834.486       -1226.316          38.000  
  21541184.515   113199681.431       -1226.263          36.000  
  21777087.777   114439337.553       -1226.362          37.000  
  21632603.777   113680344.368       -1226.292          49.000  
  21562883.435   113313706.932       -1226.505          38.000  
  21769144.033                       -1226.351          38.000  
  21713790.533   114106762.423       -1226.401          38.000  
  21544110.683   113215107.497       -1226.361          41.000  
  21700308.702   114035875.522       -1226.325          33.000  
  21668366.264   113867987.461       -1226.431          39.000  
  21632537.257   113680133.714       -1226.398          48.000  
  21658989.261   113818789.873       -1226.371          38.000  
  21670420.133   113878866.452       -1226.299          36.000  
  21527114.064   113125721.544       -1226.379          38.000  
  21799947.325   114559510.315       -1226.316          39.000  
  21627334.558   113652408.117       -1226.260          38.000  
  21718767.545   114132913.703       -1226.279          38.000  
  21786465.278   114488664.977       -1226.320          40.000  
  21729616.714   114189894.478       -1226.351          38.000  
  21579280.275   113399914.932       -1226.373          38.000  
  21542939.799   113208921.118       -1226.249          38.000  
 25  8 12  8 50  2.2000000  0 30G 5G 1G 2G 3G 4G27G18G 9G 7G24G25G10
                                G 6G16G12G19G21G13G30G 8G28G22G32G11
                                G23G17G14G26G20G15
  21632655.351   113680435.514       -1226.232          46.000  
  21632645.544   113680334.469       -1226.250          49.000  
  21632711.261   113680600.669       -1226.191          49.000  
  21632725.856   113680542.676       -1226.176          49.000  
  21632644.415   113680367.803       -1226.198          49.000  
  21839849.419   114769173.150       -1226.198          38.000  
  21492288.937   112942725.618       -1226.290          40.000  
  21791792.515   114516661.124       -1226.289          39.000  
  21632748.540   113680854.303       -1226.229          49.000  
  21557050.563   113283079.721       -1226.205          38.000  
  21541231.152   113199926.677       -1226.146          36.000  
  21777134.460   114439582.793       -1226.255          37.000  
  21632650.442   113680589.607       -1226.211          49.000  
  21562930.074   113313952.166       -1226.292          38.000  
  21769187.519                       -1226.351          38.000  
  21713837.197   114107007.660       -1226.263          38.000  
  21544157.390   113215352.736       -1226.250          41.000  
  21700355.362   114036120.758       -1226.117          33.000  
  21668412.953   113868232.697       -1226.237          39.000  
  21632584.251   113680378.952       -1226.250          48.000  
  21659035.918   113819035.112       -1226.304          38.000  
  21670466.789   113879111.692       -1226.158          37.000  
  21527160.732   113125966.781       -1226.224          38.000  
  21799994.020   114559755.557       -1226.275          39.000  
  21627381.228   113652653.356       -1226.184          38.000  
  21718814.209   114133158.946       -1226.336          38.000  
  21786511.936   114488910.215       -1226.178          40.000  
  21729663.343   114190139.715       -1226.166          38.000  
  21579326.953   113400160.171       -1226.255          38.000  
  21542986.470   113209166.359       -1226.293          38.000  
 25  8 12  8 50  2.4000000  0 30G 5G 1G 2G 3G 4G27G18G 9G 7G24G25G10
                                G 6G16G12G19G21G13G30G 8G28G22G32G11
                                G23G17G14G26G20G15
  21632701.964   113680680.738       -1226.047          46.000  
  21632692.131   113680579.695       -1226.032          49.000  
  21632757.921   113680845.896       -1226.073          49.000  
  21632772.558   113680787.902       -1226.047          49.000  
  21632691.009   113680613.029       -1226.046          49.000  
  21839896.033   114769418.384       -1226.069          38.000  
  21492335.603   112942970.841       -1226.093          40.000  
  21791839.120   114516906.351       -1226.031          39.000  
  21632796.014   113681099.530       -1226.065          49.000  
  21557097.193   113283324.942       -1226.018          38.000  
  21541277.798   113200171.902       -1226.063          36.000  
  21777181.098   114439828.020       -1226.172          37.000  
  21632697.087   113680834.832       -1226.033          49.000  
  21562976.717   113314197.385       -1226.014          38.000  
  21769234.345                       -1226.351          38.000  
  21713883.893   114107252.883       -1226.113          38.000  
  21544204.106   113215597.963       -1226.038          41.000  
  21700402.022   114036365.981       -1225.884          33.000  
  21668459.636   113868477.921       -1226.027          39.000  
  21632631.270   113680624.176       -1226.026          48.000  
  21659082.598   113819280.334       -1225.986          38.000  
  21670513.468   113879356.925       -1226.094          37.000  
  21527207.406   113126212.005       -1226.049          38.000  
  21800040.665   114560000.777       -1225.939          39.000  
  21627427.914   113652898.584       -1226.084          38.000  
  21718860.875   114133404.171       -1226.006          38.000  
  21786558.600   114489155.441       -1226.040          40.000  
  21729710.020   114190384.937       -1226.034          38.000  
  21579373.624   113400405.395       -1226.038          38.000  
  21543033.101   113209411.582       -1225.996          38.000  
 25  8 12  8 50  2.6000000  0 30G 5G 1G 2G 3G 4G27G18G 9G 7G24G25G10
                                G 6G16G12G19G21G13G30G 8G28G22G32G11
                                G23G17G14G26G20G15
  21632748.655   113680925.972       -1226.388          46.000  
  21632738.751   113680824.926       -1226.337          49.000  
  21632804.595   113681091.127       -1226.335          49.000  
  21632819.237   113681033.130       -1226.286          49.000  
  21632737.657   113680858.254       -1226.239          49.000  
  21839942.722   114769663.607       -1226.317          38.000  
  21492382.290   112943216.050       -1225.906          40.000  
  21791885.790   114517151.581       -1226.334          39.000  
  21632843.396   113681344.759       -1226.331          49.000  
  21557143.839   113283570.193       -1226.592          38.000  
  21541324.449   113200417.125       -1226.185          36.000  
  21777227.753   114440073.228       -1225.873          37.000  
  21632743.773   113681080.065       -1226.342          49.000  
  21563023.411   113314442.614       -1226.221          38.000  
  21769281.253                       -1226.351          38.000  
  21713930.537   114107498.110       -1226.174          38.000  
  21544250.754   113215843.190       -1226.294          41.000  
  21700448.669   114036611.236       -1226.698          33.000  
  21668506.340   113868723.139       -1226.009          39.000  
  21632678.141   113680869.402       -1226.229          48.000  
  21659129.280   113819525.559       -1226.177          38.000  
  21670560.124   113879602.150       -1226.308          37.000  
  21527254.084   113126457.222       -1225.962          38.000  
  21800087.297   114560246.014       -1226.401          38.000  
  21627474.593   113653143.818       -1226.515          38.000  
  21718907.525   114133649.411       -1226.592          38.000  
  21786605.222   114489400.672       -1226.341          40.000  
  21729756.703   114190630.181       -1226.441          38.000  
  21579420.321   113400650.617       -1226.149          38.000  
  21543079.775   113209656.823       -1226.470          38.000  
 25  8 12  8 50  2.8000000  0 30G 5G 1G 2G 3G 4G27G18G 9G 7G24G25G10
                                G 6G16G12G19G21G13G30G 8G28G22G32G11
                                G23G17G14G26G20G15
  21632795.331   113681171.206       -1226.082          46.000  
  21632785.388   113681070.156       -1226.128          49.000  
  21632851.255   113681336.358       -1226.162          49.000  
  21632865.921   113681278.360       -1226.156          49.000  
  21632784.267   113681103.486       -1226.129          49.000  
  21839989.391   114769908.831       -1226.088          38.000  
  21492428.956   112943461.279       -1226.285          40.000  
  21791932.428   114517396.811       -1226.070          39.000  
  21632890.476   113681589.992       -1226.083          49.000  
  21557190.471   113283815.428       -1226.067          38.000  
  21541371.056   113200662.356       -1226.140          36.000  
  21777274.442   114440318.467       -1226.344          37.000  
  21632790.404   113681325.295       -1226.136          49.000  
  21563070.100   113314687.848       -1226.173          38.000  
  21769329.692                       -1226.351          38.000  
  21713977.216   114107743.346       -1226.253          38.000  
  21544297.424   113216088.422       -1226.071          41.000  
  21700495.195   114036856.460       -1225.882          33.000  
  21668553.001   113868968.371       -1226.179          39.000  
  21632724.049   113681114.632       -1226.109          48.000  
  21659175.918   113819770.786       -1226.130          38.000  
  21670606.792   113879847.379       -1226.057          36.000  
  21527300.745   113126702.451       -1226.267          38.000  
  21800133.942   114560491.243       -1226.078          38.000  
  21627521.261   113653389.049       -1225.927          38.000  
  21718954.240   114133894.637       -1225.975          38.000  
  21786651.909   114489645.899       -1226.034          40.000  
  21729803.398   114190875.417       -1226.113          38.000  
  21579466.965   113400895.841       -1226.144          38.000  
  21543126.416   113209902.052       -1225.933          38.000  
 25  8 12  8 50  3.0000000  0 30G 5G 1G 2G 3G 4G27G18G 9G 7G24G25G10
                                G 6G16G12G19G21G13G30G 8G28G22G32G11
                                G23G17G14G26G20G15
  21632841.999   113681416.421       -1226.050          47.000  
  21632832.001   113681315.368       -1226.058          49.000  
  21632897.925   113681581.572       -1226.144          49.000  
  21632912.603   113681523.574       -1226.105          49.000  
  21632830.874   113681348.699       -1226.086          49.000  
  21840036.124   114770154.051       -1226.183          37.000  
  21492475.659   112943706.487       -1226.108          40.000  
  21791979.079   114517642.026       -1226.064          39.000  
  21632937.431   113681835.207       -1226.064          49.000  
  21557237.115   113284060.636       -1225.970          38.000  
  21541417.748   113200907.565       -1226.034          36.000  
  21777321.101   114440563.670       -1226.059          37.000  
  21632837.062   113681570.509       -1226.098          49.000  
  21563116.774   113314933.051       -1225.988          38.000  
  21769380.464                       -1226.351          38.000  
  21714023.857   114107988.545       -1225.917          38.000  
  21544344.023   113216333.638       -1226.097          41.000  
  21700541.754   114037101.678       -1225.898          32.000  
  21668599.667   113869213.581       -1226.038          39.000  
  21632770.147   113681359.847       -1226.104          49.000  
  21659222.528   113820016.004       -1226.095          38.000  
  21670653.420   113880092.597       -1226.106          36.000  
  21527347.389   113126947.661       -1226.100          38.000  
  21800180.667   114560736.460       -1226.075          38.000  
  21627567.924   113653634.275       -1226.153          38.000  
  21719000.904   114134139.860       -1226.121          38.000  
  21786698.597   114489891.120       -1226.089          40.000  
  21729850.035   114191120.615       -1225.845          38.000  
  21579513.628   113401141.064       -1226.189          38.000  
  21543173.128   113210147.269       -1226.003          38.000  
 25  8 12  8 50  3.2000000  0 30G 5G 1G 2G 3G 4G27G18G 9G 7G24G25G10
                                G 6G16G12G19G21G13G30G 8G28G22G32G11
                                G23G17G14G26G20G15
  21632888.666   113681661.648       -1226.058          47.000  
  21632878.616   113681560.593       -1226.067          49.000  
  21632944.580   113681826.793       -1226.086          49.000  
  21632959.277   113681768.796       -1226.075          49.000  
  21632877.491   113681593.921       -1226.049          49.000  
  21840082.775   114770399.264       -1225.997          37.000  
  21492522.322   112943951.713       -1226.080          40.000  
  21792025.734   114517887.252       -1226.078          40.000  
  21632984.261   113682080.430       -1226.060          49.000  
  21557283.767   113284305.867       -1226.123          38.000  
  21541464.424   113201152.796       -1226.110          36.000  
  21777367.809   114440808.892       -1225.979          37.000  
  21632883.707   113681815.731       -1226.055          49.000  
  21563163.470   113315178.280       -1226.019          38.000  
  21769424.684                       -1226.351          38.000  
  21714070.569   114108233.779       -1226.069          38.000  
  21544390.714   113216578.859       -1226.035          42.000  
  21700588.400   114037346.909       -1226.082          32.000  
  21668646.345   113869458.807       -1226.072          39.000  
  21632816.415   113681605.069       -1226.054          49.000  
  21659269.202   113820261.224       -1226.114          37.000  
  21670700.091   113880337.820       -1226.020          36.000  
  21527394.078   113127192.884       -1226.061          38.000  
  21800227.364   114560981.682       -1226.062          38.000  
  21627614.559   113653879.491       -1226.055          38.000  
  21719047.591   114134385.079       -1226.073          38.000  
  21786745.258   114490136.341       -1226.088          40.000  
  21729896.741   114191365.854       -1226.057          38.000  
  21579560.321   113401386.281       -1226.102          38.000  
  21543219.811   113210392.494       -1226.018          38.000  
 25  8 12  8 50  3.4000000  0 30G 5G 1G 2G 3G 4G27G18G 9G 7G24G25G10
                                G 6G16G12G19G21G13G30G 8G28G22G32G11
                                G23G17G14G26G20G15
  21632935.343   113681906.862       -1225.937          47.000  
  21632925.274   113681805.807       -1225.871          49.000  
  21632991.245   113682072.006       -1225.902          49.000  
  21633005.951   113682014.010       -1225.893          49.000  
  21632924.140   113681839.137       -1225.887          49.000  
  21840129.489   114770644.485       -1225.835          37.000  
  21492568.975   112944196.926       -1225.869          40.000  
  21792072.381   114518132.469       -1225.948          40.000  
  21633031.075   113682325.646       -1225.891          49.000  
  21557330.414   113284551.089       -1226.106          37.000  
  21541511.097   113201398.009       -1225.907          36.000  
  21777414.464   114441054.114       -1225.979          37.000  
  21632930.358   113682060.946       -1225.920          49.000  
  21563210.144   113315423.502       -1226.027          38.000  
  21769469.897                       -1226.351          38.000  
  21714117.213   114108478.999       -1226.017          38.000  
  21544437.367   113216824.075       -1225.829          42.000  
  21700635.025   114037592.133       -1226.053          32.000  
  21668693.014   113869704.020       -1225.852          39.000  
  21632862.820   113681850.285       -1225.877          49.000  
  21659315.823   113820506.439       -1225.853          37.000  
  21670746.748   113880583.034       -1225.833          36.000  
  21527440.755   113127438.099       -1225.856          38.000  
  21800274.023   114561226.897       -1225.844          38.000  
  21627661.255   113654124.711       -1225.903          38.000  
  21719094.233   114134630.296       -1225.865          38.000  
  21786791.925   114490381.556       -1225.851          39.000  
  21729943.399   114191611.071       -1225.979          38.000  
  21579607.002   113401631.497       -1225.865          38.000  
  21543266.509   113210637.709       -1225.850          38.000  
 25  8 12  8 50  3.6000000  0 30G 5G 1G 2G 3G 4G27G18G 9G 7G24G25G10
                                G 6G16G12G19G21G13G30G 8G28G22G32G11
                                G23G17G14G26G20G15
  21632982.011   113682152.105       -1226.244          47.000  
  21632971.956   113682051.046       -1226.155          49.000  
  21633037.925   113682317.248       -1226.156          49.000  
  21633052.623   113682259.250       -1226.130          49.000  
  21632970.819   113682084.373       -1226.172          49.000  
  21840176.126   114770889.743       -1226.356          37.000  
  21492615.676   112944442.177       -1226.354          40.000  
  21792119.061   114518377.707       -1226.281          40.000  
  21633077.738   113682570.888       -1226.260          49.000  
  21557377.053   113284796.313       -1226.219          37.000  
  21541557.792   113201643.248       -1226.294          36.000  
  21777461.143   114441299.365       -1226.498          37.000  
  21632977.029   113682306.180       -1226.120          49.000  
  21563256.810   113315668.714       -1226.223          38.000  
  21769516.763                       -1226.351          38.000  
  21714163.925   114108724.254       -1226.378          38.000  
  21544484.028   113217069.316       -1226.240          42.000  
  21700681.669   114037837.378       -1226.410          32.000  
  21668739.658   113869949.261       -1226.292          39.000  
  21632909.871   113682095.530       -1226.277          49.000  
  21659362.534   113820751.683       -1226.227          37.000  
  21670793.416   113880828.280       -1226.256          36.000  
  21527487.422   113127683.344       -1226.251          38.000  
  21800320.695   114561472.138       -1226.153          38.000  
  21627707.922   113654369.941       -1226.232          38.000  
  21719140.967   114134875.545       -1226.324          38.000  
  21786838.604   114490626.796       -1226.255          39.000  
  21729990.091   114191856.302       -1226.271          38.000  
  21579653.680   113401876.758       -1226.354          38.000  
  21543313.160   113210882.943       -1226.212          38.000  
 25  8 12  8 50  3.8000000  0 30G 5G 1G 2G 3G 4G27G18G 9G 7G24G25G10
                                G 6G16G12G19G21G13G30G 8G28G22G32G11
                                G23G17G14G26G20G15
  21633028.684   113682397.326       -1226.238          47.000  
  21633018.548   113682296.275       -1226.189          49.000  
  21633084.579   113682562.478       -1226.189          49.000  
  21633099.299   113682504.481       -1226.203          49.000  
  21633017.427   113682329.601       -1226.203          49.000  
  21840222.843   114771134.961       -1226.231          37.000  
  21492662.345   112944687.397       -1226.272          40.000  
  21792165.735   114518622.933       -1226.210          40.000  
  21633124.610   113682816.108       -1226.193          49.000  
  21557423.723   113285041.538       -1226.188          37.000  
  21541604.519   113201888.473       -1226.313          36.000  
  21777507.817   114441544.584       -1226.232          37.000  
  21633023.688   113682551.411       -1226.203          49.000  
  21563303.490   113315913.936       -1226.079          38.000  
  21769561.717                       -1226.351          38.000  
  21714210.553   114108969.473       -1226.319          37.000  
  21544530.618   113217314.543       -1226.215          42.000  
  21700728.289   114038082.593       -1226.305          32.000  
  21668786.336   113870194.484       -1226.198          39.000  
  21632957.296   113682340.754       -1226.245          48.000  
  21659409.181   113820996.906       -1226.164          37.000  
  21670840.045   113881073.507       -1226.258          37.000  
  21527534.130   113127928.568       -1226.270          38.000  
  21800367.398   114561717.362       -1226.242          38.000  
  21627754.608   113654615.169       -1226.189          38.000  
  21719187.597   114135120.767       -1226.266          38.000  
  21786885.274   114490872.026       -1226.259          39.000  
  21730036.756   114192101.521       -1226.193          38.000  
  21579700.365   113402121.981       -1226.283          38.000  
  21543359.861   113211128.162       -1226.135          38.000  
 25  8 12  8 50  4.0000000  0 30G 5G 1G 2G 3G 4G27G18G 9G 7G24G25G10
                                G 6G16G12G19G21G13G30G 8G28G22G32G11
                                G23G17G14G26G20G15
  21633075.370   113682642.557       -1226.241          47.000  
  21633065.180   113682541.508       -1226.226          49.000  
  21633131.230   113682807.714       -1226.292          49.000  
  21633145.980   113682749.713       -1226.233          49.000  
  21633064.060   113682574.836       -1226.288          49.000  
  21840269.480   114771380.193       -1226.195          37.000  
  21492709.063   112944932.629       -1226.201          40.000  
  21792212.313   114518868.166       -1226.274          40.000  
  21633171.383   113683061.346       -1226.265          49.000  
  21557470.350   113285286.772       -1226.301          37.000  
  21541651.190   113202133.706       -1226.268          36.000  
  21777554.486   114441789.819       -1226.347          37.000  
  21633070.356   113682796.646       -1226.273          49.000  
  21563350.155   113316159.175       -1226.248          38.000  
  21769609.297                       -1226.351          38.000  
  21714257.202   114109214.703       -1226.175          37.000  
  21544577.276   113217559.777       -1226.266          42.000  
  21700774.907   114038327.823       -1226.122          32.000  
  21668832.993   113870439.723       -1226.290          39.000  
  21633004.586   113682585.987       -1226.213          48.000  
  21659455.839   113821242.145       -1226.285          37.000  
  21670886.721   113881318.740       -1226.260          37.000  
  21527580.861   113128173.798       -1226.256          38.000  
  21800414.122   114561962.595       -1226.249          38.000  
  21627801.240   113654860.401       -1226.198          38.000  
  21719234.271   114135366.000       -1226.247          38.000  
  21786931.931   114491117.257       -1226.240          40.000  
  21730083.424   114192346.758       -1226.281          38.000  
  21579747.026   113402367.212       -1226.270          38.000  
  21543406.519   113211373.401       -1226.211          38.000  
 25  8 12  8 50  4.2000000  0 30G 5G 1G 2G 3G 4G27G18G 9G 7G24G25G10
                                G 6G16G12G19G21G13G30G 8G28G22G32G11
                                G23G17G14G26G20G15
  21633122.049   113682887.789       -1226.140          47.000  
  21633111.833   113682786.735       -1226.103          49.000  
  21633177.886   113683052.936       -1226.091          49.000  
  21633192.650   113682994.934       -1226.053          49.000  
  21633110.662   113682820.055       -1226.019          49.000  
  21840316.136   114771625.420       -1226.071          37.000  
  21492755.733   112945177.858       -1226.143          40.000  
  21792258.980   114519113.388       -1226.040          40.000  
  21633218.585   113683306.571       -1226.097          49.000  
  21557517.033   113285531.995       -1226.100          37.000  
  21541697.891   113202378.929       -1226.118          36.000  
  21777601.112   114442035.032       -1226.090          37.000  
  21633116.999   113683041.870       -1226.077          49.000  
  21563396.819   113316404.403       -1226.102          38.000  
  21769656.965                       -1226.351          38.000  
  21714303.837   114109459.929       -1226.111          37.000  
  21544623.926   113217805.002       -1226.096          42.000  
  21700821.499   114038573.064       -1226.150          32.000  
  21668879.690   113870684.946       -1226.111          39.000  
  21633051.919   113682831.215       -1226.144          48.000  
  21659502.487   113821487.368       -1226.004          37.000  
  21670933.369   113881563.962       -1226.094          37.000  
  21527627.516   113128419.019       -1226.012          38.000  
  21800460.791   114562207.825       -1226.028          38.000  
  21627847.907   113655105.625       -1226.111          38.000  
  21719280.905   114135611.226       -1226.129          38.000  
  21786978.592   114491362.480       -1226.136          40.000  
  21730130.105   114192591.982       -1226.082          38.000  
  21579793.699   113402612.432       -1226.024          38.000  
  21543453.253   113211618.631       -1226.124          38.000  
 25  8 12  8 50  4.4000000  0 30G 5G 1G 2G 3G 4G27G18G 9G 7G24G25G10
                                G 6G16G12G19G21G13G30G 8G28G22G32G11
                                G23G17G14G26G20G15
  21633168.684   113683133.009       -1226.147          47.000  
  21633158.427   113683031.956       -1226.179          49.000  
  21633224.556   113683298.158       -1226.188          49.000  
  21633239.336   113683240.158       -1226.186          49.000  
  21633157.329   113683065.287       -1226.282          49.000  
  21840362.788   114771870.637       -1226.053          37.000  
  21492802.374   112945423.090       -1226.443          40.000  
  21792305.582   114519358.618       -1226.328          40.000  
  21633265.614   113683551.792       -1226.177          49.000  
  21557563.659   113285777.220       -1226.194          37.000  
  21541744.579   113202624.151       -1226.215          36.000  
  21777647.790   114442280.274       -1226.573          37.000  
  21633163.664   113683287.092       -1226.180          49.000  
  21563443.492   113316649.629       -1226.321          38.000  
  21769700.079                       -1226.351          38.000  
  21714350.508   114109705.155       -1226.265          37.000  
  21544670.631   113218050.225       -1226.259          42.000  
  21700868.106   114038818.269       -1226.061          32.000  
  21668926.314   113870930.173       -1226.342          39.000  
  21633099.038   113683076.436       -1226.239          48.000  
  21659549.169   113821732.598       -1226.294          37.000  
  21670980.032   113881809.187       -1226.233          37.000  
  21527674.150   113128664.249       -1226.250          38.000  
  21800507.456   114562453.042       -1226.013          38.000  
  21627894.539   113655350.849       -1226.178          38.000  
  21719327.638   114135856.451       -1226.238          38.000  
  21787025.263   114491607.700       -1226.213          40.000  
  21730176.761   114192837.207       -1226.241          38.000  
  21579840.361   113402857.667       -1226.422          38.000  
  21543499.919   113211863.855       -1226.243          38.000  
 25  8 12  8 50  4.6000000  0 30G 5G 1G 2G 3G 4G27G18G 9G 7G24G25G10
                                G 6G16G12G19G21G13G30G 8G28G22G32G11
                                G23G17G14G26G20G15
  21633215.383   113683378.236       -1226.071          47.000  
  21633205.038   113683277.181       -1226.031          49.000  
  21633271.220   113683543.389       -1226.030          49.000  
  21633286.015   113683485.389       -1226.071          49.000  
  21633203.931   113683310.515       -1226.052          49.000  
  21840409.492   114772115.869       -1226.088          38.000  
  21492849.049   112945668.321       -1225.979          40.000  
  21792352.208   114519603.847       -1226.089          39.000  
  21633312.941   113683797.019       -1226.058          49.000  
  21557610.352   113286022.449       -1225.997          37.000  
  21541791.196   113202869.380       -1226.089          36.000  
  21777694.400   114442525.502       -1225.811          37.000  
  21633210.309   113683532.320       -1226.043          49.000  
  21563490.136   113316894.862       -1225.985          38.000  
  21769744.363                       -1226.351          38.000  
  21714397.144   114109950.384       -1225.971          37.000  
  21544717.280   113218295.455       -1226.034          42.000  
  21700914.743   114039063.489       -1226.252          31.000  
  21668973.009   113871175.397       -1226.063          39.000  
  21633146.128   113683321.667       -1226.051          48.000  
  21659595.778   113821977.827       -1226.104          37.000  
  21671026.650   113882054.417       -1226.017          37.000  
  21527720.790   113128909.471       -1225.985          38.000  
  21800554.114   114562698.268       -1226.133          38.000  
  21627941.239   113655596.080       -1226.064          38.000  
  21719374.261   114136101.680       -1226.073          38.000  
  21787071.929   114491852.931       -1225.999          40.000  
  21730223.435   114193082.437       -1226.005          38.000  
  21579887.033   113403102.895       -1225.988          38.000  
  21543546.596   113212109.079       -1226.058          38.000  
 25  8 12  8 50  4.8000000  0 30G 5G 1G 2G 3G 4G27G18G 9G 7G24G25G10
                                G 6G16G12G19G21G13G30G 8G28G22G32G11
                                G23G17G14G26G20G15
  21633262.022   113683623.461       -1226.229          47.000  
  21633251.637   113683522.405       -1226.125          49.000  
  21633317.881   113683788.610       -1226.127          49.000  
  21633332.704   113683730.611       -1226.106          49.000  
  21633250.567   113683555.737       -1226.146          49.000  
  21840456.138   114772361.091       -1226.185          38.000  
  21492895.690   112945913.550       -1226.223          40.000  
  21792398.845   114519849.070       -1226.189          39.000  
  21633360.118   113684042.243       -1226.157          49.000  
  21557657.024   113286267.678       -1226.239          37.000  
  21541837.881   113203114.607       -1226.244          36.000  
  21777741.048   114442770.725       -1225.923          37.000  
  21633256.972   113683777.546       -1226.191          49.000  
  21563536.842   113317140.090       -1226.224          38.000  
  21769790.183                       -1226.351          38.000  
  21714443.869   114110195.616       -1226.315          37.000  
  21544763.965   113218540.679       -1226.211          41.000  
  21700961.380   114039308.707       -1226.328          31.000  
  21669019.658   113871420.618       -1226.137          39.000  
  21633193.005   113683566.891       -1226.197          48.000  
  21659642.459   113822223.046       -1226.158          37.000  
  21671073.341   113882299.645       -1226.240          37.000  
  21527767.450   113129154.699       -1226.183          38.000  
  21800600.790   114562943.500       -1226.426          37.000  
  21627987.858   113655841.303       -1226.143          38.000  
  21719420.939   114136346.903       -1226.140          38.000  
  21787118.572   114492098.152       -1226.078          40.000  
  21730270.076   114193327.669       -1226.337          38.000  
  21579933.732   113403348.120       -1226.130          38.000  
  21543593.239   113212354.310       -1226.279          38.000  
 25  8 12  8 50  5.0000000  0 30G 5G 1G 2G 3G 4G27G18G 9G 7G24G25G10
                                G 6G16G12G19G21G13G30G 8G28G22G32G11
                                G23G17G14G26G20G15
  21633308.730   113683868.687       -1226.210          47.000  
  21633298.286   113683767.629       -1226.203          49.000  
  21633364.544   113684033.833       -1226.229          49.000  
  21633379.384   113683975.836       -1226.189          49.000  
  21633297.209   113683800.964       -1226.222          49.000  
  21840502.847   114772606.306       -1226.332          38.000  
  21492942.371   112946158.771       -1226.274          40.000  
  21792445.437   114520094.292       -1226.290          39.000  
  21633407.355   113684287.465       -1226.238          49.000  
  21557703.691   113286512.905       -1226.221          37.000  
  21541884.599   113203359.827       -1226.246          36.000  
  21777787.723   114443015.958       -1226.336          37.000  
  21633303.653   113684022.768       -1226.250          49.000  
  21563583.513   113317385.311       -1226.187          38.000  
  21769836.241                       -1226.351          38.000  
  21714490.558   114110440.833       -1226.205          37.000  
  21544810.600   113218785.900       -1226.265          41.000  
  21701008.011   114039553.926       -1226.208          31.000  
  21669066.329   113871665.842       -1226.244          39.000  
  21633239.751   113683812.111       -1226.205          48.000  
  21659689.099   113822468.264       -1226.219          37.000  
  21671119.987   113882544.864       -1226.198          37.000  
  21527814.136   113129399.920       -1226.217          38.000  
  21800647.437   114563188.713       -1226.145          37.000  
  21628034.575   113656086.523       -1226.271          38.000  
  21719467.589   114136592.123       -1226.231          39.000  
  21787165.257   114492343.378       -1226.275          40.000  
  21730316.738   114193572.893       -1226.154          38.000  
  21579980.381   113403593.343       -1226.290          37.000  
  21543639.927   113212599.530       -1226.180          37.000  
 25  8 12  8 50  5.2000000  0 30G 5G 1G 2G 3G 4G27G18G 9G 7G24G25G10
                                G 6G16G12G19G21G13G30G 8G28G22G32G11
                                G23G17G14G26G20G15
  21633355.360   113684113.890       -1225.953          47.000  
  21633344.904   113684012.833       -1225.987          49.000  
  21633411.206   113684279.036       -1225.961          49.000  
  21633426.060   113684221.042       -1225.971          49.000  
  21633343.805   113684046.166       -1226.061          49.000  
  21840549.473   114772851.509       -1225.927          38.000  
  21492989.026   112946403.974       -1225.947          40.000  
  21792492.081   114520339.496       -1225.973          39.000  
  21633454.520   113684532.671       -1225.973          49.000  
  21557750.299   113286758.107       -1226.064          37.000  
  21541931.253   113203605.031       -1225.955          36.000  
  21777834.374   114443261.161       -1226.133          37.000  
  21633350.308   113684267.973       -1226.013          49.000  
  21563630.187   113317630.517       -1225.973          38.000  
  21769883.107                       -1226.351          38.000  
  21714537.245   114110686.046       -1226.018          37.000  
  21544857.281   113219031.105       -1226.007          41.000  
  21701054.632   114039799.134       -1225.900          31.000  
  21669112.975   113871911.048       -1226.064          39.000  
  21633286.347   113684057.319       -1225.991          48.000  
  21659735.747   113822713.470       -1225.955          38.000  
  21671166.667   113882790.072       -1226.031          37.000  
  21527860.801   113129645.125       -1226.028          38.000  
  21800694.111   114563433.921       -1226.025          37.000  
  21628081.200   113656331.730       -1225.985          38.000  
  21719514.283   114136837.333       -1225.998          39.000  
  21787211.899   114492588.578       -1225.948          40.000  
  21730363.389   114193818.103       -1226.119          37.000  
  21580027.083   113403838.546       -1226.035          37.000  
  21543686.585   113212844.735       -1225.947          37.000  
 25  8 12  8 50  5.4000000  0 30G 5G 1G 2G 3G 4G27G18G 9G 7G24G25G10
                                G 6G16G12G19G21G13G30G 8G28G22G32G11
                                G23G17G14G26G20G15
  21633402.034   113684359.102       -1226.079          46.000  
  21633391.537   113684258.043       -1226.023          49.000  
  21633457.879   113684524.250       -1226.146          49.000  
  21633472.724   113684466.251       -1226.036          49.000  
  21633390.471   113684291.374       -1226.069          49.000  
  21840596.161   114773096.727       -1226.034          38.000  
  21493035.724   112946649.165       -1226.028          40.000  
  21792538.730   114520584.720       -1226.017          39.000  
  21633501.287   113684777.886       -1226.090          49.000  
  21557796.929   113287003.325       -1225.961          37.000  
  21541977.942   113203850.276       -1226.152          34.000  
  21777881.047   114443506.350       -1226.038          37.000  
  21633396.961   113684513.183       -1226.066          49.000  
  21563676.859   113317875.705       -1225.935          38.000  
  21769930.200                       -1226.351          38.000  
  21714583.862   114110931.227       -1226.036          39.000  
  21544903.918   113219276.303       -1226.050          41.000  
  21701101.287   114040044.362       -1226.108          32.000  
  21669159.645   113872156.267       -1226.119          39.000  
  21633332.416   113684302.522       -1226.103          49.000  
  21659782.416   113822958.675       -1226.085          38.000  
  21671213.336   113883035.265       -1226.011          37.000  
  21527907.463   113129890.333       -1225.968          38.000  
  21800740.770   114563679.128       -1226.095          39.000  
  21628127.870   113656576.919       -1226.100          38.000  
  21719560.921   114137082.540       -1226.014          39.000  
  21787258.571   114492833.791       -1226.013          40.000  
  21730410.093   114194063.285       -1226.042          37.000  
  21580073.728   113404083.732       -1226.011          38.000  
  21543733.263   113213089.957       -1226.100          38.000  
 25  8 12  8 50  5.6000000  0 30G 5G 1G 2G 3G 4G27G18G 9G 7G24G25G10
                                G 6G16G12G19G21G13G30G 8G28G22G32G11
                                G23G17G14G26G20G15
  21633448.732   113684604.337       -1226.444          46.000  
  21633438.164   113684503.275       -1226.259          49.000  
  21633504.532   113684769.474       -1226.261          49.000  
  21633519.406   113684711.485       -1226.299          49.000  
  21633437.079   113684536.603       -1226.294          49.000  
  21840642.796   114773341.959       -1226.353          37.000  
  21493082.405   112946894.401       -1226.265          40.000  
  21792585.382   114520829.948       -1226.361          39.000  
  21633547.929   113685023.118       -1226.365          49.000  
  21557843.575   113287248.555       -1226.276          37.000  
  21542024.636   113204095.499       -1226.461          34.000  
  21777927.681   114443751.585       -1226.246          37.000  
  21633443.627   113684758.413       -1226.286          49.000  
  21563723.538   113318120.942       -1226.254          38.000  
  21769982.494                       -1226.351          38.000  
  21714630.562   114111176.466       -1226.358          39.000  
  21544950.588   113219521.535       -1226.295          41.000  
  21701147.981   114040289.585       -1226.295          32.000  
  21669206.290   113872401.494       -1226.294          39.000  
  21633378.189   113684547.751       -1226.260          49.000  
  21659829.108   113823203.910       -1226.386          38.000  
  21671260.017   113883280.503       -1226.331          37.000  
  21527954.153   113130135.567       -1226.389          38.000  
  21800787.473   114563924.357       -1226.280          39.000  
  21628174.545   113656822.152       -1226.295          38.000  
  21719607.580   114137327.777       -1226.403          38.000  
  21787305.252   114493079.024       -1226.299          40.000  
  21730456.784   114194308.519       -1226.180          38.000  
  21580120.412   113404328.972       -1226.318          38.000  
  21543779.902   113213335.186       -1226.389          38.000  
 25  8 12  8 50  5.8000000  0 30G 5G 1G 2G 3G 4G27G18G 9G 7G24G25G10
                                G 6G16G12G19G21G13G30G 8G28G22G32G11
                                G23G17G14G26G20G15
  21633495.424   113684849.555       -1226.322          46.000  
  21633484.819   113684748.504       -1226.304          49.000  
  21633551.198   113685014.704       -1226.225          49.000  
  21633566.098   113684956.715       -1226.267          49.000  
  21633483.721   113684781.834       -1226.301          49.000  
  21840689.499   114773587.191       -1226.269          37.000  
  21493129.099   112947139.632       -1226.342          40.000  
  21792632.041   114521075.173       -1226.204          39.000  
  21633594.659   113685268.347       -1226.427          49.000  
  21557890.224   113287493.787       -1226.425          38.000  
  21542071.299   113204340.719       -1226.166          34.000  
  21777974.328   114443996.812       -1226.158          37.000  
  21633490.310   113685003.643       -1226.320          49.000  
  21563770.236   113318366.173       -1226.447          38.000  
  21770033.209                       -1226.351          38.000  
  21714677.246   114111421.692       -1226.395          39.000  
  21544997.213   113219766.764       -1226.238          42.000  
  21701194.646   114040534.819       -1226.459          33.000  
  21669252.979   113872646.725       -1226.333          39.000  
  21633423.942   113684792.982       -1226.334          49.000  
  21659875.751   113823449.138       -1226.302          38.000  
  21671306.682   113883525.730       -1226.297          37.000  
  21528000.824   113130380.792       -1226.177          38.000  
  21800834.120   114564169.589       -1226.435          39.000  
  21628221.250   113657067.378       -1226.131          38.000  
  21719654.235   114137572.994       -1226.235          38.000  
  21787351.951   114493324.251       -1226.162          40.000  
  21730503.486   114194553.751       -1226.440          38.000  
  21580167.038   113404574.200       -1226.237          38.000  
  21543826.554   113213580.408       -1226.307          38.000  
 25  8 12  8 50  6.0000000  0 30G 5G 1G 2G 3G 4G27G18G 9G 7G24G25G10
                                G 6G16G12G19G21G13G30G 8G28G22G32G11
                                G23G17G14G26G20G15
  21633542.084   113685094.758       -1225.816          46.000  
  21633531.459   113684993.709       -1225.927          49.000  
  21633597.867   113685259.914       -1226.007          49.000  
  21633612.773   113685201.926       -1226.004          49.000  
  21633530.306   113685027.040       -1225.994          49.000  
  21840736.133   114773832.402       -1226.093          37.000  
  21493175.773   112947384.837       -1225.906          40.000  
  21792678.715   114521320.388       -1225.999          39.000  
  21633641.303   113685513.548       -1225.941          49.000  
  21557936.875   113287738.988       -1225.824          38.000  
  21542117.969   113204585.935       -1225.878          34.000  
  21778020.996   114444242.029       -1226.063          37.000  
  21633536.956   113685248.851       -1225.961          49.000  
  21563816.889   113318611.372       -1225.852          38.000  
  21770082.170                       -1226.351          38.000  
  21714723.925   114111666.893       -1225.926          39.000  
  21545043.880   113220011.974       -1225.967          42.000  
  21701241.289   114040780.016       -1225.839          33.000  
  21669299.646   113872891.929       -1225.948          39.000  
  21633469.525   113685038.189       -1225.947          49.000  
  21659922.409   113823694.344       -1225.888          38.000  
  21671353.350   113883770.942       -1226.004          37.000  
  21528047.447   113130626.006       -1225.991          37.000  
  21800880.787   114564414.792       -1225.883          39.000  
  21628267.876   113657312.594       -1225.942          38.000  
  21719700.883   114137818.211       -1225.975          38.000  
  21787398.606   114493569.465       -1225.956          40.000  
  21730550.107   114194798.948       -1225.817          38.000  
  21580213.743   113404819.413       -1226.044          38.000  
  21543873.208   113213825.619       -1225.952          38.000  
 25  8 12  8 50  6.2000000  0 30G 5G 1G 2G 3G 4G27G18G 9G 7G24G25G10
                                G 6G16G12G19G21G13G30G 8G28G22G32G11
                                G23G17G14G26G20G15
  21633588.778   113685339.973       -1226.017          46.000  
  21633578.121   113685238.922       -1226.046          49.000  
  21633644.534   113685505.124       -1226.033          49.000  
  21633659.438   113685447.138       -1226.174          49.000  
  21633576.947   113685272.256       -1226.131          49.000  
  21840782.792   114774077.615       -1226.146          37.000  
  21493222.431   112947630.042       -1225.880          40.000  
  21792725.343   114521565.584       -1225.789          39.000  
  21633687.970   113685758.757       -1226.009          49.000  
  21557983.580   113287984.191       -1225.785          38.000  
  21542164.614   113204831.150       -1226.112          34.000  
  21778067.701   114444487.240       -1226.312          37.000  
  21633583.625   113685494.063       -1226.073          49.000  
  21563863.569   113318856.617       -1226.561          38.000  
  21770131.756                       -1226.351          38.000  
  21714770.563   114111912.100       -1225.901          39.000  
  21545090.535   113220257.190       -1226.187          42.000  
  21701287.901   114041025.224       -1225.757          33.000  
  21669346.336   113873137.143       -1226.087          39.000  
  21633515.193   113685283.400       -1226.046          49.000  
  21659969.079   113823939.557       -1226.053          38.000  
  21671400.022   113884016.162       -1226.330          37.000  
  21528094.126   113130871.216       -1226.091          37.000  
  21800927.430   114564659.993       -1225.696          39.000  
  21628314.583   113657557.816       -1226.356          38.000  
  21719747.539   114138063.430       -1226.301          38.000  
  21787445.284   114493814.681       -1226.257          40.000  
  21730596.844   114195044.156       -1225.730          38.000  
  21580260.417   113405064.606       -1225.858          38.000  
  21543919.881   113214070.834       -1226.117          38.000  
 25  8 12  8 50  6.4000000  0 30G 5G 1G 2G 3G 4G27G18G 9G 7G24G25G10
                                G 6G16G12G19G21G13G30G 8G28G22G32G11
                                G23G17G14G26G20G15
  21633635.419   113685585.184       -1225.825          46.000  
  21633624.786   113685484.132       -1225.833          49.000  
  21633691.203   113685750.327       -1225.826          49.000  
  21633706.120   113685692.344       -1225.857          49.000  
  21633623.570   113685517.460       -1225.757          49.000  
  21840829.450   114774322.823       -1225.743          37.000  
  21493269.126   112947875.249       -1225.879          40.000  
  21792772.016   114521810.790       -1225.999          39.000  
  21633733.920   113686003.967       -1225.806          48.000  
  21558030.221   113288229.396       -1225.985          38.000  
  21542211.234   113205076.358       -1225.742          34.000  
  21778114.342   114444732.454       -1225.675          37.000  
  21633630.277   113685739.267       -1225.792          49.000  
  21563910.241   113319101.826       -1225.579          38.000  
  21770174.977                       -1226.351          38.000  
  21714817.222   114112157.316       -1225.731          37.000  
  21545137.223   113220502.400       -1225.739          41.000  
  21701334.561   114041270.428       -1225.998          33.000  
  21669392.968   113873382.355       -1225.749          39.000  
  21633560.944   113685528.606       -1225.795          49.000  
  21660015.781   113824184.758       -1225.845          38.000  
  21671446.775   113884261.372       -1225.696          34.000  
  21528140.759   113131116.424       -1225.820          38.000  
  21800974.081   114564905.199       -1226.053          39.000  
  21628361.257   113657803.022       -1225.640          38.000  
  21719794.191   114138308.627       -1225.706          38.000  
  21787491.949   114494059.883       -1225.737          40.000  
  21730643.490   114195289.364       -1226.053          38.000  
  21580307.081   113405309.818       -1225.909          38.000  
  21543966.531   113214316.043       -1225.759          38.000  
 25  8 12  8 50  6.6000000  0 30G 5G 1G 2G 3G 4G27G18G 9G 7G24G25G10
                                G 6G16G12G19G21G13G30G 8G28G22G32G11
                                G23G17G14G26G20G15
  21633682.062   113685830.397       -1226.020          46.000  
  21633671.453   113685729.349       -1226.053          49.000  
  21633737.879   113685995.544       -1226.038          49.000  
  21633752.798   113685937.562       -1226.088          49.000  
  21633670.242   113685762.678       -1226.013          49.000  
  21840876.163   114774568.049       -1226.178          37.000  
  21493315.802   112948120.465       -1226.116          40.000  
  21792818.625   114522056.000       -1226.043          39.000  
  21633779.733   113686249.183       -1226.095          48.000  
  21558076.885   113288474.599       -1225.948          38.000  
  21542257.909   113205321.574       -1226.035          35.000  
  21778161.037   114444977.671       -1225.952          38.000  
  21633676.933   113685984.483       -1225.997          49.000  
  21563956.915   113319347.053       -1226.116          38.000  
  21770221.597                       -1226.351          38.000  
  21714863.884   114112402.532       -1226.066          37.000  
  21545183.906   113220747.617       -1226.100          41.000  
  21701381.256   114041515.637       -1226.114          32.000  
  21669439.634   113873627.575       -1226.144          40.000  
  21633606.857   113685773.822       -1226.034          49.000  
  21660062.460   113824429.980       -1226.105          38.000  
  21671493.541   113884506.589       -1226.072          34.000  
  21528187.413   113131361.645       -1226.152          38.000  
  21801020.753   114565150.406       -1226.089          39.000  
  21628407.991   113658048.249       -1226.115          38.000  
  21719840.855   114138553.849       -1226.145          38.000  
  21787538.597   114494305.107       -1226.165          40.000  
  21730690.168   114195534.568       -1225.991          38.000  
  21580353.750   113405555.037       -1226.246          39.000  
  21544013.218   113214561.267       -1226.183          38.000  
 25  8 12  8 50  6.8000000  0 30G 5G 1G 2G 3G 4G27G18G 9G 7G24G25G10
                                G 6G16G12G19G21G13G30G 8G28G22G32G11
                                G23G17G14G26G20G15
  21633728.728   113686075.618       -1226.260          46.000  
  21633718.106   113685974.562       -1226.173          49.000  
  21633784.537   113686240.757       -1226.121          49.000  
  21633799.461   113686182.771       -1226.155          49.000  
  21633716.905   113686007.888       -1226.120          49.000  
  21840922.792   114774813.263       -1226.317          36.000  
  21493362.467   112948365.676       -1226.216          40.000  
  21792865.322   114522301.215       -1226.142          39.000  
  21633825.518   113686494.399       -1226.233          48.000  
  21558123.542   113288719.822       -1226.306          38.000  
  21542304.562   113205566.791       -1226.287          35.000  
  21778207.702   114445222.893       -1226.308          38.000  
  21633723.629   113686229.698       -1226.140          49.000  
  21564003.594   113319592.267       -1226.355          37.000  
  21770268.785                       -1226.351          38.000  
  21714910.563   114112647.749       -1226.351          37.000  
  21545230.593   113220992.827       -1226.183          41.000  
  21701427.992   114041760.851       -1226.173          32.000  
  21669486.292   113873872.786       -1226.206          40.000  
  21633652.717   113686019.035       -1226.182          49.000  
  21660109.146   113824675.189       -1226.214          38.000  
  21671540.319   113884751.805       -1226.192          34.000  
  21528234.049   113131606.851       -1226.138          38.000  
  21801067.412   114565395.624       -1226.306          39.000  
  21628454.662   113658293.458       -1226.208          38.000  
  21719887.544   114138799.057       -1226.203          38.000  
  21787585.251   114494550.313       -1226.169          40.000  
  21730736.821   114195779.787       -1226.264          38.000  
  21580400.442   113405800.238       -1226.118          39.000  
  21544059.879   113214806.471       -1226.113          38.000  
 25  8 12  8 50  7.0000000  0 30G 5G 1G 2G 3G 4G27G18G 9G 7G24G25G10
                                G 6G16G12G19G21G13G30G 8G28G22G32G11
                                G23G17G14G26G20G15
  21633775.361   113686320.872       -1226.475          46.000  
  21633764.767   113686219.818       -1226.394          49.000  
  21633831.219   113686486.015       -1226.322          49.000  
  21633846.135   113686428.024       -1226.325          49.000  
  21633763.581   113686253.148       -1226.359          49.000  
  21840969.480   114775058.514       -1226.387          36.000  
  21493409.156   112948610.935       -1226.395          40.000  
  21792911.930   114522546.472       -1226.288          39.000  
  21633871.247   113686739.653       -1226.381          48.000  
  21558170.181   113288965.066       -1226.364          38.000  
  21542351.233   113205812.043       -1226.415          35.000  
  21778254.397   114445468.142       -1226.345          38.000  
  21633770.283   113686474.955       -1226.348          49.000  
  21564050.297   113319837.514       -1226.399          37.000  
  21770317.143                       -1226.351          38.000  
  21714957.212   114112892.997       -1226.351          37.000  
  21545277.246   113221238.081       -1226.335          41.000  
  21701474.637   114042006.096       -1226.241          32.000  
  21669532.970   113874118.044       -1226.372          40.000  
  21633698.656   113686264.291       -1226.360          49.000  
  21660155.782   113824920.445       -1226.327          38.000  
  21671587.071   113884997.058       -1226.387          34.000  
  21528280.727   113131852.111       -1226.373          38.000  
  21801114.048   114565640.873       -1226.348          39.000  
  21628501.354   113658538.718       -1226.433          38.000  
  21719934.192   114139044.315       -1226.365          38.000  
  21787631.899   114494795.571       -1226.360          40.000  
  21730783.498   114196025.035       -1226.356          38.000  
  21580447.069   113406045.502       -1226.387          39.000  
  21544106.563   113215051.732       -1226.348          38.000  
 25  8 12  8 50  7.2000000  0 30G 5G 1G 2G 3G 4G27G18G 9G 7G24G25G10
                                G 6G16G12G19G21G13G30G 8G28G22G32G11
                                G23G17G14G26G20G15
  21633822.009   113686566.078       -1226.017          46.000  
  21633811.441   113686465.031       -1226.085          49.000  
  21633877.848   113686731.237       -1226.107          49.000  
  21633892.818   113686673.244       -1226.075          49.000  
  21633810.155   113686498.365       -1226.062          49.000  
  21841016.085   114775303.721       -1226.088          36.000  
  21493455.820   112948856.168       -1226.096          40.000  
  21792958.594   114522791.699       -1226.057          39.000  
  21633918.097   113686984.870       -1226.105          48.000  
  21558216.857   113289210.339       -1226.028          38.000  
  21542397.888   113206057.292       -1226.248          35.000  
  21778301.090   114445713.344       -1226.167          38.000  
  21633816.942   113686720.172       -1226.084          49.000  
  21564096.973   113320082.693       -1225.909          38.000  
  21770361.228                       -1226.351          38.000  
  21715003.853   114113138.233       -1226.046          37.000  
  21545323.919   113221483.294       -1226.013          41.000  
  21701521.363   114042251.311       -1226.003          32.000  
  21669579.641   113874363.245       -1226.025          40.000  
  21633745.176   113686509.516       -1226.099          49.000  
  21660202.458   113825165.690       -1226.084          39.000  
  21671633.792   113885242.264       -1226.143          37.000  
  21528327.391   113132097.321       -1226.093          38.000  
  21801160.696   114565886.106       -1226.047          39.000  
  21628547.994   113658783.921       -1226.030          40.000  
  21719980.858   114139289.530       -1226.079          38.000  
  21787678.569   114495040.787       -1226.111          40.000  
  21730830.146   114196270.285       -1225.998          38.000  
  21580493.713   113406290.745       -1226.123          38.000  
  21544153.252   113215296.923       -1226.007          38.000  
 25  8 12  8 50  7.4000000  0 30G 5G 1G 2G 3G 4G27G18G 9G 7G24G25G10
                                G 6G16G12G19G21G13G30G 8G28G22G32G11
                                G23G17G14G26G20G15
  21633868.659   113686811.312       -1226.057          46.000  
  21633858.091   113686710.265       -1226.222          49.000  
  21633924.523   113686976.467       -1226.250          49.000  
  21633939.515   113686918.477       -1226.269          49.000  
  21633856.839   113686743.595       -1226.224          49.000  
  21841062.785   114775548.953       -1226.169          36.000  
  21493502.494   112949101.396       -1226.232          39.000  
  21793005.164   114523036.935       -1226.237          39.000  
  21633965.666   113687230.101       -1226.191          48.000  
  21558263.514   113289455.567       -1226.321          38.000  
  21542444.599   113206302.513       -1226.259          35.000  
  21778347.731   114445958.570       -1226.151          38.000  
  21633863.633   113686965.403       -1226.211          49.000  
  21564143.629   113320327.938       -1226.067          38.000  
  21770404.044                       -1226.351          38.000  
  21715050.532   114113383.460       -1226.159          37.000  
  21545370.629   113221728.529       -1226.161          41.000  
  21701568.078   114042496.551       -1226.198          32.000  
  21669626.309   113874608.482       -1226.115          40.000  
  21633792.203   113686754.744       -1226.210          49.000  
  21660249.113   113825410.915       -1226.259          39.000  
  21671680.526   113885487.495       -1226.238          37.000  
  21528374.047   113132342.551       -1226.150          38.000  
  21801207.358   114566131.341       -1226.275          39.000  
  21628594.697   113659029.154       -1226.151          40.000  
  21720027.515   114139534.763       -1226.248          38.000  
  21787725.208   114495286.016       -1226.188          40.000  
  21730876.869   114196515.520       -1226.316          38.000  
  21580540.379   113406535.969       -1226.273          38.000  
  21544199.915   113215542.166       -1226.160          38.000  
 25  8 12  8 50  7.6000000  0 30G 5G 1G 2G 3G 4G27G18G 9G 7G24G25G10
                                G 6G16G12G19G21G13G30G 8G28G22G32G11
                                G23G17G14G26G20G15
  21633915.340   113687056.532       -1226.074          46.000  
  21633904.685   113686955.488       -1226.147          49.000  
  21633971.185   113687221.690       -1226.159          49.000  
  21633986.184   113687163.698       -1226.148          49.000  
  21633903.453   113686988.820       -1226.152          49.000  
  21841109.379   114775794.170       -1226.117          37.000  
  21493549.141   112949346.618       -1226.088          39.000  
  21793051.854   114523282.158       -1226.188          39.000  
  21634013.294   113687475.323       -1226.088          48.000  
  21558310.164   113289700.793       -1226.078          38.000  
  21542491.247   113206547.736       -1226.107          35.000  
  21778394.359   114446203.799       -1226.115          37.000  
  21633910.278   113687210.629       -1226.119          49.000  
  21564190.335   113320573.169       -1226.147          38.000  
  21770449.425                       -1226.351          38.000  
  21715097.206   114113628.692       -1226.061          37.000  
  21545417.298   113221973.753       -1226.130          41.000  
  21701614.744   114042741.774       -1226.144          33.000  
  21669673.003   113874853.711       -1226.136          40.000  
  21633838.861   113686999.967       -1226.083          49.000  
  21660295.774   113825656.137       -1226.072          39.000  
  21671727.241   113885732.713       -1225.970          37.000  
  21528420.724   113132587.774       -1226.088          38.000  
  21801254.054   114566376.562       -1226.107          39.000  
  21628641.375   113659274.378       -1226.074          40.000  
  21720074.185   114139779.980       -1226.090          38.000  
  21787771.872   114495531.239       -1226.140          40.000  
  21730923.540   114196760.751       -1226.220          38.000  
  21580587.046   113406781.188       -1226.050          38.000  
  21544246.598   113215787.388       -1226.125          38.000  
 25  8 12  8 50  7.8000000  0 30G 5G 1G 2G 3G 4G27G18G 9G 7G24G25G10
                                G 6G16G12G19G21G13G30G 8G28G22G32G11
                                G23G17G14G26G20G15
  21633961.995   113687301.773       -1226.178          46.000  
  21633951.341   113687200.722       -1226.144          49.000  
  21634017.844   113687466.929       -1226.181          49.000  
  21634032.860   113687408.934       -1226.123          49.000  
  21633950.108   113687234.061       -1226.200          49.000  
  21841156.091   114776039.404       -1225.934          37.000  
  21493595.827   112949591.860       -1226.166          39.000  
  21793098.442   114523527.390       -1226.135          39.000  
  21634060.674   113687720.560       -1226.149          48.000  
  21558356.832   113289946.031       -1226.257          38.000  
  21542537.970   113206792.976       -1226.289          35.000  
  21778441.003   114446449.036       -1226.108          37.000  
  21633956.971   113687455.868       -1226.209          49.000  
  21564237.021   113320818.410       -1226.311          38.000  
  21770495.235                       -1226.351          38.000  
  21715143.829   114113873.931       -1226.284          37.000  
  21545463.962   113222218.992       -1226.165          41.000  
  21701661.390   114042987.020       -1226.273          33.000  
  21669719.681   113875098.950       -1226.232          39.000  
  21633885.547   113687245.207       -1226.113          49.000  
  21660342.419   113825901.376       -1226.135          39.000  
  21671773.948   113885977.952       -1226.062          37.000  
  21528467.408   113132833.015       -1226.094          38.000  
  21801300.720   114566621.801       -1226.095          39.000  
  21628688.094   113659519.613       -1226.095          40.000  
  21720120.797   114140025.219       -1226.109          38.000  
  21787818.513   114495776.478       -1226.140          40.000  
  21730970.205   114197005.988       -1226.370          38.000  
  21580633.727   113407026.429       -1226.152          38.000  
  21544293.273   113216032.628       -1226.212          38.000  
 25  8 12  8 50  8.0000000  0 30G 5G 1G 2G 3G 4G27G18G 9G 7G24G25G10
                                G 6G16G12G19G21G13G30G 8G28G22G32G11
                                G23G17G14G26G20G15
  21634008.684   113687547.024       -1226.396          46.000  
  21633997.968   113687445.965       -1226.281          49.000  
  21634064.491   113687712.171       -1226.276          49.000  
  21634079.537   113687654.186       -1226.444          49.000  
  21633996.751   113687479.298       -1226.223          49.000  
  21841202.770   114776284.652       -1226.242          37.000  
  21493642.482   112949837.100       -1226.276          39.000  
  21793145.131   114523772.635       -1226.267          39.000  
  21634107.645   113687965.806       -1226.386          48.000  
  21558403.545   113290191.268       -1226.255          38.000  
  21542584.620   113207038.208       -1226.090          34.000  
  21778487.695   114446694.295       -1226.618          37.000  
  21634003.655   113687701.106       -1226.229          49.000  
  21564283.625   113321063.646       -1226.282          38.000  
  21770540.671                       -1226.351          38.000  
  21715190.541   114114119.176       -1226.411          38.000  
  21545510.630   113222464.233       -1226.329          41.000  
  21701708.116   114043232.224       -1225.695          33.000  
  21669766.328   113875344.182       -1226.156          39.000  
  21633932.249   113687490.455       -1226.391          49.000  
  21660389.124   113826146.615       -1226.261          39.000  
  21671820.690   113886223.191       -1226.143          37.000  
  21528514.112   113133078.243       -1226.011          38.000  
  21801347.407   114566867.050       -1226.463          38.000  
  21628734.743   113659764.851       -1226.149          40.000  
  21720167.529   114140270.469       -1226.482          38.000  
  21787865.191   114496021.720       -1226.298          40.000  
  21731016.860   114197251.219       -1226.121          38.000  
  21580680.384   113407271.679       -1226.504          38.000  
  21544339.921   113216277.876       -1226.439          38.000  
 25  8 12  8 50  8.2000000  0 30G 5G 1G 2G 3G 4G27G18G 9G 7G24G25G10
                                G 6G16G12G19G21G13G30G 8G28G22G32G11
                                G23G17G14G26G20G15
  21634055.369   113687792.259       -1226.305          46.000  
  21634044.592   113687691.207       -1226.294          49.000  
  21634111.152   113687957.409       -1226.262          49.000  
  21634126.222   113687899.424       -1226.256          49.000  
  21634043.385   113687724.539       -1226.302          49.000  
  21841249.491   114776529.895       -1226.459          37.000  
  21493689.113   112950082.335       -1226.372          39.000  
  21793191.730   114524017.870       -1226.350          39.000  
  21634154.065   113688211.039       -1226.221          48.000  
  21558450.180   113290436.501       -1226.312          38.000  
  21542631.320   113207283.442       -1226.368          34.000  
  21778534.388   114446939.534       -1226.101          38.000  
  21634050.307   113687946.346       -1226.281          49.000  
  21564330.345   113321308.885       -1226.290          38.000  
  21770588.569                       -1226.351          38.000  
  21715237.228   114114364.407       -1226.264          38.000  
  21545557.287   113222709.468       -1226.307          41.000  
  21701754.900   114043477.459       -1226.462          33.000  
  21669812.966   113875589.422       -1226.374          39.000  
  21633979.240   113687735.691       -1226.258          48.000  
  21660435.795   113826391.852       -1226.370          39.000  
  21671867.375   113886468.431       -1226.350          37.000  
  21528560.818   113133323.485       -1226.442          38.000  
  21801394.083   114567112.287       -1226.198          38.000  
  21628781.399   113660010.089       -1226.388          38.000  
  21720214.172   114140515.705       -1226.162          38.000  
  21787911.856   114496266.960       -1226.289          41.000  
  21731063.536   114197496.452       -1226.440          37.000  
  21580727.062   113407516.915       -1226.172          38.000  
  21544386.611   113216523.110       -1226.233          39.000  
 25  8 12  8 50  8.4000000  0 30G 5G 1G 2G 3G 4G27G18G 9G 7G24G25G10
                                G 6G16G12G19G21G13G30G 8G28G22G32G11
                                G23G17G14G26G20G15
  21634102.028   113688037.505       -1226.339          46.000  
  21634091.245   113687936.448       -1226.304          49.000  
  21634157.819   113688202.653       -1226.374          49.000  
  21634172.906   113688144.663       -1226.298          49.000  
  21634090.009   113687969.779       -1226.343          49.000  
  21841296.159   114776775.133       -1226.288          37.000  
  21493735.796   112950327.571       -1226.260          39.000  
  21793238.408   114524263.107       -1226.312          38.000  
  21634200.111   113688456.288       -1226.279          48.000  
  21558496.841   113290681.734       -1226.294          38.000  
  21542677.983   113207528.675       -1226.285          34.000  
  21778581.033   114447184.784       -1226.453          38.000  
  21634096.985   113688191.586       -1226.324          49.000  
  21564377.031   113321554.121       -1226.226          38.000  
  21770636.483                       -1226.351          38.000  
  21715283.897   114114609.647       -1226.418          37.000  
  21545603.926   113222954.706       -1226.218          41.000  
  21701801.644   114043722.685       -1226.183          33.000  
  21669859.599   113875834.661       -1226.375          39.000  
  21634026.414   113687980.934       -1226.355          48.000  
  21660482.475   113826637.088       -1226.232          39.000  
  21671914.089   113886713.669       -1226.364          37.000  
  21528607.531   113133568.719       -1226.320          38.000  
  21801440.753   114567357.531       -1226.274          38.000  
  21628828.056   113660255.328       -1226.306          38.000  
  21720260.848   114140760.951       -1226.210          38.000  
  21787958.538   114496512.199       -1226.299          41.000  
  21731110.176   114197741.681       -1226.316          37.000  
  21580773.712   113407762.159       -1226.324          38.000  
  21544433.269   113216768.354       -1226.271          39.000  
 25  8 12  8 50  8.6000000  0 30G 5G 1G 2G 3G 4G27G18G 9G 7G24G25G10
                                G 6G16G12G19G21G13G30G 8G28G22G32G11
                                G23G17G14G26G20G15
  21634148.673   113688282.727       -1226.173          46.000  
  21634137.876   113688181.676       -1226.241          49.000  
  21634204.495   113688447.877       -1226.169          49.000  
  21634219.596   113688389.895       -1226.252          49.000  
  21634136.648   113688215.004       -1226.185          49.000  
  21841342.900   114777020.361       -1226.365          37.000  
  21493782.461   112950572.800       -1226.191          39.000  
  21793285.006   114524508.332       -1226.134          38.000  
  21634246.280   113688701.517       -1226.282          48.000  
  21558543.483   113290926.968       -1226.228          38.000  
  21542724.663   113207773.903       -1226.115          34.000  
  21778627.690   114447430.001       -1226.130          38.000  
  21634143.631   113688436.814       -1226.188          49.000  
  21564423.734   113321799.354       -1226.194          38.000  
  21770682.602                       -1226.351          38.000  
  21715330.566   114114854.868       -1226.087          37.000  
  21545650.588   113223199.938       -1226.245          41.000  
  21701848.357   114043967.916       -1226.159          32.000  
  21669906.254   113876079.884       -1226.212          39.000  
  21634073.594   113688226.160       -1226.204          48.000  
  21660529.117   113826882.316       -1226.164          39.000  
  21671960.799   113886958.897       -1226.249          37.000  
  21528654.196   113133813.946       -1226.199          39.000  
  21801487.448   114567602.760       -1226.269          38.000  
  21628874.713   113660500.554       -1226.233          38.000  
  21720307.514   114141006.173       -1226.195          38.000  
  21788005.174   114496757.426       -1226.217          41.000  
  21731156.853   114197986.912       -1226.094          37.000  
  21580820.389   113408007.384       -1226.190          38.000  
  21544479.904   113217013.578       -1226.232          39.000  
 25  8 12  8 50  8.8000000  0 30G 5G 1G 2G 3G 4G27G18G 9G 7G24G25G10
                                G 6G16G12G19G21G13G30G 8G28G22G32G11
                                G23G17G14G26G20G15
  21634195.355   113688527.942       -1226.007          46.000  
  21634184.533   113688426.888       -1226.000          49.000  
  21634251.154   113688693.084       -1225.937          49.000  
  21634266.285   113688635.100       -1225.950          49.000  
  21634183.295   113688460.217       -1225.928          49.000  
  21841389.544   114777265.567       -1226.000          37.000  
  21493829.097   112950818.010       -1225.964          39.000  
  21793331.649   114524753.552       -1226.137          38.000  
  21634292.542   113688946.728       -1226.009          48.000  
  21558590.172   113291172.182       -1226.044          38.000  
  21542771.302   113208019.123       -1226.124          34.000  
  21778674.332   114447675.219       -1226.012          38.000  
  21634190.304   113688682.022       -1225.955          49.000  
  21564470.420   113322044.566       -1225.930          37.000  
  21770727.235                       -1226.351          38.000  
  21715377.201   114115100.085       -1226.065          37.000  
  21545697.246   113223445.151       -1225.980          42.000  
  21701895.082   114044213.126       -1226.050          32.000  
  21669952.914   113876325.098       -1225.992          39.000  
  21634120.607   113688471.373       -1226.022          48.000  
  21660575.819   113827127.528       -1225.967          39.000  
  21672007.505   113887204.107       -1226.033          37.000  
  21528700.827   113134059.155       -1225.983          39.000  
  21801534.119   114567847.971       -1226.009          39.000  
  21628921.367   113660745.770       -1225.961          38.000  
  21720354.212   114141251.389       -1225.955          38.000  
  21788051.864   114497002.637       -1226.010          41.000  
  21731203.493   114198232.131       -1226.056          37.000  
  21580867.011   113408252.601       -1226.053          38.000  
  21544526.574   113217258.790       -1225.947          39.000  
 25  8 12  8 50  9.0000000  0 30G 5G 1G 2G 3G 4G27G18G 9G 7G24G25G10
                                G 6G16G12G19G21G13G30G 8G28G22G32G11
                                G23G17G14G26G20G15
  21634241.995   113688773.156       -1226.187          46.000  
  21634231.207   113688672.104       -1226.170          49.000  
  21634297.818   113688938.309       -1226.168          49.000  
  21634312.970   113688880.316       -1226.228          49.000  
  21634229.954   113688705.438       -1226.149          49.000  
  21841436.243   114777510.809       -1226.355          37.000  
  21493875.782   112951063.244       -1226.261          39.000  
  21793378.274   114524998.760       -1226.252          38.000  
  21634339.790   113689191.940       -1226.227          48.000  
  21558636.805   113291417.361       -1226.108          38.000  
  21542817.971   113208264.345       -1226.260          34.000  
  21778720.986   114447920.410       -1226.242          38.000  
  21634236.971   113688927.241       -1226.117          49.000  
  21564517.126   113322289.795       -1226.174          38.000  
  21770776.435                       -1226.351          38.000  
  21715423.928   114115345.295       -1226.125          38.000  
  21545743.904   113223690.375       -1226.260          41.000  
  21701941.768   114044458.369       -1226.148          33.000  
  21669999.577   113876570.323       -1226.270          39.000  
  21634167.887   113688716.585       -1226.254          48.000  
  21660622.484   113827372.781       -1226.329          39.000  
  21672054.211   113887449.334       -1226.279          37.000  
  21528747.532   113134304.403       -1226.312          39.000  
  21801580.799   114568093.185       -1226.219          38.000  
  21628968.039   113660990.992       -1226.281          38.000  
  21720400.838   114141496.614       -1226.346          38.000  
  21788098.547   114497247.855       -1226.244          41.000  
  21731250.204   114198477.325       -1226.143          37.000  
  21580913.710   113408497.806       -1226.328          38.000  
  21544573.266   113217504.005       -1226.294          39.000  
 25  8 12  8 50  9.2000000  0 30G 5G 1G 2G 3G 4G27G18G 9G 7G24G25G10
                                G 6G16G12G19G21G13G30G 8G28G22G32G11
                                G23G17G14G26G20G15
  21634288.660   113689018.358       -1225.904          46.000  
  21634277.871   113688917.308       -1225.897          49.000  
  21634344.491   113689183.517       -1225.931          49.000  
  21634359.643   113689125.517       -1225.912          49.000  
  21634276.589   113688950.642       -1225.902          49.000  
  21841482.836   114777756.002       -1225.952          37.000  
  21493922.432   112951308.448       -1225.948          39.000  
  21793424.916   114525243.970       -1225.881          38.000  
  21634387.257   113689437.147       -1225.875          48.000  
  21558683.479   113291662.573       -1225.765          38.000  
  21542864.638   113208509.548       -1225.780          34.000  
  21778767.602   114448165.616       -1225.775          38.000  
  21634283.634   113689172.449       -1225.896          49.000  
  21564563.802   113322534.997       -1225.853          38.000  
  21770824.326                       -1226.351          38.000  
  21715470.556   114115590.507       -1225.873          38.000  
  21545790.570   113223935.576       -1225.911          41.000  
  21701988.459   114044703.570       -1225.864          33.000  
  21670046.233   113876815.526       -1225.935          39.000  
  21634215.374   113688961.793       -1225.894          48.000  
  21660669.192   113827617.977       -1225.985          39.000  
  21672100.878   113887694.534       -1225.892          38.000  
  21528794.182   113134549.595       -1225.880          39.000  
  21801627.453   114568338.393       -1225.869          38.000  
  21629014.699   113661236.191       -1225.873          38.000  
  21720447.518   114141741.811       -1225.886          38.000  
  21788145.233   114497493.058       -1225.918          41.000  
  21731296.835   114198722.538       -1225.756          37.000  
  21580960.333   113408743.005       -1225.873          38.000  
  21544619.932   113217749.208       -1225.896          39.000  
 25  8 12  8 50  9.4000000  0 30G 5G 1G 2G 3G 4G27G18G 9G 7G24G25G10
                                G 6G16G12G19G21G13G30G 8G28G22G32G11
                                G23G17G14G26G20G15
  21634335.324   113689263.621       -1226.387          46.000  
  21634324.528   113689162.560       -1226.346          49.000  
  21634391.158   113689428.769       -1226.354          49.000  
  21634406.323   113689370.770       -1226.360          49.000  
  21634323.268   113689195.895       -1226.351          49.000  
  21841529.546   114778001.258       -1226.366          37.000  
  21493969.143   112951553.699       -1226.381          39.000  
  21793471.518   114525489.222       -1226.501          38.000  
  21634434.741   113689682.398       -1226.357          49.000  
  21558730.119   113291907.833       -1226.500          38.000  
  21542911.344   113208754.803       -1226.351          34.000  
  21778814.292   114448410.876       -1226.465          38.000  
  21634330.328   113689417.702       -1226.373          49.000  
  21564610.492   113322780.254       -1226.406          38.000  
  21770873.841                       -1226.351          38.000  
  21715517.227   114115835.764       -1226.498          38.000  
  21545837.241   113224180.834       -1226.410          41.000  
  21702035.165   114044948.824       -1226.292          34.000  
  21670092.897   113877060.779       -1226.430          40.000  
  21634262.592   113689207.045       -1226.357          48.000  
  21660715.843   113827863.229       -1226.350          39.000  
  21672147.559   113887939.788       -1226.350          38.000  
  21528840.819   113134794.852       -1226.346          39.000  
  21801674.108   114568583.645       -1226.391          38.000  
  21629061.368   113661481.450       -1226.354          38.000  
  21720494.224   114141987.065       -1226.378          38.000  
  21788191.898   114497738.312       -1226.284          41.000  
  21731343.537   114198967.798       -1226.561          37.000  
  21581007.012   113408988.262       -1226.318          38.000  
  21544666.603   113217994.462       -1226.338          39.000  
 25  8 12  8 50  9.6000000  0 30G 5G 1G 2G 3G 4G27G18G 9G 7G24G25G10
                                G 6G16G12G19G21G13G30G 8G28G22G32G11
                                G23G17G14G26G20G15
  21634382.016   113689508.865       -1226.168          46.000  
  21634371.155   113689407.807       -1226.147          49.000  
  21634437.822   113689674.014       -1226.168          49.000  
  21634453.000   113689616.018       -1226.167          49.000  
  21634369.897   113689441.144       -1226.172          49.000  
  21841576.191   114778246.507       -1226.239          38.000  
  21494015.802   112951798.949       -1226.217          39.000  
  21793518.200   114525734.463       -1226.147          38.000  
  21634481.588   113689927.646       -1226.194          49.000  
  21558776.795   113292153.072       -1226.134          38.000  
  21542957.987   113209000.046       -1226.143          34.000  
  21778860.995   114448656.122       -1226.266          37.000  
  21634376.985   113689662.950       -1226.139          49.000  
  21564657.144   113323025.494       -1226.072          38.000  
  21770922.892                       -1226.351          38.000  
  21715563.923   114116081.004       -1226.205          38.000  
  21545883.899   113224426.079       -1226.173          41.000  
  21702081.879   114045194.063       -1225.943          34.000  
  21670139.560   113877306.021       -1226.101          40.000  
  21634309.832   113689452.292       -1226.181          48.000  
  21660762.505   113828108.473       -1226.088          39.000  
  21672194.272   113888185.039       -1226.232          38.000  
  21528887.485   113135040.096       -1226.093          39.000  
  21801720.772   114568828.885       -1226.003          38.000  
  21629108.009   113661726.700       -1226.213          38.000  
  21720540.887   114142232.316       -1226.158          38.000  
  21788238.570   114497983.559       -1226.153          41.000  
  21731390.180   114199213.035       -1226.146          37.000  
  21581053.662   113409233.515       -1226.265          38.000  
  21544713.255   113218239.708       -1226.155          39.000  
 25  8 12  8 50  9.8000000  0 30G 5G 1G 2G 3G 4G27G18G 9G 7G24G25G10
                                G 6G16G12G19G21G13G30G 8G28G22G32G11
                                G23G17G14G26G20G15
  21634428.648   113689754.108       -1226.433          46.000  
  21634417.798   113689653.053       -1226.433          49.000  
  21634484.504   113689919.249       -1226.168          49.000  
  21634499.674   113689861.270       -1226.536          49.000  
  21634416.574   113689686.383       -1226.361          49.000  
  21841622.879   114778491.748       -1226.426          38.000  
  21494062.466   112952044.189       -1226.422          39.000  
  21793564.797   114525979.718       -1226.622          38.000  
  21634528.297   113690172.889       -1226.455          49.000  
  21558823.425   113292398.329       -1226.792          38.000  
  21543004.648   113209245.283       -1226.289          34.000  
  21778907.648   114448901.383       -1226.719          37.000  
  21634423.663   113689908.190       -1226.321          49.000  
  21564703.832   113323270.731       -1226.348          38.000  
  21770968.603                       -1226.351          38.000  
  21715610.608   114116326.240       -1226.320          38.000  
  21545930.580   113224671.319       -1226.390          41.000  
  21702128.624   114045439.304       -1226.343          34.000  
  21670186.247   113877551.271       -1226.471          40.000  
  21634356.963   113689697.538       -1226.518          48.000  
  21660809.159   113828353.692       -1225.940          39.000  
  21672240.948   113888430.268       -1226.217          38.000  
  21528934.200   113135285.343       -1226.401          39.000  
  21801767.428   114569074.131       -1226.510          38.000  
  21629154.687   113661971.938       -1226.355          38.000  
  21720587.556   114142477.554       -1226.395          38.000  
  21788285.250   114498228.808       -1226.504          41.000  
  21731436.897   114199458.283       -1226.561          37.000  
  21581100.344   113409478.759       -1226.439          38.000  
  21544759.915   113218484.953       -1226.495          38.000  
 25  8 12  8 50 10.0000000  0 30G 5G 1G 2G 3G 4G27G18G 9G 7G24G25G10
                                G 6G16G12G19G21G13G30G 8G28G22G32G11
                                G23G17G14G26G20G15
  21634475.296   113689999.345       -1226.238          46.000  
  21634464.435   113689898.289       -1226.225          49.000  
  21634531.155   113690164.490       -1226.237          49.000  
  21634546.352   113690106.511       -1226.216          49.000  
  21634463.209   113689931.623       -1226.276          49.000  
  21841669.521   114778736.983       -1226.185          37.000  
  21494109.097   112952289.424       -1226.239          40.000  
  21793611.500   114526224.957       -1226.133          38.000  
  21634574.287   113690418.126       -1226.211          48.000  
  21558870.111   113292643.570       -1226.073          38.000  
  21543051.307   113209490.526       -1226.428          34.000  
  21778954.301   114449146.621       -1226.088          39.000  
  21634470.331   113690153.429       -1226.230          49.000  
  21564750.509   113323515.975       -1226.313          38.000  
  21771012.755                       -1226.351          38.000  
  21715657.267   114116571.479       -1226.375          38.000  
  21545977.232   113224916.557       -1226.191          41.000  
  21702175.227   114045684.546       -1226.235          34.000  
  21670232.914   113877796.508       -1226.178          39.000  
  21634402.594   113689942.776       -1226.200          48.000  
  21660855.836   113828598.928       -1226.464          39.000  
  21672287.643   113888675.512       -1226.413          37.000  
  21528980.838   113135530.582       -1226.230          39.000  
  21801814.125   114569319.367       -1226.108          38.000  
  21629201.343   113662217.185       -1226.293          38.000  
  21720634.201   114142722.786       -1226.253          38.000  
  21788331.904   114498474.044       -1226.211          41.000  
  21731483.531   114199703.522       -1226.139          37.000  
  21581147.006   113409723.998       -1226.357          38.000  
  21544806.589   113218730.189       -1226.140          38.000  
 25  8 12  8 50 10.2000000  0 30G 5G 1G 2G 3G 4G27G18G 9G 7G24G25G10
                                G 6G16G12G19G21G13G30G 8G28G22G32G11
                                G23G17G14G26G20G15
  21634521.923   113690244.594       -1226.187          46.000  
  21634511.050   113690143.538       -1226.220          49.000  
  21634577.824   113690409.731       -1226.175          49.000  
  21634593.051   113690351.753       -1226.138          49.000  
  21634509.826   113690176.866       -1226.188          49.000  
  21841716.225   114778982.228       -1226.201          37.000  
  21494155.808   112952534.666       -1226.178          40.000  
  21793658.104   114526470.202       -1226.222          38.000  
  21634620.576   113690663.378       -1226.213          48.000  
  21558916.782   113292888.831       -1226.276          38.000  
  21543097.959   113209735.765       -1226.290          34.000  
  21779000.981   114449391.872       -1226.351          39.000  
  21634516.973   113690398.671       -1226.146          49.000  
  21564797.234   113323761.220       -1226.222          38.000  
  21771057.613                       -1226.351          38.000  
  21715703.917   114116816.713       -1226.186          38.000  
  21546023.961   113225161.802       -1226.180          41.000  
  21702221.919   114045929.802       -1226.198          33.000  
  21670279.626   113878041.751       -1226.130          39.000  
  21634448.447   113690188.018       -1226.196          48.000  
  21660902.480   113828844.165       -1226.177          39.000  
  21672334.320   113888920.749       -1226.211          37.000  
  21529027.491   113135775.829       -1226.200          39.000  
  21801860.794   114569564.618       -1226.138          39.000  
  21629248.007   113662462.429       -1226.260          38.000  
  21720680.840   114142968.038       -1226.238          38.000  
  21788378.550   114498719.286       -1226.162          41.000  
  21731530.236   114199948.770       -1226.168          37.000  
  21581193.681   113409969.235       -1226.152          38.000  
  21544853.287   113218975.445       -1226.229          38.000  
 25  8 12  8 50 10.4000000  0 30G 5G 1G 2G 3G 4G27G18G 9G 7G24G25G10
                                G 6G16G12G19G21G13G30G 8G28G22G32G11
                                G23G17G14G26G20G15
  21634568.663   113690489.842       -1226.436          46.000  
  21634557.688   113690388.782       -1226.319          49.000  
  21634624.498   113690654.977       -1226.245          49.000  
  21634639.757   113690596.997       -1226.297          49.000  
  21634556.507   113690422.110       -1226.284          49.000  
  21841762.866   114779227.477       -1226.396          37.000  
  21494202.454   112952779.912       -1226.305          40.000  
  21793704.803   114526715.451       -1226.447          38.000  
  21634666.443   113690908.619       -1226.419          48.000  
  21558963.451   113293134.067       -1226.361          38.000  
  21543144.639   113209981.013       -1226.514          34.000  
  21779047.675   114449637.115       -1226.531          39.000  
  21634563.650   113690643.915       -1226.273          49.000  
  21564843.906   113324006.459       -1226.255          38.000  
  21771105.294                       -1226.351          38.000  
  21715750.553   114117061.959       -1226.391          38.000  
  21546070.645   113225407.047       -1226.359          41.000  
  21702268.689   114046175.052       -1226.368          33.000  
  21670326.322   113878286.997       -1226.331          39.000  
  21634494.190   113690433.264       -1226.338          48.000  
  21660949.130   113829089.408       -1226.238          39.000  
  21672381.043   113889165.995       -1226.442          37.000  
  21529074.141   113136021.074       -1226.385          38.000  
  21801907.460   114569809.865       -1226.303          39.000  
  21629294.669   113662707.677       -1226.470          38.000  
  21720727.514   114143213.282       -1226.341          37.000  
  21788425.238   114498964.535       -1226.394          41.000  
  21731576.862   114200194.013       -1226.420          37.000  
  21581240.382   113410214.481       -1226.381          38.000  
  21544899.996   113219220.684       -1226.342          38.000  
 25  8 12  8 50 10.6000000  0 30G 5G 1G 2G 3G 4G27G18G 9G 7G24G25G10
                                G 6G16G12G19G21G13G30G 8G28G22G32G11
                                G23G17G14G26G20G15
  21634615.294   113690735.065       -1226.210          46.000  
  21634604.335   113690634.013       -1226.240          49.000  
  21634671.175   113690900.212       -1226.226          49.000  
  21634686.439   113690842.229       -1226.161          49.000  
  21634603.160   113690667.340       -1226.201          49.000  
  21841809.530   114779472.708       -1226.305          37.000  
  21494249.115   112953025.142       -1226.189          40.000  
  21793751.428   114526960.678       -1226.221          38.000  
  21634712.436   113691153.843       -1226.224          48.000  
  21559010.087   113293379.296       -1226.246          38.000  
  21543191.315   113210226.240       -1226.198          34.000  
  21779094.336   114449882.340       -1226.125          39.000  
  21634610.308   113690889.144       -1226.188          49.000  
  21564890.604   113324251.691       -1226.182          38.000  
  21771154.360                       -1226.351          38.000  
  21715797.252   114117307.188       -1226.157          38.000  
  21546117.323   113225652.276       -1226.228          41.000  
  21702315.422   114046420.272       -1226.219          33.000  
  21670373.010   113878532.227       -1226.202          39.000  
  21634539.888   113690678.491       -1226.221          49.000  
  21660995.795   113829334.635       -1226.156          39.000  
  21672427.698   113889411.226       -1226.246          37.000  
  21529120.832   113136266.308       -1226.268          38.000  
  21801954.112   114570055.090       -1226.281          39.000  
  21629341.312   113662952.904       -1226.131          37.000  
  21720774.152   114143458.513       -1226.237          37.000  
  21788471.910   114499209.762       -1226.215          41.000  
  21731623.569   114200439.238       -1226.152          37.000  
  21581287.036   113410459.706       -1226.163          38.000  
  21544946.651   113219465.908       -1226.191          38.000  
 25  8 12  8 50 10.8000000  0 30G 5G 1G 2G 3G 4G27G18G 9G 7G24G25G10
                                G 6G16G12G19G21G13G30G 8G28G22G32G11
                                G23G17G14G26G20G15
  21634662.004   113690980.302       -1226.191          46.000  
  21634650.936   113690879.250       -1226.150          49.000  
  21634717.840   113691145.453       -1226.027          49.000  
  21634733.119   113691087.458       -1226.150          49.000  
  21634649.799   113690912.575       -1226.152          49.000  
  21841856.208   114779717.957       -1226.181          38.000  
  21494295.755   112953270.356       -1226.101          40.000  
  21793798.083   114527205.906       -1226.176          38.000  
  21634758.365   113691399.083       -1226.164          48.000  
  21559056.774   113293624.481       -1226.189          38.000  
  21543237.939   113210471.475       -1226.125          34.000  
  21779140.963   114450127.534       -1225.958          37.000  
  21634656.975   113691134.385       -1226.141          49.000  
  21564937.240   113324496.945       -1226.254          38.000  
  21771201.470                       -1226.351          38.000  
  21715843.945   114117552.448       -1226.210          38.000  
  21546163.970   113225897.527       -1226.207          41.000  
  21702362.121   114046665.536       -1226.290          33.000  
  21670419.680   113878777.470       -1226.167          39.000  
  21634586.604   113690923.722       -1226.155          48.000  
  21661042.508   113829579.900       -1226.221          39.000  
  21672474.402   113889656.492       -1226.130          37.000  
  21529167.483   113136511.558       -1226.166          38.000  
  21802000.778   114570300.318       -1226.319          39.000  
  21629387.992   113663198.133       -1226.077          38.000  
  21720820.810   114143703.752       -1226.231          38.000  
  21788518.584   114499455.005       -1226.187          41.000  
  21731670.231   114200684.454       -1226.105          37.000  
  21581333.701   113410704.927       -1226.049          38.000  
  21544993.351   113219711.161       -1226.200          38.000  
 25  8 12  8 50 11.0000000  0 30G 5G 1G 2G 3G 4G27G18G 9G 7G24G25G10
                                G 6G16G12G19G21G13G30G 8G28G22G32G11
                                G23G17G14G26G20G15
  21634708.639   113691225.540       -1226.224          46.000  
  21634697.569   113691124.490       -1226.212          49.000  
  21634764.526   113691390.693       -1226.174          49.000  
  21634779.819   113691332.695       -1226.161          49.000  
  21634696.448   113691157.815       -1226.205          49.000  
  21841902.889   114779963.191       -1226.246          39.000  
  21494342.458   112953515.599       -1226.162          40.000  
  21793844.710   114527451.143       -1226.158          38.000  
  21634804.214   113691644.324       -1226.223          48.000  
  21559103.390   113293869.730       -1225.981          38.000  
  21543284.598   113210716.718       -1226.257          34.000  
  21779187.633   114450372.787       -1226.159          37.000  
  21634703.641   113691379.623       -1226.198          49.000  
  21564983.917   113324742.182       -1226.244          38.000  
  21771249.401                       -1226.351          38.000  
  21715890.591   114117797.685       -1226.271          38.000  
  21546210.648   113226142.764       -1226.298          41.000  
  21702408.823   114046910.778       -1226.309          33.000  
  21670466.324   113879022.708       -1226.217          40.000  
  21634633.738   113691168.962       -1226.212          48.000  
  21661089.132   113829825.130       -1226.219          38.000  
  21672521.118   113889901.727       -1226.211          37.000  
  21529214.186   113136756.793       -1226.246          39.000  
  21802047.438   114570545.556       -1226.124          39.000  
  21629434.673   113663443.376       -1226.242          38.000  
  21720867.486   114143948.988       -1226.201          38.000  
  21788565.239   114499700.238       -1226.198          41.000  
  21731716.951   114200929.704       -1226.147          37.000  
  21581380.386   113410950.173       -1226.194          38.000  
  21545040.040   113219956.396       -1226.259          38.000  
 25  8 12  8 50 11.2000000  0 30G 5G 1G 2G 3G 4G27G18G 9G 7G24G25G10
                                G 6G16G12G19G21G13G30G 8G28G22G32G11
                                G23G17G14G26G20G15
  21634755.336   113691470.767       -1226.110          46.000  
  21634744.183   113691369.713       -1226.064          49.000  
  21634811.193   113691635.915       -1226.039          49.000  
  21634826.500   113691577.921       -1226.077          49.000  
  21634743.098   113691403.040       -1226.071          49.000  
  21841949.593   114780208.419       -1226.127          39.000  
  21494389.107   112953760.826       -1226.141          40.000  
  21793891.408   114527696.368       -1226.116          38.000  
  21634850.059   113691889.550       -1226.150          48.000  
  21559150.027   113294114.964       -1226.146          38.000  
  21543331.283   113210961.937       -1226.073          34.000  
  21779234.268   114450618.011       -1226.071          37.000  
  21634750.300   113691624.847       -1226.071          49.000  
  21565030.579   113324987.408       -1226.116          38.000  
  21771299.173                       -1226.351          38.000  
  21715937.239   114118042.906       -1226.165          38.000  
  21546257.305   113226387.988       -1226.144          41.000  
  21702455.486   114047155.994       -1226.046          33.000  
  21670513.019   113879267.933       -1226.129          40.000  
  21634680.828   113691414.188       -1226.143          48.000  
  21661135.792   113830070.354       -1226.091          38.000  
  21672567.877   113890146.951       -1226.072          37.000  
  21529260.846   113137002.015       -1226.036          39.000  
  21802094.100   114570790.781       -1226.130          39.000  
  21629481.370   113663688.602       -1226.121          38.000  
  21720914.115   114144194.211       -1226.046          38.000  
  21788611.922   114499945.461       -1226.084          41.000  
  21731763.583   114201174.928       -1226.111          37.000  
  21581427.043   113411195.399       -1226.178          39.000  
  21545086.730   113220201.620       -1226.116          38.000  
 25  8 12  8 50 11.4000000  0 30G 5G 1G 2G 3G 4G27G18G 9G 7G24G25G10
                                G 6G16G12G19G21G13G30G 8G28G22G32G11
                                G23G17G14G26G20G15
  21634801.981   113691715.976       -1226.186          46.000  
  21634790.767   113691614.927       -1226.178          49.000  
  21634857.852   113691881.130       -1226.205          49.000  
  21634873.182   113691823.133       -1226.157          49.000  
  21634789.740   113691648.248       -1226.121          49.000  
  21841996.270   114780453.626       -1226.192          39.000  
  21494435.779   112954006.035       -1226.234          39.000  
  21793938.011   114527941.580       -1226.157          38.000  
  21634896.020   113692134.758       -1226.154          48.000  
  21559196.658   113294360.171       -1226.140          38.000  
  21543377.950   113211207.152       -1226.184          34.000  
  21779280.950   114450863.223       -1226.144          37.000  
  21634796.966   113691870.059       -1226.170          49.000  
  21565077.276   113325232.620       -1226.193          38.000  
  21771344.031                       -1226.351          38.000  
  21715983.933   114118288.114       -1226.160          38.000  
  21546303.939   113226633.196       -1226.140          41.000  
  21702502.153   114047401.210       -1226.161          33.000  
  21670559.662   113879513.139       -1226.159          40.000  
  21634727.826   113691659.396       -1226.133          48.000  
  21661182.454   113830315.564       -1226.219          38.000  
  21672614.589   113890392.160       -1226.166          37.000  
  21529307.508   113137247.224       -1226.121          39.000  
  21802140.726   114571035.992       -1226.117          39.000  
  21629528.063   113663933.812       -1226.178          38.000  
  21720960.793   114144439.423       -1226.137          38.000  
  21788658.600   114500190.673       -1226.170          41.000  
  21731810.299   114201420.138       -1226.184          37.000  
  21581473.716   113411440.602       -1226.096          39.000  
  21545133.398   113220446.827       -1226.066          38.000  
 25  8 12  8 50 11.6000000  0 30G 5G 1G 2G 3G 4G27G18G 9G 7G24G25G10
                                G 6G16G12G19G21G13G30G 8G28G22G32G11
                                G23G17G14G26G20G15
  21634848.719   113691961.224       -1226.136          46.000  
  21634837.444   113691860.170       -1226.150          49.000  
  21634904.531   113692126.372       -1226.176          49.000  
  21634919.859   113692068.381       -1226.269          49.000  
  21634836.420   113691893.502       -1226.308          49.000  
  21842042.933   114780698.861       -1225.919          39.000  
  21494482.442   112954251.290       -1226.361          39.000  
  21793984.659   114528186.830       -1226.220          38.000  
  21634942.172   113692380.006       -1226.182          48.000  
  21559243.346   113294605.454       -1226.910          38.000  
  21543424.603   113211452.412       -1226.450          34.000  
  21779327.610   114451108.476       -1226.237          37.000  
  21634843.627   113692115.308       -1226.275          49.000  
  21565123.959   113325477.861       -1226.141          38.000  
  21771389.631                       -1226.351          38.000  
  21716030.571   114118533.366       -1226.313          38.000  
  21546350.645   113226878.443       -1226.155          41.000  
  21702548.840   114047646.445       -1225.942          33.000  
  21670606.330   113879758.387       -1226.128          40.000  
  21634774.734   113691904.650       -1226.266          48.000  
  21661229.144   113830560.819       -1226.385          38.000  
  21672661.343   113890637.403       -1226.089          37.000  
  21529354.157   113137492.464       -1225.994          39.000  
  21802187.383   114571281.257       -1226.434          39.000  
  21629574.765   113664179.063       -1226.285          38.000  
  21721007.462   114144684.669       -1226.207          38.000  
  21788705.270   114500435.922       -1226.247          41.000  
  21731856.926   114201665.411       -1226.721          37.000  
  21581520.395   113411685.863       -1226.384          39.000  
  21545180.118   113220692.077       -1226.172          38.000  
 25  8 12  8 50 11.8000000  0 30G 5G 1G 2G 3G 4G27G18G 9G 7G24G25G10
                                G 6G16G12G19G21G13G30G 8G28G22G32G11
                                G23G17G14G26G20G15
  21634895.368   113692206.449       -1226.298          46.000  
  21634884.073   113692105.398       -1226.296          49.000  
  21634951.188   113692371.597       -1226.183          49.000  
  21634966.542   113692313.604       -1226.187          49.000  
  21634883.096   113692138.731       -1226.230          49.000  
  21842089.598   114780944.086       -1226.223          38.000  
  21494529.171   112954496.516       -1226.177          40.000  
  21794031.254   114528432.053       -1226.214          38.000  
  21634989.796   113692625.232       -1226.270          48.000  
  21559289.980   113294850.678       -1226.027          38.000  
  21543471.250   113211697.636       -1226.235          34.000  
  21779374.248   114451353.699       -1226.114          37.000  
  21634890.276   113692360.532       -1226.231          49.000  
  21565170.633   113325723.086       -1226.437          38.000  
  21771436.503                       -1226.351          38.000  
  21716077.285   114118778.588       -1226.342          38.000  
  21546397.266   113227123.667       -1226.218          41.000  
  21702595.575   114047891.674       -1226.551          33.000  
  21670652.968   113880003.612       -1226.231          40.000  
  21634821.042   113692149.871       -1226.187          48.000  
  21661275.790   113830806.040       -1226.097          38.000  
  21672708.003   113890882.624       -1226.305          37.000  
  21529400.861   113137737.692       -1226.364          39.000  
  21802234.055   114571526.479       -1226.241          39.000  
  21629621.429   113664424.288       -1226.187          39.000  
  21721054.106   114144929.891       -1226.112          38.000  
  21788751.933   114500681.150       -1226.204          41.000  
  21731903.582   114201910.636       -1226.219          37.000  
  21581567.087   113411931.086       -1226.069          38.000  
  21545226.756   113220937.299       -1226.321          38.000  
 25  8 12  8 50 12.0000000  0 30G 5G 1G 2G 3G 4G27G18G 9G 7G24G25G10
                                G 6G16G12G19G21G13G30G 8G28G22G32G11
                                G23G17G14G26G20G15
  21634942.061   113692451.687       -1226.318          46.000  
  21634930.706   113692350.637       -1226.336          49.000  
  21634997.849   113692616.840       -1226.343          49.000  
  21635013.224   113692558.847       -1226.354          49.000  
  21634929.718   113692383.971       -1226.349          49.000  
  21842136.276   114781189.333       -1226.463          38.000  
  21494575.795   112954741.762       -1226.367          40.000  
  21794077.941   114528677.294       -1226.279          38.000  
  21635037.390   113692870.471       -1226.323          48.000  
  21559336.622   113295095.925       -1226.234          38.000  
  21543517.927   113211942.872       -1226.333          34.000  
  21779420.953   114451598.947       -1226.507          37.000  
  21634936.935   113692605.774       -1226.341          49.000  
  21565217.291   113325968.317       -1226.194          38.000  
  21771481.710                       -1226.351          38.000  
  21716123.958   114119023.820       -1226.168          38.000  
  21546443.914   113227368.910       -1226.388          41.000  
  21702642.228   114048136.897       -1226.211          33.000  
  21670699.666   113880248.853       -1226.369          40.000  
  21634867.517   113692395.116       -1226.367          48.000  
  21661322.437   113831051.285       -1226.339          38.000  
  21672754.714   113891127.861       -1226.369          37.000  
  21529447.521   113137982.928       -1226.365          39.000  
  21802280.752   114571771.724       -1226.293          39.000  
  21629668.118   113664669.531       -1226.336          39.000  
  21721100.799   114145175.141       -1226.408          38.000  
  21788798.593   114500926.395       -1226.438          41.000  
  21731950.239   114202155.871       -1226.157          37.000  
  21581613.744   113412176.336       -1226.401          38.000  
  21545273.435   113221182.542       -1226.383          39.000  
 25  8 12  8 50 12.2000000  0 30G 5G 1G 2G 3G 4G27G18G 9G 7G24G25G10
                                G 6G16G12G19G21G13G30G 8G28G22G32G11
                                G23G17G14G26G20G15
  21634988.685   113692696.920       -1226.274          46.000  
  21634977.364   113692595.869       -1226.267          49.000  
  21635044.527   113692862.070       -1226.246          49.000  
  21635059.910   113692804.077       -1226.253          49.000  
  21634976.327   113692629.201       -1226.261          49.000  
  21842182.952   114781434.553       -1226.263          38.000  
  21494622.467   112954986.991       -1226.315          40.000  
  21794124.575   114528922.526       -1226.194          38.000  
  21635084.967   113693115.701       -1226.229          48.000  
  21559383.292   113295341.162       -1226.300          38.000  
  21543564.612   113212188.101       -1226.184          34.000  
  21779467.581   114451844.165       -1226.227          37.000  
  21634983.601   113692851.005       -1226.272          49.000  
  21565263.972   113326213.553       -1226.256          38.000  
  21771528.321                       -1226.351          38.000  
  21716170.661   114119269.059       -1226.152          38.000  
  21546490.590   113227614.137       -1226.290          41.000  
  21702688.912   114048382.144       -1226.365          33.000  
  21670746.315   113880494.079       -1226.249          40.000  
  21634913.907   113692640.344       -1226.261          49.000  
  21661369.082   113831296.515       -1226.233          38.000  
  21672801.375   113891373.091       -1226.243          37.000  
  21529494.194   113138228.157       -1226.256          39.000  
  21802327.404   114572016.960       -1226.344          39.000  
  21629714.795   113664914.758       -1226.256          39.000  
  21721147.491   114145420.368       -1226.312          38.000  
  21788845.270   114501171.620       -1226.268          41.000  
  21731996.899   114202401.108       -1226.141          37.000  
  21581660.422   113412421.563       -1226.222          38.000  
  21545320.056   113221427.773       -1226.310          39.000  
 25  8 12  8 50 12.4000000  0 30G 5G 1G 2G 3G 4G27G18G 9G 7G24G25G10
                                G 6G16G12G19G21G13G30G 8G28G22G32G11
                                G23G17G14G26G20G15
  21635035.394   113692942.165       -1226.385          46.000  
  21635023.994   113692841.117       -1226.444          49.000  
  21635091.183   113693107.318       -1226.444          49.000  
  21635106.595   113693049.327       -1226.491          49.000  
  21635022.977   113692874.449       -1226.417          49.000  
  21842229.636   114781679.801       -1226.392          37.000  
  21494669.132   112955232.237       -1226.475          40.000  
  21794171.272   114529167.777       -1226.441          38.000  
  21635132.440   113693360.950       -1226.430          48.000  
  21559429.968   113295586.412       -1226.512          38.000  
  21543611.280   113212433.356       -1226.411          34.000  
  21779514.260   114452089.419       -1226.431          37.000  
  21635030.282   113693096.252       -1226.424          49.000  
  21565310.650   113326458.806       -1226.433          38.000  
  21771576.954                       -1226.351          38.000  
  21716217.317   114119514.312       -1226.450          38.000  
  21546537.219   113227859.385       -1226.467          41.000  
  21702735.571   114048627.389       -1226.456          33.000  
  21670793.022   113880739.327       -1226.420          40.000  
  21634960.453   113692885.592       -1226.432          48.000  
  21661415.740   113831541.762       -1226.444          38.000  
  21672848.083   113891618.340       -1226.406          37.000  
  21529540.876   113138473.408       -1226.447          39.000  
  21802374.125   114572262.201       -1226.401          39.000  
  21629761.480   113665160.006       -1226.420          39.000  
  21721194.156   114145665.610       -1226.423          38.000  
  21788891.947   114501416.868       -1226.473          41.000  
  21732043.522   114202646.373       -1226.473          37.000  
  21581707.093   113412666.813       -1226.508          38.000  
  21545366.736   113221673.017       -1226.429          39.000  
 25  8 12  8 50 12.6000000  0 30G 5G 1G 2G 3G 4G27G18G 9G 7G24G25G10
                                G 6G16G12G19G21G13G30G 8G28G22G32G11
                                G23G17G14G26G20G15
  21635082.015   113693187.412       -1226.117          46.000  
  21635070.647   113693086.363       -1226.115          49.000  
  21635137.842   113693352.562       -1226.189          49.000  
  21635153.270   113693294.572       -1226.115          49.000  
  21635069.575   113693119.694       -1226.130          49.000  
  21842276.290   114781925.046       -1226.246          37.000  
  21494715.829   112955477.490       -1226.104          39.000  
  21794217.903   114529413.011       -1226.031          38.000  
  21635179.223   113693606.192       -1226.058          48.000  
  21559476.621   113295831.609       -1226.006          38.000  
  21543657.981   113212678.588       -1226.030          34.000  
  21779560.905   114452334.691       -1226.119          37.000  
  21635076.913   113693341.496       -1226.137          49.000  
  21565357.335   113326704.046       -1226.080          38.000  
  21771624.016                       -1226.351          38.000  
  21716263.993   114119759.547       -1225.980          38.000  
  21546583.898   113228104.612       -1226.060          41.000  
  21702782.244   114048872.589       -1226.096          33.000  
  21670839.706   113880984.573       -1226.137          40.000  
  21635007.283   113693130.837       -1226.084          48.000  
  21661462.407   113831787.017       -1226.116          38.000  
  21672894.763   113891863.561       -1226.019          37.000  
  21529587.525   113138718.635       -1226.141          39.000  
  21802420.809   114572507.427       -1226.090          38.000  
  21629808.161   113665405.242       -1226.137          37.000  
  21721240.857   114145910.879       -1226.136          38.000  
  21788938.623   114501662.101       -1226.058          41.000  
  21732090.239   114202891.567       -1225.897          37.000  
  21581753.774   113412912.066       -1226.176          38.000  
  21545413.377   113221918.262       -1226.135          39.000  
 25  8 12  8 50 12.8000000  0 30G 5G 1G 2G 3G 4G27G18G 9G 7G24G25G10
                                G 6G16G12G19G21G13G30G 8G28G22G32G11
                                G23G17G14G26G20G15
  21635128.774   113693432.662       -1226.324          46.000  
  21635117.276   113693331.608       -1226.252          49.000  
  21635184.509   113693597.805       -1226.207          49.000  
  21635199.965   113693539.816       -1226.228          49.000  
  21635116.243   113693364.940       -1226.273          49.000  
  21842322.978   114782170.286       -1226.241          37.000  
  21494762.463   112955722.738       -1226.393          39.000  
  21794264.597   114529658.263       -1226.259          38.000  
  21635225.474   113693851.439       -1226.313          48.000  
  21559523.309   113296076.868       -1226.200          38.000  
  21543704.702   113212923.842       -1226.370          34.000  
  21779607.589   114452579.933       -1226.371          38.000  
  21635123.596   113693586.742       -1226.246          49.000  
  21565403.999   113326949.297       -1226.359          37.000  
  21771668.419                       -1226.351          38.000  
  21716310.680   114120004.800       -1226.300          38.000  
  21546630.591   113228349.864       -1226.287          41.000  
  21702828.947   114049117.844       -1226.238          33.000  
  21670886.424   113881229.817       -1226.273          39.000  
  21635054.423   113693376.087       -1226.319          48.000  
  21661509.072   113832032.267       -1226.395          38.000  
  21672941.434   113892108.818       -1226.265          37.000  
  21529634.204   113138963.884       -1226.232          39.000  
  21802467.473   114572752.681       -1226.338          38.000  
  21629854.837   113665650.489       -1226.239          37.000  
  21721287.517   114146156.116       -1226.325          38.000  
  21788985.297   114501907.354       -1226.251          41.000  
  21732136.926   114203136.832       -1226.238          37.000  
  21581800.419   113413157.314       -1226.426          38.000  
  21545460.089   113222163.513       -1226.298          39.000  
 25  8 12  8 50 13.0000000  0 30G 5G 1G 2G 3G 4G27G18G 9G 7G24G25G10
                                G 6G16G12G19G21G13G30G 8G28G22G32G11
                                G23G17G14G26G20G15
  21635175.433   113693677.876       -1226.189          46.000  
  21635163.868   113693576.824       -1226.174          49.000  
  21635231.166   113693843.025       -1226.194          49.000  
  21635246.653   113693785.034       -1226.135          49.000  
  21635162.885   113693610.155       -1226.143          49.000  
  21842369.611   114782415.505       -1226.173          37.000  
  21494809.137   112955967.948       -1226.138          39.000  
  21794311.228   114529903.477       -1226.184          38.000  
  21635272.038   113694096.653       -1226.150          48.000  
  21559569.965   113296322.077       -1226.140          38.000  
  21543751.368   113213169.050       -1226.084          35.000  
  21779654.208   114452825.152       -1226.235          38.000  
  21635170.269   113693831.958       -1226.174          49.000  
  21565450.667   113327194.503       -1226.107          37.000  
  21771712.504                       -1226.351          38.000  
  21716357.333   114120250.014       -1226.208          38.000  
  21546677.270   113228595.076       -1226.158          41.000  
  21702875.687   114049363.048       -1226.006          33.000  
  21670933.072   113881475.030       -1226.104          40.000  
  21635101.485   113693621.299       -1226.150          48.000  
  21661555.745   113832277.470       -1226.121          39.000  
  21672988.178   113892354.032       -1226.183          37.000  
  21529680.884   113139209.098       -1226.200          39.000  
  21802514.116   114572997.885       -1226.091          38.000  
  21629901.496   113665895.709       -1226.301          37.000  
  21721334.225   114146401.332       -1226.103          38.000  
  21789031.936   114502152.570       -1226.156          41.000  
  21732183.649   114203382.040       -1226.205          37.000  
  21581847.071   113413402.526       -1226.165          38.000  
  21545506.718   113222408.724       -1226.146          39.000  
 25  8 12  8 50 13.2000000  0 30G 5G 1G 2G 3G 4G27G18G 9G 7G24G25G10
                                G 6G16G12G19G21G13G30G 8G28G22G32G11
                                G23G17G14G26G20G15
  21635222.103   113693923.091       -1226.082          46.000  
  21635210.465   113693822.042       -1226.080          49.000  
  21635277.822   113694088.241       -1226.067          49.000  
  21635293.336   113694030.253       -1226.106          49.000  
  21635209.524   113693855.374       -1226.093          49.000  
  21842416.298   114782660.724       -1226.152          37.000  
  21494855.788   112956213.172       -1226.151          39.000  
  21794357.878   114530148.696       -1226.113          38.000  
  21635318.773   113694341.870       -1226.055          48.000  
  21559616.607   113296567.293       -1225.968          38.000  
  21543797.968   113213414.273       -1226.187          35.000  
  21779700.867   114453070.377       -1226.281          38.000  
  21635216.914   113694077.175       -1226.094          49.000  
  21565497.329   113327439.726       -1225.999          37.000  
  21771759.883                       -1226.351          38.000  
  21716403.996   114120495.229       -1226.090          38.000  
  21546723.921   113228840.297       -1226.061          41.000  
  21702922.375   114049608.267       -1225.936          33.000  
  21670979.792   113881720.253       -1226.113          39.000  
  21635148.513   113693866.521       -1226.119          48.000  
  21661602.364   113832522.695       -1226.098          39.000  
  21673034.875   113892599.253       -1226.133          37.000  
  21529727.571   113139454.316       -1226.094          39.000  
  21802560.758   114573243.104       -1225.969          38.000  
  21629948.154   113666140.924       -1226.187          37.000  
  21721380.862   114146646.549       -1226.048          38.000  
  21789078.544   114502397.790       -1226.105          41.000  
  21732230.282   114203627.258       -1225.988          37.000  
  21581893.711   113413647.749       -1226.187          37.000  
  21545553.375   113222653.942       -1226.001          39.000  
 25  8 12  8 50 13.4000000  0 30G 5G 1G 2G 3G 4G27G18G 9G 7G24G25G10
                                G 6G16G12G19G21G13G30G 8G28G22G32G11
                                G23G17G14G26G20G15
  21635268.742   113694168.315       -1226.183          46.000  
  21635257.071   113694067.262       -1226.159          49.000  
  21635324.502   113694333.466       -1226.238          49.000  
  21635340.012   113694275.468       -1226.060          49.000  
  21635256.142   113694100.595       -1226.153          49.000  
  21842462.934   114782905.951       -1226.427          37.000  
  21494902.441   112956458.392       -1226.185          39.000  
  21794404.559   114530393.915       -1226.166          38.000  
  21635365.541   113694587.095       -1226.170          48.000  
  21559663.293   113296812.525       -1226.162          38.000  
  21543844.648   113213659.503       -1226.459          35.000  
  21779747.517   114453315.572       -1226.005          38.000  
  21635263.555   113694322.397       -1226.140          49.000  
  21565543.989   113327684.948       -1226.094          37.000  
  21771806.754                       -1226.351          38.000  
  21716450.711   114120740.451       -1226.212          38.000  
  21546770.658   113229085.521       -1226.226          41.000  
  21702969.119   114049853.525       -1226.759          33.000  
  21671026.449   113881965.474       -1226.222          39.000  
  21635195.693   113694111.741       -1226.158          48.000  
  21661649.049   113832767.919       -1226.285          39.000  
  21673081.519   113892844.481       -1226.344          37.000  
  21529774.243   113139699.551       -1226.511          39.000  
  21802607.428   114573488.346       -1226.304          38.000  
  21629994.797   113666386.137       -1226.116          37.000  
  21721427.572   114146891.769       -1226.164          38.000  
  21789125.217   114502643.011       -1226.185          41.000  
  21732276.983   114203872.492       -1226.361          37.000  
  21581940.359   113413892.964       -1226.160          37.000  
  21545600.024   113222899.162       -1226.064          39.000  
 25  8 12  8 50 13.6000000  0 30G 5G 1G 2G 3G 4G27G18G 9G 7G24G25G10
                                G 6G16G12G19G21G13G30G 8G28G22G32G11
                                G23G17G14G26G20G15
  21635315.450   113694413.506       -1226.006          46.000  
  21635303.650   113694312.456       -1225.978          49.000  
  21635371.171   113694578.661       -1225.993          49.000  
  21635386.698   113694520.664       -1225.985          49.000  
  21635302.770   113694345.790       -1225.998          49.000  
  21842509.612   114783151.135       -1225.810          37.000  
  21494949.032   112956703.583       -1225.948          39.000  
  21794451.212   114530639.114       -1225.997          38.000  
  21635412.990   113694832.289       -1225.993          48.000  
  21559709.941   113297057.725       -1226.067          38.000  
  21543891.261   113213904.690       -1225.923          35.000  
  21779794.189   114453560.764       -1225.996          38.000  
  21635310.231   113694567.594       -1226.020          49.000  
  21565590.668   113327930.144       -1226.089          37.000  
  21771854.998                       -1226.351          38.000  
  21716497.343   114120985.649       -1225.952          38.000  
  21546817.283   113229330.719       -1225.933          41.000  
  21703015.793   114050098.711       -1225.884          34.000  
  21671073.133   113882210.664       -1225.948          39.000  
  21635243.249   113694356.934       -1225.994          48.000  
  21661695.702   113833013.112       -1225.896          39.000  
  21673128.178   113893089.673       -1225.877          37.000  
  21529820.870   113139944.736       -1225.814          39.000  
  21802654.072   114573733.536       -1226.006          38.000  
  21630041.487   113666631.332       -1225.909          38.000  
  21721474.240   114147136.954       -1225.964          38.000  
  21789171.885   114502888.202       -1225.995          41.000  
  21732323.624   114204117.688       -1225.945          37.000  
  21581987.029   113414138.157       -1225.948          37.000  
  21545646.712   113223144.357       -1226.079          39.000  
 25  8 12  8 50 13.8000000  0 30G 5G 1G 2G 3G 4G27G18G 9G 7G24G25G10
                                G 6G16G12G19G21G13G30G 8G28G22G32G11
                                G23G17G14G26G20G15
  21635362.067   113694658.709       -1225.976          46.000  
  21635350.262   113694557.654       -1225.945          49.000  
  21635417.830   113694823.859       -1225.966          49.000  
  21635433.385   113694765.861       -1225.933          49.000  
  21635349.395   113694590.987       -1225.953          49.000  
  21842556.245   114783396.342       -1225.816          38.000  
  21494995.731   112956948.785       -1225.951          39.000  
  21794497.861   114530884.308       -1225.932          38.000  
  21635460.310   113695077.487       -1225.938          49.000  
  21559756.575   113297302.920       -1226.044          38.000  
  21543937.929   113214149.892       -1226.002          34.000  
  21779840.818   114453805.959       -1225.891          38.000  
  21635356.869   113694812.790       -1225.952          49.000  
  21565637.325   113328175.339       -1226.039          37.000  
  21771899.021                       -1226.351          38.000  
  21716544.024   114121230.849       -1226.047          38.000  
  21546863.988   113229575.921       -1225.989          41.000  
  21703062.513   114050343.914       -1225.918          34.000  
  21671119.762   113882455.865       -1225.932          40.000  
  21635290.579   113694602.131       -1225.899          48.000  
  21661742.367   113833258.315       -1225.917          39.000  
  21673174.821   113893334.873       -1225.865          37.000  
  21529867.542   113140189.940       -1225.844          39.000  
  21802700.733   114573978.737       -1225.955          38.000  
  21630088.140   113666876.533       -1225.831          38.000  
  21721520.983   114147382.152       -1225.782          38.000  
  21789218.574   114503133.399       -1225.859          41.000  
  21732370.367   114204362.890       -1226.125          37.000  
  21582033.666   113414383.358       -1225.951          37.000  
  21545693.343   113223389.555       -1226.011          39.000  
 25  8 12  8 50 14.0000000  0 30G 5G 1G 2G 3G 4G27G18G 9G 7G24G25G10
                                G 6G16G12G19G21G13G30G 8G28G22G32G11
                                G23G17G14G26G20G15
  21635408.777   113694903.915       -1226.131          46.000  
  21635396.907   113694802.859       -1226.058          49.000  
  21635464.488   113695069.064       -1226.067          49.000  
  21635480.060   113695011.067       -1226.066          49.000  
  21635396.055   113694836.193       -1226.085          49.000  
  21842602.980   114783641.550       -1226.160          38.000  
  21495042.397   112957193.990       -1226.134          39.000  
  21794544.512   114531129.521       -1226.100          38.000  
  21635507.654   113695322.694       -1226.097          49.000  
  21559803.244   113297548.126       -1226.122          38.000  
  21543984.609   113214395.104       -1226.079          34.000  
  21779887.470   114454051.166       -1226.067          37.000  
  21635403.542   113695057.996       -1226.073          49.000  
  21565683.985   113328420.544       -1226.068          38.000  
  21771946.005                       -1226.351          38.000  
  21716590.634   114121476.052       -1226.057          38.000  
  21546910.636   113229821.127       -1226.150          41.000  
  21703109.203   114050589.121       -1226.084          34.000  
  21671166.421   113882701.071       -1226.024          40.000  
  21635337.858   113694847.340       -1226.144          48.000  
  21661788.968   113833503.523       -1226.156          39.000  
  21673221.491   113893580.082       -1226.097          38.000  
  21529914.195   113140435.145       -1226.060          39.000  
  21802747.408   114574223.944       -1226.206          38.000  
  21630134.795   113667121.744       -1226.224          38.000  
  21721567.619   114147627.365       -1226.102          38.000  
  21789265.240   114503378.608       -1226.130          41.000  
  21732417.019   114204608.098       -1226.186          37.000  
  21582080.321   113414628.566       -1226.139          37.000  
  21545739.991   113223634.761       -1226.151          39.000  
 25  8 12  8 50 14.2000000  0 30G 5G 1G 2G 3G 4G27G18G 9G 7G24G25G10
                                G 6G16G12G19G21G13G30G 8G28G22G32G11
                                G23G17G14G26G20G15
  21635455.390   113695149.115       -1226.007          46.000  
  21635443.504   113695048.062       -1226.021          49.000  
  21635511.142   113695314.264       -1225.961          49.000  
  21635526.733   113695256.268       -1225.948          49.000  
  21635442.672   113695081.395       -1226.007          49.000  
  21842649.611   114783886.749       -1226.017          38.000  
  21495089.052   112957439.189       -1225.928          39.000  
  21794591.186   114531374.719       -1226.041          38.000  
  21635554.834   113695567.895       -1226.041          49.000  
  21559849.847   113297793.325       -1226.010          38.000  
  21544031.292   113214640.302       -1226.018          34.000  
  21779934.088   114454296.368       -1226.014          37.000  
  21635450.193   113695303.196       -1225.941          49.000  
  21565730.640   113328665.746       -1225.974          38.000  
  21771993.948                       -1226.351          38.000  
  21716637.295   114121721.253       -1225.996          38.000  
  21546957.350   113230066.325       -1226.002          41.000  
  21703155.914   114050834.321       -1225.935          34.000  
  21671213.071   113882946.275       -1226.014          40.000  
  21635385.057   113695092.539       -1225.995          48.000  
  21661835.630   113833748.723       -1226.008          39.000  
  21673268.162   113893825.279       -1225.949          38.000  
  21529960.850   113140680.347       -1225.948          39.000  
  21802794.072   114574469.141       -1226.028          38.000  
  21630181.452   113667366.937       -1225.950          39.000  
  21721614.275   114147872.564       -1226.021          38.000  
  21789311.918   114503623.809       -1226.029          41.000  
  21732463.690   114204853.296       -1226.038          37.000  
  21582126.989   113414873.762       -1225.936          37.000  
  21545786.632   113223879.959       -1226.035          39.000  
 25  8 12  8 50 14.4000000  0 30G 5G 1G 2G 3G 4G27G18G 9G 7G24G25G10
                                G 6G16G12G19G21G13G30G 8G28G22G32G11
                                G23G17G14G26G20G15
  21635502.090   113695394.333       -1226.286          46.000  
  21635490.138   113695293.273       -1226.194          49.000  
  21635557.813   113695559.473       -1226.225          49.000  
  21635573.419   113695501.482       -1226.187          49.000  
  21635489.360   113695326.598       -1226.200          49.000  
  21842696.321   114784131.963       -1226.329          36.000  
  21495135.746   112957684.373       -1226.152          39.000  
  21794637.833   114531619.938       -1226.283          38.000  
  21635601.153   113695813.112       -1226.224          48.000  
  21559896.549   113298038.548       -1226.239          38.000  
  21544077.982   113214885.466       -1226.222          34.000  
  21779980.732   114454541.597       -1226.329          37.000  
  21635496.859   113695548.406       -1226.176          49.000  
  21565777.324   113328910.946       -1226.210          37.000  
  21772043.346                       -1226.351          38.000  
  21716683.906   114121966.450       -1226.243          38.000  
  21547003.990   113230311.534       -1226.239          41.000  
  21703202.591   114051079.521       -1226.129          34.000  
  21671259.757   113883191.476       -1226.236          40.000  
  21635431.417   113695337.750       -1226.249          48.000  
  21661882.275   113833993.889       -1226.131          39.000  
  21673314.867   113894070.479       -1226.244          38.000  
  21530007.501   113140925.530       -1226.177          39.000  
  21802840.739   114574714.366       -1226.218          38.000  
  21630228.157   113667612.151       -1226.210          36.000  
  21721660.958   114148117.778       -1226.186          38.000  
  21789358.556   114503869.017       -1226.210          41.000  
  21732510.310   114205098.492       -1226.149          37.000  
  21582173.640   113415118.972       -1226.267          37.000  
  21545833.310   113224125.184       -1226.282          39.000  
 25  8 12  8 50 14.6000000  0 30G 5G 1G 2G 3G 4G27G18G 9G 7G24G25G10
                                G 6G16G12G19G21G13G30G 8G28G22G32G11
                                G23G17G14G26G20G15
  21635548.741   113695639.528       -1226.137          46.000  
  21635536.792   113695538.469       -1226.108          49.000  
  21635604.463   113695804.668       -1226.073          49.000  
  21635620.087   113695746.676       -1226.062          49.000  
  21635535.999   113695571.794       -1226.094          49.000  
  21842742.938   114784377.150       -1226.157          36.000  
  21495182.425   112957929.571       -1226.039          39.000  
  21794684.486   114531865.129       -1226.078          38.000  
  21635646.925   113696058.304       -1226.103          48.000  
  21559943.227   113298283.743       -1226.145          38.000  
  21544124.569   113215130.675       -1226.042          34.000  
  21780027.388   114454786.786       -1226.082          38.000  
  21635543.516   113695793.604       -1226.122          49.000  
  21565824.010   113329156.147       -1226.150          37.000  
  21772087.501                       -1226.351          38.000  
  21716730.574   114122211.647       -1226.101          38.000  
  21547050.682   113230556.728       -1226.086          42.000  
  21703249.253   114051324.723       -1226.139          33.000  
  21671306.395   113883436.671       -1226.070          39.000  
  21635477.133   113695582.943       -1226.112          48.000  
  21661928.983   113834239.091       -1225.983          39.000  
  21673361.497   113894315.674       -1226.003          37.000  
  21530054.093   113141170.730       -1225.962          39.000  
  21802887.397   114574959.563       -1226.274          38.000  
  21630274.832   113667857.344       -1226.063          36.000  
  21721707.651   114148362.970       -1226.088          37.000  
  21789405.218   114504114.211       -1226.077          41.000  
  21732557.020   114205343.698       -1226.070          37.000  
  21582220.299   113415364.166       -1226.145          38.000  
  21545879.973   113224370.374       -1226.082          39.000  
