     2.10           OBSERVATION DATA    M (MIXED)           RINEX VERSION / TYPE
RTKCONV 2.4.2                           20200423 111818 UTC PGM / RUN BY / DATE 
log: G:\54\GPS\0423\gps-2                                   COMMENT             
format: u-blox                                              COMMENT             
                                                            MARKER NAME         
                                                            MARKER NUMBER       
                                                            OBSERVER / AGENCY   
                                                            REC # / TYPE / VERS 
                                                            ANT # / TYPE        
        0.0000        0.0000        0.0000                  APPROX POSITION XYZ 
        0.0000        0.0000        0.0000                  ANTENNA: DELTA H/E/N
     1     1                                                WAVELENGTH FACT L1/2
     4    C1    L1    D1    S1                              # / TYPES OF OBSERV 
  2025     8    12     8    47   13.0000000     GPS         TIME OF FIRST OBS   
  2025     8    12     8    48   31.0000000     GPS         TIME OF LAST OBS    
                                                            END OF HEADER       
 25  8 12  8 47 13.0000000  0 29G 5G 1G 2G 3G 4G31G16G19G 7G 9G11G15
                                G 6G28G21G17G32G26G10G 8G23G13G14G27
                                G30G20G29G24G18
  21593166.292   113472898.230       -1227.511          48.000  
  21593156.699   113472803.205       -1227.439          49.000  
  21593214.039   113473070.788       -1227.438          49.000  
  21593227.452   113473011.115       -1227.495          49.000  
  21593140.208   113472833.367       -1227.512          49.000  
  21472432.595   112838416.103       -1227.574          41.000  
  21666141.077   113856366.667       -1227.552          41.000  
  21516681.188   113070909.590       -1227.673          34.000  
  21593278.157   113473316.663       -1227.532          47.000  
  21691048.112   113987235.613       -1227.553          40.000  
  21813836.769   114632492.512       -1227.580          38.000  
  21532799.174   113155648.160       -1227.548          41.000  
  21593191.626   113473050.567       -1227.510          49.000  
  21502030.787   112993953.101       -1227.534          39.000  
  21627747.364   113654603.913       -1227.477          35.000  
  21744681.274   114269089.757       -1227.473          38.000  
  21606940.265   113545292.549       -1227.531          36.000  
  21479758.053   112876894.068       -1227.468          36.000  
  21556537.225   113280370.611       -1227.617          37.000  
  21593156.234   113472844.561       -1227.463          49.000  
  21456609.591   112755258.818       -1227.510          37.000  
  21725333.710   114167383.191       -1227.599          39.000  
  21555660.112   113275763.240       -1227.458          37.000  
  21618372.047   113605347.140       -1227.532          41.000  
  21713317.793   114104257.079       -1227.666          38.000  
  21756984.149   114333817.170       -1227.452          37.000  
  21458947.718   112767540.597       -1227.550          38.000  
  21646207.131   113751585.056       -1227.551          38.000  
  21493822.952   112950839.162       -1227.440          36.000  
 25  8 12  8 47 13.2000000  0 29G 5G 1G 2G 3G 4G31G16G19G 7G 9G11G15
                                G 6G28G21G17G32G26G10G 8G23G13G14G27
                                G30G20G29G24G18
  21593213.074   113473143.674       -1227.217          48.000  
  21593203.397   113473048.658       -1227.267          49.000  
  21593260.778   113473316.239       -1227.253          49.000  
  21593274.156   113473256.564       -1227.240          49.000  
  21593186.965   113473078.813       -1227.244          49.000  
  21472479.259   112838661.549       -1227.231          41.000  
  21666187.768   113856612.108       -1227.105          41.000  
  21516727.861   113071155.019       -1227.006          34.000  
  21593324.872   113473562.108       -1227.159          47.000  
  21691094.855   113987481.055       -1227.124          40.000  
  21813883.464   114632737.956       -1227.156          38.000  
  21532845.876   113155893.607       -1227.225          41.000  
  21593238.362   113473296.017       -1227.268          49.000  
  21502077.508   112994198.547       -1227.164          39.000  
  21627794.095   113654849.362       -1227.250          35.000  
  21744727.913   114269335.207       -1227.221          38.000  
  21606986.961   113545538.000       -1227.302          36.000  
  21479804.777   112877139.513       -1227.166          36.000  
  21556583.920   113280616.051       -1227.125          37.000  
  21593202.924   113473090.010       -1227.241          49.000  
  21456656.303   112755504.274       -1227.319          37.000  
  21725380.407   114167628.633       -1227.161          39.000  
  21555706.854   113276008.695       -1227.314          37.000  
  21618418.736   113605592.585       -1227.164          41.000  
  21713364.493   114104502.521       -1227.177          38.000  
  21757030.886   114334062.614       -1227.051          37.000  
  21458994.430   112767786.039       -1227.102          38.000  
  21646253.822   113751830.506       -1227.257          38.000  
  21493869.642   112951084.610       -1227.263          36.000  
 25  8 12  8 47 13.4000000  0 29G 5G 1G 2G 3G 4G31G16G19G 7G 9G11G15
                                G 6G28G21G17G32G26G10G 8G23G13G14G27
                                G30G20G29G24G18
  21593259.809   113473389.137       -1227.219          48.000  
  21593250.105   113473294.112       -1227.182          49.000  
  21593307.495   113473561.694       -1227.175          49.000  
  21593320.866   113473502.021       -1227.189          49.000  
  21593233.824   113473324.274       -1227.259          49.000  
  21472525.970   112838907.011       -1227.290          41.000  
  21666234.466   113856857.577       -1227.266          41.000  
  21516774.554   113071400.492       -1227.151          34.000  
  21593371.602   113473807.573       -1227.238          47.000  
  21691141.567   113987726.522       -1227.291          40.000  
  21813930.184   114632983.423       -1227.296          38.000  
  21532892.568   113156139.071       -1227.345          41.000  
  21593285.080   113473541.471       -1227.183          49.000  
  21502124.199   112994444.009       -1227.224          39.000  
  21627840.795   113655094.821       -1227.301          35.000  
  21744774.610   114269580.668       -1227.299          38.000  
  21607033.639   113545783.456       -1227.260          36.000  
  21479851.520   112877384.979       -1227.238          36.000  
  21556630.631   113280861.520       -1227.212          37.000  
  21593249.627   113473335.468       -1227.229          49.000  
  21456702.997   112755749.729       -1227.245          36.000  
  21725427.120   114167874.103       -1227.255          39.000  
  21555753.568   113276254.147       -1227.241          37.000  
  21618465.427   113605838.051       -1227.278          41.000  
  21713411.179   114104747.986       -1227.307          38.000  
  21757077.606   114334308.083       -1227.230          37.000  
  21459041.139   112768031.510       -1227.299          38.000  
  21646300.522   113752075.963       -1227.245          38.000  
  21493916.315   112951330.072       -1227.198          36.000  
 25  8 12  8 47 13.6000000  0 29G 5G 1G 2G 3G 4G31G16G19G 7G 9G11G15
                                G 6G28G21G17G32G26G10G 8G23G13G14G27
                                G30G20G29G24G18
  21593306.556   113473634.585       -1227.450          48.000  
  21593296.815   113473539.561       -1227.334          49.000  
  21593354.239   113473807.143       -1227.280          49.000  
  21593367.586   113473747.469       -1227.308          49.000  
  21593280.725   113473569.719       -1227.387          49.000  
  21472572.663   112839152.453       -1227.344          41.000  
  21666281.190   113857103.028       -1227.449          41.000  
  21516821.274   113071645.943       -1227.384          34.000  
  21593418.323   113474053.020       -1227.413          47.000  
  21691188.325   113987971.967       -1227.399          40.000  
  21813976.943   114633228.858       -1227.357          38.000  
  21532939.284   113156384.514       -1227.404          41.000  
  21593331.819   113473786.919       -1227.306          49.000  
  21502170.904   112994689.453       -1227.356          39.000  
  21627887.533   113655340.272       -1227.394          35.000  
  21744821.309   114269826.114       -1227.461          38.000  
  21607080.371   113546028.898       -1227.358          36.000  
  21479898.240   112877630.424       -1227.355          36.000  
  21556677.353   113281106.974       -1227.531          37.000  
  21593296.320   113473580.915       -1227.312          49.000  
  21456749.658   112755995.175       -1227.372          37.000  
  21725473.839   114168119.549       -1227.497          39.000  
  21555800.273   113276499.594       -1227.301          37.000  
  21618512.145   113606083.498       -1227.417          41.000  
  21713457.938   114104993.433       -1227.390          38.000  
  21757124.308   114334553.534       -1227.422          37.000  
  21459087.865   112768276.957       -1227.419          38.000  
  21646347.244   113752321.405       -1227.269          38.000  
  21493963.050   112951575.516       -1227.383          36.000  
 25  8 12  8 47 13.8000000  0 29G 5G 1G 2G 3G 4G31G16G19G 7G 9G11G15
                                G 6G28G21G17G32G26G10G 8G23G13G14G27
                                G30G20G29G24G18
  21593353.272   113473880.019       -1227.282          48.000  
  21593343.507   113473784.996       -1227.282          49.000  
  21593400.975   113474052.581       -1227.295          49.000  
  21593414.288   113473992.907       -1227.289          49.000  
  21593327.570   113473815.154       -1227.236          49.000  
  21472619.381   112839397.893       -1227.283          41.000  
  21666327.899   113857348.463       -1227.426          41.000  
  21516867.974   113071891.379       -1227.399          34.000  
  21593465.023   113474298.456       -1227.275          47.000  
  21691235.008   113988217.404       -1227.286          40.000  
  21814023.643   114633474.295       -1227.079          38.000  
  21532985.963   113156629.949       -1227.257          41.000  
  21593378.535   113474032.361       -1227.339          49.000  
  21502217.568   112994934.890       -1227.211          39.000  
  21627934.263   113655585.705       -1227.370          35.000  
  21744867.996   114270071.545       -1227.230          38.000  
  21607127.076   113546274.336       -1227.183          36.000  
  21479944.940   112877875.864       -1227.347          36.000  
  21556724.038   113281352.399       -1227.322          37.000  
  21593343.026   113473826.354       -1227.306          49.000  
  21456796.325   112756240.607       -1227.146          36.000  
  21725520.574   114168364.982       -1227.296          39.000  
  21555846.965   113276745.029       -1227.301          37.000  
  21618558.818   113606328.929       -1227.263          41.000  
  21713504.652   114105238.869       -1227.361          38.000  
  21757171.062   114334798.965       -1227.432          37.000  
  21459134.547   112768522.391       -1227.378          38.000  
  21646393.968   113752566.840       -1227.131          38.000  
  21494009.727   112951820.948       -1227.191          36.000  
 25  8 12  8 47 14.0000000  0 29G 5G 1G 2G 3G 4G31G16G19G 7G 9G11G15
                                G 6G28G21G17G32G26G10G 8G23G13G14G27
                                G30G20G29G24G18
  21593399.935   113474125.478       -1227.308          48.000  
  21593390.190   113474030.454       -1227.355          49.000  
  21593447.725   113474298.037       -1227.370          49.000  
  21593460.995   113474238.363       -1227.371          49.000  
  21593374.273   113474060.614       -1227.348          49.000  
  21472666.058   112839643.351       -1227.352          41.000  
  21666374.577   113857593.921       -1227.425          41.000  
  21516914.647   113072136.832       -1227.222          34.000  
  21593511.737   113474543.916       -1227.321          47.000  
  21691281.780   113988462.864       -1227.373          40.000  
  21814070.338   114633719.753       -1227.319          38.000  
  21533032.653   113156875.410       -1227.367          41.000  
  21593425.261   113474277.817       -1227.342          49.000  
  21502264.262   112995180.352       -1227.404          39.000  
  21627980.922   113655831.164       -1227.374          35.000  
  21744914.711   114270317.005       -1227.336          38.000  
  21607173.856   113546519.800       -1227.348          36.000  
  21479991.663   112878121.322       -1227.366          36.000  
  21556770.767   113281597.859       -1227.327          37.000  
  21593389.702   113474071.811       -1227.369          49.000  
  21456843.011   112756486.070       -1227.402          37.000  
  21725567.288   114168610.441       -1227.401          39.000  
  21555893.668   113276990.491       -1227.386          37.000  
  21618605.517   113606574.390       -1227.307          41.000  
  21713551.396   114105484.329       -1227.325          38.000  
  21757217.766   114335044.427       -1227.390          37.000  
  21459181.269   112768767.850       -1227.362          38.000  
  21646440.703   113752812.307       -1227.401          38.000  
  21494056.419   112952066.414       -1227.396          36.000  
 25  8 12  8 47 14.2000000  0 29G 5G 1G 2G 3G 4G31G16G19G 7G 9G11G15
                                G 6G28G21G17G32G26G10G 8G23G13G14G27
                                G30G20G29G24G18
  21593446.658   113474370.932       -1227.323          48.000  
  21593436.881   113474275.906       -1227.271          49.000  
  21593494.432   113474543.489       -1227.251          49.000  
  21593507.717   113474483.814       -1227.263          49.000  
  21593421.087   113474306.067       -1227.277          49.000  
  21472712.775   112839888.805       -1227.343          41.000  
  21666421.256   113857839.373       -1227.356          41.000  
  21516961.380   113072382.290       -1227.257          34.000  
  21593558.485   113474789.366       -1227.318          47.000  
  21691328.437   113988708.316       -1227.332          40.000  
  21814117.030   114633965.205       -1227.312          38.000  
  21533079.332   113157120.856       -1227.223          41.000  
  21593471.966   113474523.267       -1227.239          49.000  
  21502310.940   112995425.806       -1227.371          39.000  
  21628027.611   113656076.614       -1227.258          35.000  
  21744961.416   114270562.455       -1227.205          38.000  
  21607220.540   113546765.249       -1227.253          36.000  
  21480038.322   112878366.772       -1227.347          36.000  
  21556817.458   113281843.315       -1227.341          37.000  
  21593436.411   113474317.261       -1227.251          49.000  
  21456889.718   112756731.523       -1227.345          37.000  
  21725614.020   114168855.891       -1227.298          39.000  
  21555940.324   113277235.944       -1227.357          37.000  
  21618652.220   113606819.843       -1227.283          41.000  
  21713598.095   114105729.785       -1227.395          38.000  
  21757264.464   114335289.879       -1227.357          37.000  
  21459227.944   112769013.301       -1227.272          38.000  
  21646487.411   113753057.760       -1227.402          38.000  
  21494103.107   112952311.865       -1227.417          36.000  
 25  8 12  8 47 14.4000000  0 29G 5G 1G 2G 3G 4G31G16G19G 7G 9G11G15
                                G 6G28G21G17G32G26G10G 8G23G13G14G27
                                G30G20G29G24G18
  21593493.395   113474616.371       -1227.357          48.000  
  21593483.569   113474521.347       -1227.324          49.000  
  21593541.169   113474788.933       -1227.357          49.000  
  21593554.433   113474729.257       -1227.342          49.000  
  21593468.090   113474551.507       -1227.377          49.000  
  21472759.452   112840134.244       -1227.400          41.000  
  21666467.928   113858084.805       -1227.266          41.000  
  21517008.076   113072627.730       -1227.371          34.000  
  21593605.194   113475034.805       -1227.365          47.000  
  21691375.217   113988953.755       -1227.316          40.000  
  21814163.718   114634210.651       -1227.244          38.000  
  21533126.022   113157366.302       -1227.338          41.000  
  21593518.742   113474768.708       -1227.310          49.000  
  21502357.679   112995671.247       -1227.378          39.000  
  21628074.281   113656322.047       -1227.259          35.000  
  21745008.122   114270807.898       -1227.344          38.000  
  21607267.281   113547010.690       -1227.319          36.000  
  21480085.009   112878612.208       -1227.274          35.000  
  21556864.161   113282088.759       -1227.438          37.000  
  21593483.134   113474562.703       -1227.330          49.000  
  21456936.382   112756976.965       -1227.413          37.000  
  21725660.735   114169101.332       -1227.269          39.000  
  21555987.043   113277481.385       -1227.427          37.000  
  21618698.927   113607065.281       -1227.337          41.000  
  21713644.799   114105975.219       -1227.384          38.000  
  21757311.155   114335535.311       -1227.360          37.000  
  21459274.627   112769258.736       -1227.296          38.000  
  21646534.103   113753303.199       -1227.409          38.000  
  21494149.813   112952557.304       -1227.307          36.000  
 25  8 12  8 47 14.6000000  0 29G 5G 1G 2G 3G 4G31G16G19G 7G 9G11G15
                                G 6G28G21G17G32G26G10G 8G23G13G14G27
                                G30G20G29G24G18
  21593540.088   113474861.810       -1227.070          48.000  
  21593530.279   113474766.780       -1227.033          49.000  
  21593587.879   113475034.363       -1227.002          49.000  
  21593601.140   113474974.690       -1227.040          49.000  
  21593514.854   113474796.942       -1227.059          49.000  
  21472806.161   112840379.676       -1227.040          41.000  
  21666514.628   113858330.247       -1227.069          41.000  
  21517054.793   113072873.166       -1227.013          34.000  
  21593651.863   113475280.240       -1227.019          47.000  
  21691421.895   113989199.193       -1227.097          40.000  
  21814210.405   114634456.085       -1227.204          38.000  
  21533172.706   113157611.736       -1227.064          41.000  
  21593565.453   113475014.141       -1227.034          49.000  
  21502404.355   112995916.679       -1227.053          39.000  
  21628120.993   113656567.488       -1226.980          35.000  
  21745054.816   114271053.333       -1227.072          38.000  
  21607313.969   113547256.126       -1227.060          36.000  
  21480131.697   112878857.659       -1227.109          35.000  
  21556910.861   113282334.191       -1227.079          37.000  
  21593529.828   113474808.137       -1227.019          49.000  
  21456983.089   112757222.393       -1227.007          37.000  
  21725707.470   114169346.771       -1227.077          39.000  
  21556033.755   113277726.816       -1227.058          37.000  
  21618745.634   113607310.721       -1227.083          41.000  
  21713691.486   114106220.655       -1226.969          38.000  
  21757357.828   114335780.751       -1226.988          37.000  
  21459321.330   112769504.175       -1226.986          38.000  
  21646580.768   113753548.627       -1227.043          38.000  
  21494196.512   112952802.743       -1227.090          36.000  
 25  8 12  8 47 14.8000000  0 29G 5G 1G 2G 3G 4G31G16G19G 7G 9G11G15
                                G 6G28G21G17G32G26G10G 8G23G13G14G27
                                G30G20G29G24G18
  21593586.826   113475107.269       -1227.511          48.000  
  21593576.984   113475012.239       -1227.435          49.000  
  21593634.619   113475279.823       -1227.423          49.000  
  21593647.860   113475220.147       -1227.408          49.000  
  21593561.466   113475042.399       -1227.480          49.000  
  21472852.836   112840625.136       -1227.494          41.000  
  21666561.328   113858575.706       -1227.545          41.000  
  21517101.440   113073118.626       -1227.496          34.000  
  21593698.567   113475525.699       -1227.484          47.000  
  21691468.631   113989444.651       -1227.525          40.000  
  21814257.136   114634701.533       -1227.381          38.000  
  21533219.402   113157857.197       -1227.537          41.000  
  21593612.186   113475259.599       -1227.401          49.000  
  21502451.096   112996162.138       -1227.505          39.000  
  21628167.684   113656812.956       -1227.606          35.000  
  21745101.533   114271298.792       -1227.487          38.000  
  21607360.656   113547501.582       -1227.442          36.000  
  21480178.429   112879103.113       -1227.579          35.000  
  21556957.612   113282579.647       -1227.456          37.000  
  21593576.539   113475053.593       -1227.408          49.000  
  21457029.762   112757467.854       -1227.471          37.000  
  21725754.149   114169592.228       -1227.553          39.000  
  21556080.444   113277972.276       -1227.510          37.000  
  21618792.378   113607556.176       -1227.499          41.000  
  21713738.223   114106466.116       -1227.490          38.000  
  21757404.547   114336026.217       -1227.640          37.000  
  21459368.013   112769749.640       -1227.584          38.000  
  21646627.439   113753794.082       -1227.437          38.000  
  21494243.228   112953048.201       -1227.531          36.000  
 25  8 12  8 47 15.0000000  0 29G 5G 1G 2G 3G 4G31G16G19G 7G 9G11G15
                                G 6G28G21G17G32G26G10G 8G23G13G14G27
                                G30G20G29G24G18
  21593633.574   113475352.749       -1227.462          48.000  
  21593623.702   113475257.728       -1227.533          49.000  
  21593681.332   113475525.311       -1227.506          49.000  
  21593694.564   113475465.636       -1227.506          49.000  
  21593608.326   113475287.886       -1227.560          49.000  
  21472899.552   112840870.625       -1227.588          41.000  
  21666608.032   113858821.187       -1227.475          41.000  
  21517148.151   113073364.103       -1227.418          34.000  
  21593745.273   113475771.187       -1227.561          47.000  
  21691515.323   113989690.136       -1227.574          40.000  
  21814303.858   114634947.038       -1227.687          38.000  
  21533266.111   113158102.681       -1227.546          41.000  
  21593658.881   113475505.088       -1227.473          49.000  
  21502497.826   112996407.631       -1227.659          39.000  
  21628214.359   113657058.426       -1227.420          36.000  
  21745148.296   114271544.282       -1227.523          38.000  
  21607407.390   113547747.077       -1227.592          36.000  
  21480225.147   112879348.590       -1227.422          35.000  
  21557004.307   113282825.133       -1227.512          37.000  
  21593623.252   113475299.077       -1227.435          49.000  
  21457076.481   112757713.346       -1227.595          37.000  
  21725800.878   114169837.712       -1227.526          39.000  
  21556127.132   113278217.771       -1227.653          37.000  
  21618839.080   113607801.661       -1227.515          41.000  
  21713784.917   114106711.592       -1227.382          38.000  
  21757451.287   114336271.686       -1227.354          37.000  
  21459414.727   112769995.116       -1227.499          38.000  
  21646674.143   113754039.578       -1227.624          38.000  
  21494289.951   112953293.688       -1227.500          36.000  
 25  8 12  8 47 15.2000000  0 29G 5G 1G 2G 3G 4G31G16G19G 7G 9G11G15
                                G 6G28G21G17G32G26G10G 8G23G13G14G27
                                G30G20G29G24G18
  21593680.307   113475598.225       -1227.289          48.000  
  21593670.379   113475503.202       -1227.250          49.000  
  21593728.042   113475770.783       -1227.263          49.000  
  21593741.278   113475711.111       -1227.302          49.000  
  21593655.327   113475533.362       -1227.320          49.000  
  21472946.222   112841116.095       -1227.289          41.000  
  21666654.717   113859066.666       -1227.253          41.000  
  21517194.889   113073609.584       -1227.231          34.000  
  21593791.982   113476016.666       -1227.320          47.000  
  21691562.073   113989935.611       -1227.280          40.000  
  21814350.512   114635192.502       -1227.305          38.000  
  21533312.794   113158348.156       -1227.283          41.000  
  21593705.609   113475750.560       -1227.198          49.000  
  21502544.518   112996653.099       -1227.330          39.000  
  21628261.040   113657303.914       -1227.216          36.000  
  21745195.000   114271789.753       -1227.344          38.000  
  21607454.135   113547992.546       -1227.223          36.000  
  21480271.872   112879594.072       -1227.346          35.000  
  21557051.036   113283070.610       -1227.286          37.000  
  21593669.955   113475544.557       -1227.261          49.000  
  21457123.189   112757958.814       -1227.366          37.000  
  21725847.575   114170083.188       -1227.281          39.000  
  21556173.812   113278463.238       -1227.280          37.000  
  21618885.789   113608047.138       -1227.262          41.000  
  21713831.633   114106957.078       -1227.239          38.000  
  21757497.966   114336517.181       -1227.331          37.000  
  21459461.442   112770240.598       -1227.296          38.000  
  21646720.850   113754285.048       -1227.244          38.000  
  21494336.648   112953539.170       -1227.418          36.000  
 25  8 12  8 47 15.4000000  0 29G 5G 1G 2G 3G 4G31G16G19G 7G 9G11G15
                                G 6G28G21G17G32G26G10G 8G23G13G14G27
                                G30G20G29G24G18
  21593726.959   113475843.673       -1227.223          48.000  
  21593717.089   113475748.651       -1227.263          49.000  
  21593774.770   113476016.237       -1227.228          49.000  
  21593787.975   113475956.564       -1227.242          49.000  
  21593702.336   113475778.815       -1227.286          49.000  
  21472992.939   112841361.551       -1227.280          41.000  
  21666701.402   113859312.119       -1227.317          41.000  
  21517241.630   113073855.049       -1227.437          34.000  
  21593838.666   113476262.115       -1227.216          47.000  
  21691608.762   113990181.065       -1227.286          40.000  
  21814397.204   114635437.953       -1227.143          38.000  
  21533359.491   113158593.611       -1227.224          41.000  
  21593752.330   113475996.021       -1227.325          49.000  
  21502591.195   112996898.551       -1227.216          39.000  
  21628307.749   113657549.373       -1227.487          36.000  
  21745241.714   114272035.205       -1227.254          38.000  
  21607500.842   113548238.003       -1227.268          36.000  
  21480318.493   112879839.529       -1227.316          35.000  
  21557097.745   113283316.064       -1227.245          37.000  
  21593716.673   113475790.017       -1227.244          49.000  
  21457169.898   112758204.261       -1227.123          37.000  
  21725894.302   114170328.635       -1227.160          39.000  
  21556220.523   113278708.690       -1227.181          37.000  
  21618932.505   113608292.595       -1227.298          41.000  
  21713878.374   114107202.532       -1227.391          38.000  
  21757544.691   114336762.630       -1227.409          37.000  
  21459508.155   112770486.048       -1227.313          38.000  
  21646767.610   113754530.508       -1227.319          38.000  
  21494383.364   112953784.617       -1227.278          36.000  
 25  8 12  8 47 15.6000000  0 29G 5G 1G 2G 3G 4G31G16G19G 7G 9G11G15
                                G 6G28G21G17G32G26G10G 8G23G13G14G27
                                G30G20G29G24G18
  21593773.689   113476089.121       -1227.275          48.000  
  21593763.812   113475994.102       -1227.292          49.000  
  21593821.495   113476261.685       -1227.293          49.000  
  21593834.684   113476202.009       -1227.275          49.000  
  21593749.222   113476024.260       -1227.213          49.000  
  21473039.613   112841606.991       -1227.153          41.000  
  21666748.087   113859557.554       -1227.148          41.000  
  21517288.317   113074100.479       -1227.219          34.000  
  21593885.374   113476507.557       -1227.208          47.000  
  21691655.522   113990426.501       -1227.115          40.000  
  21814443.987   114635683.402       -1227.187          38.000  
  21533406.200   113158839.050       -1227.175          41.000  
  21593799.045   113476241.461       -1227.262          49.000  
  21502637.926   112997143.995       -1227.188          39.000  
  21628354.486   113657794.805       -1227.327          36.000  
  21745288.373   114272280.652       -1227.230          38.000  
  21607547.584   113548483.450       -1227.226          36.000  
  21480365.199   112880084.960       -1227.073          35.000  
  21557144.507   113283561.504       -1227.220          37.000  
  21593763.367   113476035.455       -1227.216          49.000  
  21457216.606   112758449.717       -1227.258          36.000  
  21725940.993   114170574.076       -1227.051          39.000  
  21556267.229   113278954.142       -1227.333          37.000  
  21618979.228   113608538.034       -1227.233          41.000  
  21713925.103   114107447.964       -1227.170          38.000  
  21757591.409   114337008.069       -1227.285          37.000  
  21459554.845   112770731.488       -1227.195          38.000  
  21646814.287   113754775.947       -1227.245          38.000  
  21494430.062   112954030.054       -1227.064          36.000  
 25  8 12  8 47 15.8000000  0 29G 5G 1G 2G 3G 4G31G16G19G 7G 9G11G15
                                G 6G28G21G17G32G26G10G 8G23G13G14G27
                                G30G20G29G24G18
  21593820.353   113476334.580       -1227.292          48.000  
  21593810.511   113476239.568       -1227.298          49.000  
  21593868.227   113476507.151       -1227.373          49.000  
  21593881.394   113476447.472       -1227.304          49.000  
  21593796.447   113476269.722       -1227.315          49.000  
  21473086.365   112841852.459       -1227.313          41.000  
  21666794.778   113859803.020       -1227.342          41.000  
  21517335.019   113074345.942       -1227.318          35.000  
  21593932.116   113476753.027       -1227.394          47.000  
  21691702.214   113990671.965       -1227.311          40.000  
  21814490.703   114635928.873       -1227.385          38.000  
  21533452.913   113159084.514       -1227.303          41.000  
  21593845.738   113476486.924       -1227.335          49.000  
  21502684.654   112997389.466       -1227.357          39.000  
  21628401.141   113658040.275       -1227.304          36.000  
  21745335.093   114272526.117       -1227.374          38.000  
  21607594.227   113548728.919       -1227.398          36.000  
  21480411.890   112880330.429       -1227.310          35.000  
  21557191.142   113283806.965       -1227.264          37.000  
  21593810.069   113476280.917       -1227.303          49.000  
  21457263.328   112758695.183       -1227.346          36.000  
  21725987.708   114170819.549       -1227.259          39.000  
  21556314.016   113279199.616       -1227.356          37.000  
  21619025.913   113608783.496       -1227.296          41.000  
  21713971.776   114107693.433       -1227.328          38.000  
  21757638.141   114337253.534       -1227.322          37.000  
  21459601.543   112770976.953       -1227.318          38.000  
  21646860.954   113755021.420       -1227.369          38.000  
  21494476.729   112954275.526       -1227.368          36.000  
 25  8 12  8 47 16.0000000  0 29G 5G 1G 2G 3G 4G31G16G19G 7G 9G11G15
                                G 6G28G21G17G32G26G10G 8G23G13G14G27
                                G30G20G29G24G18
  21593867.077   113476580.034       -1227.220          48.000  
  21593857.170   113476485.013       -1227.131          49.000  
  21593914.975   113476752.601       -1227.181          49.000  
  21593928.109   113476692.924       -1227.181          49.000  
  21593843.349   113476515.175       -1227.185          49.000  
  21473133.041   112842097.907       -1227.129          41.000  
  21666841.511   113860048.467       -1227.089          41.000  
  21517381.674   113074591.392       -1227.156          35.000  
  21593978.801   113476998.478       -1227.094          47.000  
  21691748.960   113990917.417       -1227.127          40.000  
  21814537.358   114636174.321       -1227.181          38.000  
  21533499.613   113159329.967       -1227.179          41.000  
  21593892.442   113476732.368       -1227.052          49.000  
  21502731.295   112997634.916       -1227.214          39.000  
  21628447.866   113658285.724       -1227.145          36.000  
  21745381.789   114272771.566       -1227.183          38.000  
  21607640.860   113548974.369       -1227.159          36.000  
  21480458.647   112880575.874       -1227.108          35.000  
  21557237.819   113284052.418       -1227.158          37.000  
  21593856.779   113476526.371       -1227.160          49.000  
  21457310.065   112758940.629       -1227.100          36.000  
  21726034.394   114171064.999       -1227.147          39.000  
  21556360.817   113279445.064       -1227.201          37.000  
  21619072.623   113609028.951       -1227.232          41.000  
  21714018.518   114107938.882       -1227.165          38.000  
  21757684.871   114337498.986       -1227.175          37.000  
  21459648.210   112771222.401       -1227.108          38.000  
  21646907.675   113755266.864       -1227.171          37.000  
  21494523.402   112954520.977       -1227.146          36.000  
 25  8 12  8 47 16.2000000  0 29G 5G 1G 2G 3G 4G31G16G19G 7G 9G11G15
                                G 6G28G21G17G32G26G10G 8G23G13G14G27
                                G30G20G29G24G18
  21593913.713   113476825.450       -1227.069          48.000  
  21593903.862   113476730.435       -1227.067          49.000  
  21593961.701   113476998.015       -1227.011          49.000  
  21593974.813   113476938.338       -1227.044          49.000  
  21593890.081   113476760.593       -1227.135          49.000  
  21473179.749   112842343.322       -1227.072          41.000  
  21666888.235   113860293.893       -1227.131          41.000  
  21517428.399   113074836.810       -1227.145          35.000  
  21594025.486   113477243.898       -1227.134          47.000  
  21691795.622   113991162.838       -1227.121          40.000  
  21814584.095   114636419.734       -1227.017          38.000  
  21533546.293   113159575.384       -1227.109          41.000  
  21593939.147   113476977.784       -1227.065          49.000  
  21502777.995   112997880.325       -1227.080          39.000  
  21628494.582   113658531.138       -1227.177          36.000  
  21745428.509   114273016.980       -1226.969          38.000  
  21607687.531   113549219.780       -1227.064          36.000  
  21480505.342   112880821.293       -1227.047          35.000  
  21557284.482   113284297.836       -1227.117          37.000  
  21593903.490   113476771.786       -1227.057          49.000  
  21457356.738   112759186.047       -1227.008          36.000  
  21726081.101   114171310.418       -1227.021          39.000  
  21556407.557   113279690.468       -1227.054          37.000  
  21619119.290   113609274.365       -1227.129          41.000  
  21714065.213   114108184.301       -1227.095          38.000  
  21757731.571   114337744.407       -1227.095          37.000  
  21459694.918   112771467.824       -1227.128          38.000  
  21646954.419   113755512.279       -1227.111          37.000  
  21494570.085   112954766.403       -1227.144          36.000  
 25  8 12  8 47 16.4000000  0 29G 5G 1G 2G 3G 4G31G16G19G 7G 9G11G15
                                G 6G28G21G17G32G26G10G 8G23G13G14G27
                                G30G20G29G24G18
  21593960.433   113477070.881       -1227.142          48.000  
  21593950.539   113476975.865       -1227.172          49.000  
  21594008.414   113477243.448       -1227.184          49.000  
  21594021.530   113477183.769       -1227.145          49.000  
  21593936.930   113477006.023       -1227.135          49.000  
  21473226.445   112842588.753       -1227.129          41.000  
  21666934.947   113860539.315       -1227.080          41.000  
  21517475.072   113075082.237       -1227.158          35.000  
  21594072.200   113477489.326       -1227.183          47.000  
  21691842.376   113991408.266       -1227.144          40.000  
  21814630.807   114636665.170       -1227.103          38.000  
  21533593.009   113159820.812       -1227.119          41.000  
  21593985.855   113477223.218       -1227.184          49.000  
  21502824.667   112998125.756       -1227.152          39.000  
  21628541.298   113658776.563       -1227.125          36.000  
  21745475.208   114273262.416       -1227.201          37.000  
  21607734.226   113549465.215       -1227.233          36.000  
  21480552.081   112881066.722       -1227.084          35.000  
  21557331.172   113284543.260       -1227.037          36.000  
  21593950.199   113477017.216       -1227.140          49.000  
  21457403.427   112759431.483       -1227.222          36.000  
  21726127.752   114171555.848       -1227.105          39.000  
  21556454.273   113279935.904       -1227.170          37.000  
  21619165.978   113609519.795       -1227.144          41.000  
  21714111.946   114108429.729       -1227.085          38.000  
  21757778.290   114337989.833       -1227.206          37.000  
  21459741.590   112771713.249       -1227.161          38.000  
  21647001.112   113755757.707       -1227.116          37.000  
  21494616.799   112955011.828       -1227.184          36.000  
 25  8 12  8 47 16.6000000  0 29G 5G 1G 2G 3G 4G31G16G19G 7G 9G11G15
                                G 6G28G21G17G32G26G10G 8G23G13G14G27
                                G30G20G29G24G18
  21594007.126   113477316.307       -1227.099          48.000  
  21593997.213   113477221.291       -1227.100          49.000  
  21594055.163   113477488.876       -1227.119          49.000  
  21594068.246   113477429.193       -1227.108          49.000  
  21593983.308   113477251.449       -1227.093          49.000  
  21473273.161   112842834.184       -1227.144          41.000  
  21666981.622   113860784.745       -1227.131          41.000  
  21517521.768   113075327.662       -1227.073          35.000  
  21594118.893   113477734.753       -1227.111          47.000  
  21691889.034   113991653.692       -1227.178          40.000  
  21814677.558   114636910.594       -1227.177          38.000  
  21533639.679   113160066.242       -1227.108          41.000  
  21594032.557   113477468.648       -1227.118          49.000  
  21502871.397   112998371.187       -1227.103          39.000  
  21628588.002   113659022.000       -1227.156          36.000  
  21745521.917   114273507.846       -1227.142          37.000  
  21607780.859   113549710.645       -1227.151          36.000  
  21480598.849   112881312.153       -1227.163          35.000  
  21557377.809   113284788.693       -1227.208          36.000  
  21593996.920   113477262.642       -1227.093          49.000  
  21457450.121   112759676.910       -1227.145          36.000  
  21726174.466   114171801.276       -1227.203          39.000  
  21556501.046   113280181.337       -1227.069          37.000  
  21619212.680   113609765.222       -1227.136          41.000  
  21714158.623   114108675.157       -1227.103          38.000  
  21757824.963   114338235.261       -1227.151          37.000  
  21459788.319   112771958.676       -1227.118          38.000  
  21647047.862   113756003.137       -1227.061          37.000  
  21494663.495   112955257.250       -1227.180          37.000  
 25  8 12  8 47 16.8000000  0 29G 5G 1G 2G 3G 4G31G16G19G 7G 9G11G15
                                G 6G28G21G17G32G26G10G 8G23G13G14G27
                                G30G20G29G24G18
  21594053.852   113477561.736       -1227.249          48.000  
  21594043.870   113477466.714       -1227.126          49.000  
  21594101.871   113477734.295       -1227.074          49.000  
  21594114.959   113477674.617       -1227.171          49.000  
  21594029.480   113477496.868       -1227.187          49.000  
  21473319.840   112843079.604       -1227.152          41.000  
  21667028.302   113861030.171       -1227.284          41.000  
  21517568.406   113075573.088       -1227.225          35.000  
  21594165.580   113477980.173       -1227.186          47.000  
  21691935.788   113991899.119       -1227.312          40.000  
  21814724.252   114637156.018       -1227.217          38.000  
  21533686.420   113160311.666       -1227.261          41.000  
  21594079.238   113477714.071       -1227.140          49.000  
  21502918.113   112998616.605       -1227.128          39.000  
  21628634.738   113659267.411       -1227.062          36.000  
  21745568.607   114273753.258       -1227.062          37.000  
  21607827.561   113549956.057       -1226.955          36.000  
  21480645.610   112881557.582       -1227.367          35.000  
  21557424.487   113285034.113       -1227.260          36.000  
  21594043.620   113477508.067       -1227.212          49.000  
  21457496.880   112759922.325       -1227.095          36.000  
  21726221.135   114172046.702       -1227.264          39.000  
  21556547.828   113280426.751       -1227.034          37.000  
  21619259.385   113610010.646       -1227.252          41.000  
  21714205.336   114108920.583       -1227.284          38.000  
  21757871.674   114338480.684       -1227.271          37.000  
  21459834.986   112772204.103       -1227.278          38.000  
  21647094.603   113756248.554       -1227.043          37.000  
  21494710.199   112955502.679       -1227.346          37.000  
 25  8 12  8 47 17.0000000  0 29G 5G 1G 2G 3G 4G31G16G19G 7G 9G11G15
                                G 6G28G21G17G32G26G10G 8G23G13G14G27
                                G30G20G29G24G18
  21594100.456   113477807.160       -1227.152          48.000  
  21594090.560   113477712.136       -1227.132          49.000  
  21594148.623   113477979.718       -1227.179          49.000  
  21594161.661   113477920.041       -1227.125          49.000  
  21594075.610   113477742.292       -1227.138          49.000  
  21473366.536   112843325.027       -1227.164          41.000  
  21667074.998   113861275.594       -1227.067          41.000  
  21517615.116   113075818.517       -1227.129          35.000  
  21594212.245   113478225.591       -1227.089          47.000  
  21691982.474   113992144.535       -1227.103          40.000  
  21814771.000   114637401.430       -1227.223          38.000  
  21533733.084   113160557.090       -1227.158          41.000  
  21594125.921   113477959.490       -1227.135          49.000  
  21502964.827   112998862.026       -1227.180          39.000  
  21628681.392   113659512.842       -1227.124          36.000  
  21745615.342   114273998.685       -1227.165          38.000  
  21607874.294   113550201.479       -1227.168          36.000  
  21480692.274   112881802.998       -1227.089          35.000  
  21557471.200   113285279.539       -1227.125          37.000  
  21594090.325   113477753.490       -1227.132          49.000  
  21457543.580   112760167.748       -1227.205          36.000  
  21726267.875   114172292.115       -1227.104          39.000  
  21556594.482   113280672.172       -1227.140          37.000  
  21619306.069   113610256.070       -1227.119          41.000  
  21714252.002   114109166.002       -1227.080          38.000  
  21757918.351   114338726.111       -1227.111          37.000  
  21459881.693   112772449.528       -1227.145          38.000  
  21647141.304   113756493.978       -1227.206          37.000  
  21494756.891   112955748.094       -1227.103          36.000  
 25  8 12  8 47 17.2000000  0 29G 5G 1G 2G 3G 4G31G16G19G 7G 9G11G15
                                G 6G28G21G17G32G26G10G 8G23G13G14G27
                                G30G20G29G24G18
  21594147.080   113478052.566       -1226.982          48.000  
  21594137.214   113477957.541       -1227.007          49.000  
  21594195.363   113478225.117       -1226.951          49.000  
  21594208.364   113478165.448       -1227.013          49.000  
  21594121.832   113477987.695       -1227.030          49.000  
  21473413.200   112843570.431       -1226.995          41.000  
  21667121.680   113861521.001       -1227.020          41.000  
  21517661.798   113076063.926       -1227.010          35.000  
  21594258.958   113478470.995       -1227.001          47.000  
  21692029.209   113992389.947       -1227.032          40.000  
  21814817.634   114637646.834       -1226.991          38.000  
  21533779.820   113160802.492       -1227.050          41.000  
  21594172.641   113478204.895       -1226.980          49.000  
  21503011.487   112999107.427       -1226.976          39.000  
  21628728.081   113659758.248       -1227.053          36.000  
  21745661.993   114274244.088       -1227.055          38.000  
  21607921.021   113550446.883       -1227.028          36.000  
  21480738.936   112882048.407       -1226.965          35.000  
  21557517.932   113285524.946       -1227.021          37.000  
  21594137.003   113477998.894       -1226.982          49.000  
  21457590.270   112760413.150       -1227.070          36.000  
  21726314.559   114172537.523       -1227.016          39.000  
  21556641.180   113280917.575       -1227.017          37.000  
  21619352.790   113610501.477       -1227.013          41.000  
  21714298.711   114109411.412       -1227.060          38.000  
  21757965.059   114338971.517       -1227.032          37.000  
  21459928.359   112772694.933       -1227.014          38.000  
  21647187.937   113756739.381       -1227.055          38.000  
  21494803.620   112955993.503       -1227.013          36.000  
 25  8 12  8 47 17.4000000  0 29G 5G 1G 2G 3G 4G31G16G19G 7G 9G11G15
                                G 6G28G21G17G32G26G10G 8G23G13G14G27
                                G30G20G29G24G18
  21594193.776   113478297.978       -1227.274          48.000  
  21594183.909   113478202.956       -1227.188          49.000  
  21594242.104   113478470.535       -1227.206          49.000  
  21594255.067   113478410.854       -1227.125          49.000  
  21594168.353   113478233.109       -1227.234          49.000  
  21473459.909   112843815.846       -1227.230          41.000  
  21667168.368   113861766.414       -1227.268          41.000  
  21517708.496   113076309.329       -1227.163          34.000  
  21594305.684   113478716.413       -1227.292          47.000  
  21692075.826   113992635.355       -1227.223          40.000  
  21814864.331   114637892.250       -1227.167          38.000  
  21533826.492   113161047.903       -1227.197          41.000  
  21594219.327   113478450.306       -1227.137          49.000  
  21503058.198   112999352.843       -1227.231          39.000  
  21628774.762   113660003.661       -1227.224          36.000  
  21745708.718   114274489.499       -1227.195          38.000  
  21607967.787   113550692.303       -1227.298          36.000  
  21480785.590   112882293.814       -1227.080          35.000  
  21557564.647   113285770.361       -1227.318          37.000  
  21594183.719   113478244.304       -1227.131          49.000  
  21457636.999   112760658.566       -1227.230          36.000  
  21726361.286   114172782.939       -1227.295          39.000  
  21556687.874   113281162.991       -1227.262          37.000  
  21619399.454   113610746.888       -1227.277          41.000  
  21714345.387   114109656.823       -1227.196          38.000  
  21758011.753   114339216.927       -1227.290          37.000  
  21459975.094   112772940.347       -1227.224          38.000  
  21647234.626   113756984.793       -1227.181          38.000  
  21494850.333   112956238.917       -1227.274          36.000  
 25  8 12  8 47 17.6000000  0 29G 5G 1G 2G 3G 4G31G16G19G 7G 9G11G15
                                G 6G28G21G17G32G26G10G 8G23G13G14G27
                                G30G20G29G24G18
  21594240.383   113478543.402       -1227.137          48.000  
  21594230.564   113478448.385       -1227.182          49.000  
  21594288.808   113478715.964       -1227.193          49.000  
  21594301.774   113478656.287       -1227.201          49.000  
  21594214.945   113478478.535       -1227.164          49.000  
  21473506.595   112844061.278       -1227.227          41.000  
  21667215.051   113862011.844       -1227.201          41.000  
  21517755.182   113076554.759       -1227.080          34.000  
  21594352.384   113478961.849       -1227.299          47.000  
  21692122.559   113992880.788       -1227.255          40.000  
  21814910.987   114638137.688       -1227.324          38.000  
  21533873.187   113161293.333       -1227.174          41.000  
  21594266.047   113478695.739       -1227.174          49.000  
  21503104.872   112999598.272       -1227.256          39.000  
  21628821.497   113660249.095       -1227.313          36.000  
  21745755.410   114274734.928       -1227.182          38.000  
  21608014.532   113550937.723       -1227.099          36.000  
  21480832.257   112882539.248       -1227.242          35.000  
  21557611.365   113286015.787       -1227.222          37.000  
  21594230.392   113478489.735       -1227.181          49.000  
  21457683.689   112760903.997       -1227.211          37.000  
  21726407.988   114173028.365       -1227.176          39.000  
  21556734.545   113281408.419       -1227.229          37.000  
  21619446.182   113610992.312       -1227.135          41.000  
  21714392.095   114109902.257       -1227.319          38.000  
  21758058.490   114339462.360       -1227.247          37.000  
  21460021.769   112773185.775       -1227.244          38.000  
  21647281.304   113757230.226       -1227.186          38.000  
  21494897.051   112956484.341       -1227.272          36.000  
 25  8 12  8 47 17.8000000  0 29G 5G 1G 2G 3G 4G31G16G19G 7G 9G11G15
                                G 6G28G21G17G32G26G10G 8G23G13G14G27
                                G30G20G29G24G18
  21594287.170   113478788.845       -1227.378          48.000  
  21594277.260   113478693.822       -1227.313          49.000  
  21594335.536   113478961.398       -1227.306          49.000  
  21594348.477   113478901.724       -1227.319          49.000  
  21594261.310   113478723.968       -1227.367          49.000  
  21473553.292   112844306.710       -1227.277          41.000  
  21667261.761   113862257.281       -1227.525          41.000  
  21517801.934   113076800.193       -1227.487          35.000  
  21594399.082   113479207.265       -1227.265          47.000  
  21692169.212   113993126.221       -1227.361          40.000  
  21814957.677   114638383.114       -1227.231          38.000  
  21533919.876   113161538.768       -1227.383          41.000  
  21594312.751   113478941.173       -1227.305          49.000  
  21503151.597   112999843.707       -1227.235          39.000  
  21628868.187   113660494.527       -1227.465          36.000  
  21745802.088   114274980.362       -1227.261          38.000  
  21608061.245   113551183.155       -1227.127          36.000  
  21480878.957   112882784.690       -1227.570          35.000  
  21557658.071   113286261.228       -1227.515          37.000  
  21594277.134   113478735.171       -1227.334          49.000  
  21457730.400   112761149.423       -1227.191          36.000  
  21726454.736   114173273.803       -1227.406          39.000  
  21556781.295   113281653.846       -1227.098          37.000  
  21619492.885   113611237.749       -1227.353          41.000  
  21714438.810   114110147.685       -1227.470          38.000  
  21758105.177   114339707.792       -1227.508          37.000  
  21460068.541   112773431.207       -1227.426          38.000  
  21647327.979   113757475.658       -1227.216          38.000  
  21494943.755   112956729.781       -1227.502          36.000  
 25  8 12  8 47 18.0000000  0 29G 5G 1G 2G 3G 4G31G16G19G 7G 9G11G15
                                G 6G28G21G17G32G26G10G 8G23G13G14G27
                                G30G20G29G24G18
  21594333.802   113479034.268       -1227.166          48.000  
  21594323.933   113478939.256       -1227.274          49.000  
  21594382.275   113479206.839       -1227.291          49.000  
  21594395.195   113479147.162       -1227.312          49.000  
  21594307.408   113478969.410       -1227.278          49.000  
  21473600.001   112844552.150       -1227.273          41.000  
  21667308.447   113862502.705       -1227.141          41.000  
  21517848.641   113077045.622       -1227.095          35.000  
  21594445.783   113479452.710       -1227.290          47.000  
  21692215.964   113993371.658       -1227.313          40.000  
  21815004.375   114638628.563       -1227.311          38.000  
  21533966.564   113161784.203       -1227.209          41.000  
  21594359.428   113479186.613       -1227.197          49.000  
  21503198.260   113000089.150       -1227.349          39.000  
  21628914.861   113660739.957       -1227.179          36.000  
  21745848.795   114275225.807       -1227.344          38.000  
  21608107.967   113551428.603       -1227.293          36.000  
  21480925.662   112883030.111       -1227.072          35.000  
  21557704.804   113286506.653       -1227.230          37.000  
  21594323.843   113478980.609       -1227.311          49.000  
  21457777.115   112761394.879       -1227.413          37.000  
  21726501.414   114173519.236       -1227.274          39.000  
  21556828.013   113281899.296       -1227.374          37.000  
  21619539.578   113611483.182       -1227.202          41.000  
  21714485.520   114110393.115       -1227.158          38.000  
  21758151.884   114339953.217       -1227.143          37.000  
  21460115.200   112773676.635       -1227.178          38.000  
  21647374.691   113757721.102       -1227.315          38.000  
  21494990.468   112956975.210       -1227.305          36.000  
 25  8 12  8 47 18.2000000  0 29G 5G 1G 2G 3G 4G31G16G19G 7G 9G11G15
                                G 6G28G21G17G32G26G10G 8G23G13G14G27
                                G30G20G29G24G18
  21594380.488   113479279.716       -1227.316          48.000  
  21594370.609   113479184.701       -1227.348          49.000  
  21594429.020   113479452.280       -1227.358          49.000  
  21594441.901   113479392.603       -1227.344          49.000  
  21594353.678   113479214.854       -1227.330          49.000  
  21473646.722   112844797.589       -1227.301          41.000  
  21667355.113   113862748.155       -1227.222          41.000  
  21517895.368   113077291.067       -1227.252          34.000  
  21594492.478   113479698.152       -1227.213          47.000  
  21692262.650   113993617.098       -1227.354          40.000  
  21815051.085   114638873.999       -1227.367          38.000  
  21534013.217   113162029.647       -1227.286          41.000  
  21594406.121   113479432.052       -1227.333          49.000  
  21503244.998   113000334.582       -1227.303          39.000  
  21628961.616   113660985.396       -1227.207          36.000  
  21745895.507   114275471.248       -1227.425          38.000  
  21608154.652   113551674.042       -1227.379          36.000  
  21480972.341   112883275.556       -1227.340          35.000  
  21557751.518   113286752.102       -1227.417          37.000  
  21594370.573   113479226.051       -1227.335          49.000  
  21457823.844   112761640.317       -1227.465          37.000  
  21726548.123   114173764.683       -1227.357          39.000  
  21556874.724   113282144.729       -1227.340          37.000  
  21619586.234   113611728.628       -1227.290          41.000  
  21714532.183   114110638.558       -1227.221          38.000  
  21758198.560   114340198.669       -1227.236          37.000  
  21460161.976   112773922.081       -1227.252          38.000  
  21647421.405   113757966.538       -1227.219          38.000  
  21495037.163   112957220.656       -1227.260          36.000  
 25  8 12  8 47 18.4000000  0 29G 5G 1G 2G 3G 4G31G16G19G 7G 9G11G15
                                G 6G28G21G17G32G26G10G 8G23G13G14G27
                                G30G20G29G24G18
  21594427.207   113479525.192       -1227.446          48.000  
  21594417.287   113479430.163       -1227.373          49.000  
  21594475.769   113479697.747       -1227.372          49.000  
  21594488.613   113479638.070       -1227.412          49.000  
  21594399.891   113479460.319       -1227.412          49.000  
  21473693.432   112845043.057       -1227.384          41.000  
  21667401.772   113862993.629       -1227.434          41.000  
  21517942.116   113077536.550       -1227.416          34.000  
  21594539.171   113479943.621       -1227.477          47.000  
  21692309.397   113993862.571       -1227.441          40.000  
  21815097.788   114639119.464       -1227.532          38.000  
  21534059.906   113162275.118       -1227.399          41.000  
  21594452.842   113479677.521       -1227.415          49.000  
  21503291.687   113000580.051       -1227.390          39.000  
  21629008.331   113661230.871       -1227.395          36.000  
  21745942.204   114275716.712       -1227.406          38.000  
  21608201.409   113551919.506       -1227.426          36.000  
  21481019.083   112883521.032       -1227.499          35.000  
  21557798.220   113286997.567       -1227.377          37.000  
  21594417.269   113479471.519       -1227.409          49.000  
  21457870.516   112761885.778       -1227.444          37.000  
  21726594.811   114174010.149       -1227.444          39.000  
  21556921.480   113282390.193       -1227.350          37.000  
  21619632.995   113611974.101       -1227.427          41.000  
  21714578.943   114110884.037       -1227.425          38.000  
  21758245.237   114340444.139       -1227.368          37.000  
  21460208.649   112774167.557       -1227.405          38.000  
  21647468.103   113758212.012       -1227.449          38.000  
  21495083.888   112957466.121       -1227.380          36.000  
 25  8 12  8 47 18.6000000  0 29G 5G 1G 2G 3G 4G31G16G19G 7G 9G11G15
                                G 6G28G21G17G32G26G10G 8G23G13G14G27
                                G30G20G29G24G18
  21594473.951   113479770.633       -1227.196          48.000  
  21594464.008   113479675.617       -1227.335          49.000  
  21594522.518   113479943.197       -1227.332          49.000  
  21594535.328   113479883.529       -1227.346          49.000  
  21594446.461   113479705.773       -1227.383          49.000  
  21473740.138   112845288.517       -1227.435          41.000  
  21667448.457   113863239.077       -1227.318          41.000  
  21517988.870   113077782.001       -1227.296          34.000  
  21594585.887   113480189.068       -1227.260          47.000  
  21692356.056   113994108.023       -1227.350          40.000  
  21815144.513   114639364.931       -1227.632          38.000  
  21534106.595   113162520.569       -1227.327          41.000  
  21594499.544   113479922.978       -1227.302          49.000  
  21503338.419   113000825.509       -1227.344          39.000  
  21629055.044   113661476.320       -1227.285          36.000  
  21745988.915   114275962.165       -1227.396          38.000  
  21608248.151   113552164.962       -1227.317          36.000  
  21481065.734   112883766.485       -1227.316          36.000  
  21557844.927   113287243.025       -1227.296          37.000  
  21594463.991   113479716.970       -1227.250          49.000  
  21457917.225   112762131.231       -1227.357          37.000  
  21726641.545   114174255.602       -1227.354          39.000  
  21556968.210   113282635.654       -1227.517          37.000  
  21619679.671   113612219.549       -1227.319          41.000  
  21714625.660   114111129.483       -1227.164          38.000  
  21758291.940   114340689.586       -1227.267          37.000  
  21460255.419   112774413.006       -1227.299          38.000  
  21647514.827   113758457.466       -1227.389          38.000  
  21495130.590   112957711.576       -1227.338          36.000  
 25  8 12  8 47 18.8000000  0 29G 5G 1G 2G 3G 4G31G16G19G 7G 9G11G15
                                G 6G28G21G17G32G26G10G 8G23G13G14G27
                                G30G20G29G24G18
  21594520.657   113480016.095       -1227.388          48.000  
  21594510.719   113479921.074       -1227.343          49.000  
  21594569.248   113480188.645       -1227.270          49.000  
  21594582.038   113480128.980       -1227.302          49.000  
  21594492.838   113479951.227       -1227.325          49.000  
  21473786.851   112845533.966       -1227.247          41.000  
  21667495.142   113863484.536       -1227.339          41.000  
  21518035.556   113078027.456       -1227.289          34.000  
  21594632.608   113480434.528       -1227.330          47.000  
  21692402.817   113994353.478       -1227.339          40.000  
  21815191.218   114639610.369       -1227.237          38.000  
  21534153.311   113162766.024       -1227.279          41.000  
  21594546.251   113480168.437       -1227.318          49.000  
  21503385.091   113001070.962       -1227.249          39.000  
  21629101.716   113661721.775       -1227.293          36.000  
  21746035.630   114276207.616       -1227.299          38.000  
  21608294.883   113552410.416       -1227.312          36.000  
  21481112.435   112884011.942       -1227.314          36.000  
  21557891.634   113287488.480       -1227.318          37.000  
  21594510.712   113479962.427       -1227.338          49.000  
  21457963.967   112762376.682       -1227.239          37.000  
  21726688.251   114174501.056       -1227.354          39.000  
  21557014.909   113282881.103       -1227.355          37.000  
  21619726.424   113612465.005       -1227.299          41.000  
  21714672.387   114111374.945       -1227.329          38.000  
  21758338.626   114340935.048       -1227.395          37.000  
  21460302.074   112774658.465       -1227.412          38.000  
  21647561.486   113758702.915       -1227.194          38.000  
  21495177.304   112957957.035       -1227.454          36.000  
 25  8 12  8 47 19.0000000  0 29G 5G 1G 2G 3G 4G31G16G19G 7G 9G11G15
                                G 6G28G21G17G32G26G10G 8G23G13G14G27
                                G30G20G29G24G18
  21594567.365   113480261.552       -1227.431          48.000  
  21594557.401   113480166.541       -1227.458          49.000  
  21594616.029   113480434.116       -1227.469          49.000  
  21594628.764   113480374.451       -1227.463          49.000  
  21594539.046   113480196.701       -1227.414          49.000  
  21473833.590   112845779.436       -1227.510          41.000  
  21667541.845   113863729.998       -1227.464          41.000  
  21518082.270   113078272.917       -1227.354          34.000  
  21594679.321   113480679.991       -1227.380          47.000  
  21692449.502   113994598.943       -1227.472          40.000  
  21815237.957   114639855.847       -1227.536          38.000  
  21534200.018   113163011.491       -1227.413          41.000  
  21594593.002   113480413.903       -1227.490          49.000  
  21503431.855   113001316.434       -1227.483          39.000  
  21629148.420   113661967.239       -1227.311          35.000  
  21746082.363   114276453.088       -1227.455          38.000  
  21608341.592   113552655.890       -1227.563          36.000  
  21481159.103   112884257.404       -1227.377          35.000  
  21557938.324   113287733.944       -1227.351          37.000  
  21594557.430   113480207.894       -1227.457          49.000  
  21458010.667   112762622.155       -1227.377          37.000  
  21726734.981   114174746.520       -1227.427          39.000  
  21557061.612   113283126.576       -1227.510          37.000  
  21619773.116   113612710.468       -1227.453          41.000  
  21714719.104   114111620.403       -1227.442          38.000  
  21758385.319   114341180.502       -1227.243          37.000  
  21460348.826   112774903.923       -1227.407          38.000  
  21647608.232   113758948.386       -1227.430          38.000  
  21495224.009   112958202.498       -1227.379          36.000  
 25  8 12  8 47 19.2000000  0 29G 5G 1G 2G 3G 4G31G16G19G 7G 9G11G15
                                G 6G28G21G17G32G26G10G 8G23G13G14G27
                                G30G20G29G24G18
  21594614.009   113480507.021       -1227.225          48.000  
  21594604.079   113480412.003       -1227.129          49.000  
  21594662.728   113480679.569       -1227.162          49.000  
  21594675.466   113480619.908       -1227.249          49.000  
  21594585.294   113480442.160       -1227.272          49.000  
  21473880.300   112846024.890       -1227.163          41.000  
  21667588.579   113863975.463       -1227.242          41.000  
  21518128.944   113078518.382       -1227.319          34.000  
  21594726.036   113480925.455       -1227.335          47.000  
  21692496.221   113994844.403       -1227.236          40.000  
  21815284.672   114640101.299       -1227.130          38.000  
  21534246.720   113163256.948       -1227.170          41.000  
  21594639.734   113480659.364       -1227.225          49.000  
  21503478.534   113001561.887       -1227.158          39.000  
  21629195.124   113662212.714       -1227.310          35.000  
  21746129.027   114276698.546       -1227.184          38.000  
  21608388.269   113552901.338       -1227.107          36.000  
  21481205.776   112884502.865       -1227.156          35.000  
  21557985.074   113287979.410       -1227.267          37.000  
  21594604.119   113480453.348       -1227.242          49.000  
  21458057.364   112762867.618       -1227.247          37.000  
  21726781.648   114174991.982       -1227.176          39.000  
  21557108.288   113283372.031       -1227.223          37.000  
  21619819.829   113612955.927       -1227.240          41.000  
  21714765.798   114111865.871       -1227.288          38.000  
  21758432.043   114341425.975       -1227.255          37.000  
  21460395.470   112775149.389       -1227.249          38.000  
  21647654.899   113759193.848       -1227.236          38.000  
  21495270.689   112958447.958       -1227.183          36.000  
 25  8 12  8 47 19.4000000  0 29G 5G 1G 2G 3G 4G31G16G19G 7G 9G11G15
                                G 6G28G21G17G32G26G10G 8G23G13G14G27
                                G30G20G29G24G18
  21594660.698   113480752.476       -1227.284          48.000  
  21594650.792   113480657.465       -1227.289          49.000  
  21594709.438   113480925.036       -1227.242          49.000  
  21594722.179   113480865.364       -1227.252          49.000  
  21594631.436   113480687.628       -1227.311          49.000  
  21473927.036   112846270.356       -1227.319          40.000  
  21667635.271   113864220.924       -1227.315          41.000  
  21518175.636   113078763.826       -1227.185          34.000  
  21594772.763   113481170.923       -1227.286          47.000  
  21692542.887   113995089.864       -1227.295          40.000  
  21815331.396   114640346.766       -1227.359          38.000  
  21534293.417   113163502.417       -1227.328          41.000  
  21594686.436   113480904.818       -1227.245          49.000  
  21503525.243   113001807.352       -1227.285          39.000  
  21629241.835   113662458.164       -1227.355          35.000  
  21746175.771   114276944.013       -1227.373          38.000  
  21608434.974   113553146.806       -1227.252          36.000  
  21481252.457   112884748.326       -1227.261          35.000  
  21558031.783   113288224.870       -1227.401          37.000  
  21594650.836   113480698.815       -1227.307          49.000  
  21458104.052   112763113.081       -1227.272          37.000  
  21726828.375   114175237.448       -1227.318          39.000  
  21557154.988   113283617.497       -1227.279          37.000  
  21619866.516   113613201.389       -1227.236          41.000  
  21714812.478   114112111.326       -1227.338          38.000  
  21758478.751   114341671.439       -1227.291          37.000  
  21460442.214   112775394.847       -1227.352          38.000  
  21647701.649   113759439.311       -1227.379          38.000  
  21495317.434   112958693.433       -1227.451          36.000  
 25  8 12  8 47 19.6000000  0 29G 5G 1G 2G 3G 4G31G16G19G 7G 9G11G15
                                G 6G28G21G17G32G26G10G 8G23G13G14G27
                                G30G20G29G24G18
  21594707.300   113480997.892       -1227.105          47.000  
  21594697.476   113480902.885       -1227.209          49.000  
  21594756.148   113481170.457       -1227.191          49.000  
  21594768.892   113481110.784       -1227.184          49.000  
  21594677.629   113480933.031       -1227.115          49.000  
  21473973.727   112846515.773       -1227.194          40.000  
  21667681.978   113864466.345       -1227.232          41.000  
  21518222.322   113079009.254       -1227.114          34.000  
  21594819.481   113481416.334       -1227.056          47.000  
  21692589.642   113995335.282       -1227.151          40.000  
  21815378.087   114640592.172       -1227.132          38.000  
  21534340.110   113163747.829       -1227.061          41.000  
  21594733.159   113481150.245       -1227.221          49.000  
  21503571.902   113002052.768       -1227.174          39.000  
  21629288.499   113662703.586       -1227.148          35.000  
  21746222.425   114277189.425       -1227.158          38.000  
  21608481.665   113553392.225       -1227.152          36.000  
  21481299.145   112884993.752       -1227.257          35.000  
  21558078.486   113288470.280       -1227.098          37.000  
  21594697.550   113480944.235       -1227.169          49.000  
  21458150.745   112763358.495       -1227.222          37.000  
  21726875.118   114175482.860       -1227.173          39.000  
  21557201.697   113283862.911       -1227.144          37.000  
  21619913.218   113613446.812       -1227.218          41.000  
  21714859.217   114112356.749       -1227.220          38.000  
  21758525.456   114341916.859       -1227.173          37.000  
  21460488.867   112775640.267       -1227.191          38.000  
  21647748.344   113759684.721       -1227.090          38.000  
  21495364.157   112958938.839       -1227.156          36.000  
 25  8 12  8 47 19.8000000  0 29G 5G 1G 2G 3G 4G31G16G19G 7G 9G11G15
                                G 6G28G21G17G32G26G10G 8G23G13G14G27
                                G30G20G29G24G18
  21594754.026   113481243.308       -1226.993          48.000  
  21594744.140   113481148.298       -1227.079          49.000  
  21594802.837   113481415.868       -1227.029          49.000  
  21594815.595   113481356.199       -1227.060          49.000  
  21594723.755   113481178.441       -1226.832          49.000  
  21474020.443   112846761.194       -1226.940          40.000  
  21667728.627   113864711.764       -1227.154          41.000  
  21518269.036   113079254.685       -1227.087          34.000  
  21594866.199   113481661.738       -1226.880          47.000  
  21692636.314   113995580.690       -1226.978          40.000  
  21815424.844   114640837.589       -1226.837          38.000  
  21534386.810   113163993.233       -1226.962          41.000  
  21594779.839   113481395.654       -1227.072          49.000  
  21503618.654   113002298.174       -1226.868          39.000  
  21629335.199   113662948.969       -1227.111          35.000  
  21746269.092   114277434.830       -1226.933          38.000  
  21608528.405   113553637.630       -1226.873          36.000  
  21481345.812   112885239.158       -1227.037          36.000  
  21558125.198   113288715.706       -1227.094          37.000  
  21594744.250   113481189.646       -1227.021          49.000  
  21458197.411   112763603.892       -1226.699          37.000  
  21726921.834   114175728.287       -1226.998          39.000  
  21557248.393   113284108.301       -1226.917          37.000  
  21619959.893   113613692.225       -1227.053          41.000  
  21714905.925   114112602.157       -1227.219          38.000  
  21758572.169   114342162.243       -1227.170          37.000  
  21460535.623   112775885.693       -1227.133          38.000  
  21647795.065   113759930.118       -1226.773          38.000  
  21495410.876   112959184.274       -1227.091          36.000  
 25  8 12  8 47 20.0000000  0 29G 5G 1G 2G 3G 4G31G16G19G 7G 9G11G15
                                G 6G28G21G17G32G26G10G 8G23G13G14G27
                                G30G20G29G24G18
  21594800.732   113481488.729       -1227.173          48.000  
  21594790.826   113481393.723       -1227.286          49.000  
  21594849.597   113481661.303       -1227.227          49.000  
  21594862.308   113481601.617       -1227.237          49.000  
  21594770.204   113481423.871       -1227.142          49.000  
  21474067.079   112847006.616       -1227.169          40.000  
  21667775.313   113864957.184       -1227.184          41.000  
  21518315.764   113079500.106       -1227.340          34.000  
  21594912.909   113481907.177       -1227.269          47.000  
  21692683.059   113995826.119       -1227.183          40.000  
  21815471.530   114641083.016       -1227.180          37.000  
  21534433.508   113164238.661       -1227.206          41.000  
  21594826.553   113481641.076       -1227.243          49.000  
  21503665.378   113002543.602       -1227.156          39.000  
  21629381.876   113663194.409       -1227.182          35.000  
  21746315.794   114277680.263       -1227.280          38.000  
  21608575.090   113553883.065       -1227.225          36.000  
  21481392.545   112885484.578       -1227.144          36.000  
  21558171.909   113288961.123       -1227.155          37.000  
  21594790.986   113481435.075       -1227.204          49.000  
  21458244.124   112763849.332       -1227.284          36.000  
  21726968.548   114175973.707       -1227.207          38.000  
  21557295.109   113284353.741       -1227.219          37.000  
  21620006.600   113613937.651       -1227.189          41.000  
  21714952.644   114112847.579       -1227.210          38.000  
  21758618.862   114342407.677       -1227.137          37.000  
  21460582.249   112776131.115       -1227.224          38.000  
  21647841.788   113760175.551       -1227.132          38.000  
  21495457.588   112959429.698       -1227.303          36.000  
 25  8 12  8 47 20.2000000  0 29G 5G 1G 2G 3G 4G31G16G19G 7G 9G11G15
                                G 6G28G21G17G32G26G10G 8G23G13G14G27
                                G30G20G29G24G18
  21594847.447   113481734.184       -1227.375          48.000  
  21594837.471   113481639.161       -1227.213          49.000  
  21594896.303   113481906.737       -1227.244          49.000  
  21594909.020   113481847.058       -1227.290          49.000  
  21594817.001   113481669.315       -1227.332          49.000  
  21474113.800   112847252.062       -1227.203          40.000  
  21667821.954   113865202.626       -1227.225          41.000  
  21518362.492   113079745.547       -1227.302          34.000  
  21594959.600   113482152.615       -1227.250          47.000  
  21692729.733   113996071.560       -1227.263          40.000  
  21815518.192   114641328.458       -1227.275          37.000  
  21534480.256   113164484.106       -1227.281          41.000  
  21594873.250   113481886.518       -1227.183          49.000  
  21503712.088   113002789.050       -1227.297          39.000  
  21629428.543   113663439.844       -1227.236          35.000  
  21746362.501   114277925.700       -1227.238          38.000  
  21608621.782   113554128.512       -1227.163          36.000  
  21481439.250   112885730.027       -1227.395          36.000  
  21558218.629   113289206.566       -1227.205          37.000  
  21594837.693   113481680.522       -1227.242          49.000  
  21458290.802   112764094.767       -1227.289          36.000  
  21727015.314   114176219.148       -1227.219          38.000  
  21557341.762   113284599.174       -1227.139          37.000  
  21620053.295   113614183.094       -1227.269          41.000  
  21714999.350   114113093.024       -1227.267          38.000  
  21758665.549   114342653.116       -1227.394          37.000  
  21460629.039   112776376.557       -1227.231          38.000  
  21647888.550   113760420.996       -1227.241          38.000  
  21495504.262   112959675.129       -1227.238          36.000  
 25  8 12  8 47 20.4000000  0 29G 5G 1G 2G 3G 4G31G16G19G 7G 9G11G15
                                G 6G28G21G17G32G26G10G 8G23G13G14G27
                                G30G20G29G24G18
  21594894.206   113481979.590       -1227.093          48.000  
  21594884.125   113481884.579       -1227.108          49.000  
  21594943.021   113482152.162       -1227.169          49.000  
  21594955.736   113482092.480       -1227.188          49.000  
  21594863.508   113481914.728       -1227.163          49.000  
  21474160.475   112847497.477       -1227.130          40.000  
  21667868.650   113865448.037       -1227.089          41.000  
  21518409.197   113079990.958       -1227.081          34.000  
  21595006.299   113482398.021       -1227.231          47.000  
  21692776.479   113996316.974       -1227.103          40.000  
  21815564.859   114641573.872       -1227.055          37.000  
  21534526.972   113164729.521       -1227.168          41.000  
  21594919.970   113482131.933       -1227.097          49.000  
  21503758.741   113003034.468       -1227.147          39.000  
  21629475.257   113663685.264       -1227.241          35.000  
  21746409.189   114278171.121       -1227.186          38.000  
  21608668.430   113554373.917       -1227.080          35.000  
  21481485.924   112885975.436       -1227.057          36.000  
  21558265.355   113289451.985       -1227.103          37.000  
  21594884.389   113481925.935       -1227.096          49.000  
  21458337.485   112764340.190       -1227.095          36.000  
  21727062.003   114176464.569       -1227.138          38.000  
  21557388.424   113284844.601       -1227.253          37.000  
  21620099.972   113614428.512       -1227.187          41.000  
  21715046.079   114113338.429       -1227.147          38.000  
  21758712.266   114342898.525       -1227.152          37.000  
  21460675.691   112776621.968       -1227.124          38.000  
  21647935.262   113760666.412       -1227.255          38.000  
  21495550.966   112959920.548       -1227.106          37.000  
 25  8 12  8 47 20.6000000  0 29G 5G 1G 2G 3G 4G31G16G19G 7G 9G11G15
                                G 6G28G21G17G32G26G10G 8G23G13G14G27
                                G30G20G29G24G18
  21594940.949   113482225.023       -1227.213          48.000  
  21594930.798   113482130.003       -1227.224          49.000  
  21594989.775   113482397.587       -1227.228          49.000  
  21595002.448   113482337.906       -1227.236          49.000  
  21594909.689   113482160.157       -1227.234          49.000  
  21474207.198   112847742.900       -1227.133          40.000  
  21667915.311   113865693.469       -1227.215          41.000  
  21518455.865   113080236.388       -1227.089          34.000  
  21595052.998   113482643.461       -1227.393          47.000  
  21692823.148   113996562.408       -1227.287          40.000  
  21815611.605   114641819.303       -1227.443          37.000  
  21534573.708   113164974.953       -1227.345          41.000  
  21594966.686   113482377.363       -1227.275          49.000  
  21503805.569   113003279.896       -1227.291          39.000  
  21629521.999   113663930.695       -1227.414          35.000  
  21746455.848   114278416.547       -1227.286          38.000  
  21608715.156   113554619.349       -1227.239          35.000  
  21481532.614   112886220.877       -1227.327          36.000  
  21558312.089   113289697.410       -1227.076          37.000  
  21594931.123   113482171.363       -1227.202          49.000  
  21458384.181   112764585.612       -1227.288          36.000  
  21727108.753   114176709.990       -1227.164          38.000  
  21557435.059   113285090.033       -1227.462          37.000  
  21620146.646   113614673.938       -1227.156          41.000  
  21715092.766   114113583.872       -1227.356          38.000  
  21758758.965   114343143.970       -1227.496          37.000  
  21460722.465   112776867.398       -1227.134          38.000  
  21647982.013   113760911.841       -1227.351          38.000  
  21495597.624   112960165.964       -1226.967          37.000  
 25  8 12  8 47 20.8000000  0 29G 5G 1G 2G 3G 4G31G16G19G 7G 9G11G15
                                G 6G28G21G17G32G26G10G 8G23G13G14G27
                                G30G20G29G24G18
  21594987.702   113482470.461       -1227.270          48.000  
  21594977.471   113482375.447       -1227.236          49.000  
  21595036.531   113482643.031       -1227.270          49.000  
  21595049.156   113482583.346       -1227.225          49.000  
  21594956.128   113482405.603       -1227.256          49.000  
  21474253.897   112847988.345       -1227.280          40.000  
  21667962.040   113865938.912       -1227.312          41.000  
  21518502.599   113080481.833       -1227.428          34.000  
  21595099.716   113482888.905       -1227.119          47.000  
  21692869.897   113996807.854       -1227.262          40.000  
  21815658.322   114642064.737       -1227.138          37.000  
  21534620.402   113165220.402       -1227.178          41.000  
  21595013.410   113482622.807       -1227.217          49.000  
  21503852.218   113003525.339       -1227.211          39.000  
  21629568.672   113664176.151       -1227.163          36.000  
  21746502.581   114278661.993       -1227.117          38.000  
  21608761.872   113554864.794       -1227.234          36.000  
  21481579.334   112886466.311       -1227.131          36.000  
  21558358.790   113289942.848       -1227.216          37.000  
  21594977.808   113482416.807       -1227.256          49.000  
  21458430.885   112764831.058       -1227.219          36.000  
  21727155.413   114176955.427       -1227.250          38.000  
  21557481.774   113285335.480       -1227.145          37.000  
  21620193.350   113614919.382       -1227.299          41.000  
  21715139.461   114113829.317       -1227.233          38.000  
  21758805.661   114343389.417       -1227.151          37.000  
  21460769.127   112777112.839       -1227.354          38.000  
  21648028.707   113761157.286       -1227.093          38.000  
  21495644.341   112960411.411       -1227.406          36.000  
 25  8 12  8 47 21.0000000  0 29G 5G 1G 2G 3G 4G31G16G19G 7G 9G11G15
                                G 6G28G21G17G32G26G10G 8G23G13G14G27
                                G30G20G29G24G18
  21595034.440   113482715.881       -1227.065          48.000  
  21595024.173   113482620.872       -1227.085          49.000  
  21595083.249   113482888.457       -1227.118          49.000  
  21595095.870   113482828.767       -1227.073          49.000  
  21595002.858   113482651.025       -1227.113          49.000  
  21474300.612   112848233.767       -1227.159          40.000  
  21668008.731   113866184.324       -1226.929          41.000  
  21518549.327   113080727.237       -1226.973          34.000  
  21595146.438   113483134.329       -1227.098          47.000  
  21692916.565   113997053.270       -1227.053          40.000  
  21815705.001   114642310.176       -1227.238          37.000  
  21534667.141   113165465.826       -1227.118          41.000  
  21595060.116   113482868.229       -1227.040          49.000  
  21503898.954   113003770.770       -1227.228          39.000  
  21629615.374   113664421.571       -1227.080          36.000  
  21746549.268   114278907.423       -1227.095          38.000  
  21608808.624   113555110.226       -1227.191          36.000  
  21481626.026   112886711.729       -1226.948          36.000  
  21558405.475   113290188.265       -1226.987          37.000  
  21595024.527   113482662.225       -1227.006          49.000  
  21458477.605   112765076.487       -1227.222          36.000  
  21727202.112   114177200.853       -1227.145          38.000  
  21557528.450   113285580.918       -1227.280          37.000  
  21620240.031   113615164.800       -1227.014          41.000  
  21715186.152   114114074.731       -1226.995          38.000  
  21758852.357   114343634.830       -1226.910          37.000  
  21460815.826   112777358.253       -1227.097          38.000  
  21648075.466   113761402.720       -1227.225          38.000  
  21495691.029   112960656.824       -1227.053          36.000  
 25  8 12  8 47 21.2000000  0 29G 5G 1G 2G 3G 4G31G16G19G 7G 9G11G15
                                G 6G28G21G17G32G26G10G 8G23G13G14G27
                                G30G20G29G24G18
  21595081.182   113482961.313       -1227.379          48.000  
  21595070.879   113482866.296       -1227.236          49.000  
  21595129.966   113483133.881       -1227.264          49.000  
  21595142.580   113483074.191       -1227.263          49.000  
  21595049.873   113482896.443       -1227.247          49.000  
  21474347.297   112848479.185       -1227.240          40.000  
  21668055.459   113866429.754       -1227.209          41.000  
  21518596.026   113080972.675       -1227.347          34.000  
  21595193.126   113483379.754       -1227.297          47.000  
  21692963.331   113997298.695       -1227.251          40.000  
  21815751.709   114642555.590       -1227.385          38.000  
  21534713.859   113165711.247       -1227.240          41.000  
  21595106.858   113483113.650       -1227.187          49.000  
  21503945.624   113004016.187       -1227.347          39.000  
  21629662.117   113664667.003       -1227.373          36.000  
  21746595.992   114279152.845       -1227.270          38.000  
  21608855.342   113555355.638       -1227.248          36.000  
  21481672.768   112886957.160       -1227.252          36.000  
  21558452.179   113290433.697       -1227.314          37.000  
  21595071.223   113482907.650       -1227.184          49.000  
  21458524.297   112765321.900       -1227.306          36.000  
  21727248.805   114177446.275       -1227.306          38.000  
  21557575.103   113285826.333       -1227.285          37.000  
  21620286.709   113615410.230       -1227.247          41.000  
  21715232.828   114114320.159       -1227.269          38.000  
  21758899.042   114343880.267       -1227.259          37.000  
  21460862.478   112777603.685       -1227.307          38.000  
  21648122.168   113761648.132       -1227.281          38.000  
  21495737.744   112960902.252       -1227.245          36.000  
 25  8 12  8 47 21.4000000  0 29G 5G 1G 2G 3G 4G31G16G19G 7G 9G11G15
                                G 6G28G21G17G32G26G10G 8G23G13G14G27
                                G30G20G29G24G18
  21595127.847   113483206.736       -1227.032          48.000  
  21595117.590   113483111.714       -1227.048          49.000  
  21595176.686   113483379.297       -1226.981          49.000  
  21595189.294   113483319.624       -1227.080          49.000  
  21595096.386   113483141.874       -1227.134          49.000  
  21474394.003   112848724.614       -1227.128          40.000  
  21668102.120   113866675.182       -1227.160          41.000  
  21518642.711   113081218.103       -1227.246          34.000  
  21595239.864   113483625.187       -1227.132          47.000  
  21693010.013   113997544.126       -1227.122          40.000  
  21815798.405   114642801.015       -1226.926          38.000  
  21534760.543   113165956.672       -1227.056          41.000  
  21595153.591   113483359.076       -1227.090          49.000  
  21503992.327   113004261.614       -1227.087          39.000  
  21629708.796   113664912.429       -1227.075          36.000  
  21746642.677   114279398.268       -1227.038          38.000  
  21608902.035   113555601.058       -1227.021          36.000  
  21481719.475   112887202.597       -1227.290          36.000  
  21558498.867   113290679.121       -1227.144          37.000  
  21595117.939   113483153.071       -1227.059          49.000  
  21458570.972   112765567.322       -1226.907          36.000  
  21727295.512   114177691.700       -1227.032          38.000  
  21557621.791   113286071.752       -1227.058          37.000  
  21620333.365   113615655.652       -1227.142          41.000  
  21715279.530   114114565.592       -1227.164          38.000  
  21758945.770   114344125.698       -1227.250          37.000  
  21460909.225   112777849.110       -1227.122          38.000  
  21648168.884   113761893.569       -1227.125          38.000  
  21495784.445   112961147.681       -1227.040          36.000  
 25  8 12  8 47 21.6000000  0 29G 5G 1G 2G 3G 4G31G16G19G 7G 9G11G15
                                G 6G28G21G17G32G26G10G 8G23G13G14G27
                                G30G20G29G24G18
  21595174.561   113483452.156       -1227.223          48.000  
  21595164.264   113483357.147       -1227.255          49.000  
  21595223.435   113483624.724       -1227.270          49.000  
  21595236.007   113483565.051       -1227.217          49.000  
  21595142.719   113483387.297       -1227.239          49.000  
  21474440.671   112848970.043       -1227.297          40.000  
  21668148.841   113866920.601       -1227.223          41.000  
  21518689.426   113081463.519       -1227.208          34.000  
  21595286.580   113483870.609       -1227.257          47.000  
  21693056.738   113997789.548       -1227.242          40.000  
  21815845.118   114643046.446       -1227.152          38.000  
  21534807.281   113166202.097       -1227.205          41.000  
  21595200.279   113483604.508       -1227.248          49.000  
  21504038.965   113004507.047       -1227.280          39.000  
  21629755.561   113665157.860       -1227.446          36.000  
  21746689.384   114279643.698       -1227.375          38.000  
  21608948.748   113555846.494       -1227.342          36.000  
  21481766.199   112887448.013       -1227.194          36.000  
  21558545.569   113290924.546       -1227.257          37.000  
  21595164.646   113483398.498       -1227.182          49.000  
  21458617.684   112765812.759       -1227.373          36.000  
  21727342.195   114177937.124       -1227.144          38.000  
  21557668.540   113286317.189       -1227.428          37.000  
  21620380.104   113615901.077       -1227.297          41.000  
  21715326.244   114114811.007       -1227.198          38.000  
  21758992.467   114344371.114       -1227.298          37.000  
  21460955.878   112778094.531       -1227.207          38.000  
  21648215.599   113762138.994       -1227.276          38.000  
  21495831.149   112961393.104       -1227.206          36.000  
 25  8 12  8 47 21.8000000  0 29G 5G 1G 2G 3G 4G31G16G19G 7G 9G11G15
                                G 6G28G21G17G32G26G10G 8G23G13G14G27
                                G30G20G29G24G18
  21595221.303   113483697.591       -1227.352          48.000  
  21595210.968   113483602.573       -1227.308          49.000  
  21595270.167   113483870.155       -1227.318          49.000  
  21595282.712   113483810.471       -1227.238          49.000  
  21595189.476   113483632.725       -1227.355          49.000  
  21474487.407   112849215.463       -1227.294          40.000  
  21668195.533   113867166.024       -1227.288          41.000  
  21518736.127   113081708.946       -1227.358          34.000  
  21595333.286   113484116.021       -1227.197          47.000  
  21693103.453   113998034.966       -1227.255          40.000  
  21815891.812   114643291.870       -1227.212          38.000  
  21534854.007   113166447.518       -1227.241          41.000  
  21595247.006   113483849.930       -1227.258          49.000  
  21504085.756   113004752.470       -1227.318          39.000  
  21629802.285   113665403.278       -1227.277          36.000  
  21746736.087   114279889.122       -1227.316          38.000  
  21608995.398   113556091.911       -1227.215          36.000  
  21481812.943   112887693.434       -1227.252          36.000  
  21558592.269   113291169.968       -1227.292          37.000  
  21595211.348   113483643.921       -1227.246          49.000  
  21458664.353   112766058.184       -1227.301          36.000  
  21727388.881   114178182.548       -1227.293          38.000  
  21557715.284   113286562.613       -1227.295          37.000  
  21620426.781   113616146.499       -1227.278          41.000  
  21715372.943   114115056.430       -1227.239          38.000  
  21759039.153   114344616.528       -1227.229          37.000  
  21461002.606   112778339.951       -1227.208          38.000  
  21648262.368   113762384.417       -1227.271          38.000  
  21495877.811   112961638.520       -1227.218          36.000  
 25  8 12  8 47 22.0000000  0 29G 5G 1G 2G 3G 4G31G16G19G 7G 9G11G15
                                G 6G28G21G17G32G26G10G 8G23G13G14G27
                                G30G20G29G24G18
  21595267.922   113483943.016       -1226.927          48.000  
  21595257.657   113483848.010       -1227.125          49.000  
  21595316.882   113484115.588       -1226.990          49.000  
  21595329.420   113484055.914       -1227.065          49.000  
  21595236.170   113483878.170       -1227.042          49.000  
  21474534.090   112849460.909       -1227.106          40.000  
  21668242.260   113867411.467       -1227.049          41.000  
  21518782.807   113081954.380       -1226.931          34.000  
  21595379.990   113484361.475       -1227.078          47.000  
  21693150.217   113998280.411       -1227.031          40.000  
  21815938.490   114643537.313       -1227.057          38.000  
  21534900.720   113166692.968       -1227.046          41.000  
  21595293.704   113484095.373       -1227.019          49.000  
  21504132.468   113004997.912       -1227.018          39.000  
  21629849.044   113665648.715       -1227.068          36.000  
  21746782.778   114280134.562       -1226.999          38.000  
  21609042.071   113556337.355       -1227.013          36.000  
  21481859.702   112887938.873       -1227.003          36.000  
  21558638.936   113291415.405       -1227.036          37.000  
  21595258.034   113483889.363       -1227.051          49.000  
  21458711.104   112766303.626       -1227.129          36.000  
  21727435.596   114178427.989       -1227.033          39.000  
  21557762.066   113286808.055       -1227.126          37.000  
  21620473.512   113616391.941       -1226.978          41.000  
  21715419.668   114115301.877       -1227.088          38.000  
  21759085.850   114344861.975       -1227.082          37.000  
  21461049.262   112778585.395       -1226.969          38.000  
  21648309.083   113762629.859       -1226.963          38.000  
  21495924.527   112961883.968       -1227.058          37.000  
 25  8 12  8 47 22.2000000  0 29G 5G 1G 2G 3G 4G31G16G19G 7G 9G11G15
                                G 6G28G21G17G32G26G10G 8G23G13G14G27
                                G30G20G29G24G18
  21595314.685   113484188.439       -1227.190          48.000  
  21595304.334   113484093.413       -1227.074          49.000  
  21595363.585   113484360.993       -1227.083          49.000  
  21595376.121   113484301.321       -1227.126          49.000  
  21595282.600   113484123.574       -1227.113          49.000  
  21474580.779   112849706.310       -1227.144          40.000  
  21668288.947   113867656.875       -1227.134          41.000  
  21518829.513   113082199.794       -1227.186          34.000  
  21595426.712   113484606.867       -1227.044          46.000  
  21693196.919   113998525.818       -1227.093          40.000  
  21815985.202   114643782.715       -1226.987          38.000  
  21534947.404   113166938.372       -1227.189          41.000  
  21595340.378   113484340.782       -1227.118          49.000  
  21504179.201   113005243.318       -1227.223          39.000  
  21629895.802   113665894.125       -1227.194          36.000  
  21746829.468   114280379.962       -1227.043          38.000  
  21609088.741   113556582.758       -1227.155          36.000  
  21481906.426   112888184.292       -1227.175          36.000  
  21558685.618   113291660.813       -1227.094          37.000  
  21595304.747   113484134.771       -1227.088          49.000  
  21458757.773   112766549.028       -1227.161          36.000  
  21727482.307   114178673.396       -1227.114          39.000  
  21557808.762   113287053.446       -1227.114          37.000  
  21620520.191   113616637.350       -1227.192          41.000  
  21715466.383   114115547.283       -1227.177          38.000  
  21759132.525   114345107.381       -1227.167          37.000  
  21461096.027   112778830.803       -1227.188          38.000  
  21648355.837   113762875.268       -1227.245          38.000  
  21495971.234   112962129.372       -1227.097          37.000  
 25  8 12  8 47 22.4000000  0 29G 5G 1G 2G 3G 4G31G16G19G 7G 9G11G15
                                G 6G28G21G17G32G26G10G 8G23G13G14G27
                                G30G20G29G24G18
  21595361.366   113484433.839       -1227.180          48.000  
  21595351.011   113484338.825       -1227.144          49.000  
  21595410.308   113484606.405       -1227.209          49.000  
  21595422.824   113484546.731       -1227.098          49.000  
  21595329.611   113484368.977       -1227.148          49.000  
  21474627.465   112849951.722       -1227.131          40.000  
  21668335.651   113867902.283       -1227.125          41.000  
  21518876.173   113082445.201       -1227.074          34.000  
  21595473.444   113484852.277       -1227.219          46.000  
  21693243.621   113998771.229       -1227.138          40.000  
  21816031.883   114644028.131       -1227.150          38.000  
  21534994.061   113167183.776       -1227.089          41.000  
  21595387.091   113484586.194       -1227.163          49.000  
  21504225.869   113005488.724       -1227.106          39.000  
  21629942.495   113666139.540       -1227.302          35.000  
  21746876.198   114280625.377       -1227.170          38.000  
  21609135.399   113556828.165       -1227.119          36.000  
  21481953.150   112888429.700       -1227.206          36.000  
  21558732.323   113291906.226       -1227.164          37.000  
  21595351.439   113484380.181       -1227.131          49.000  
  21458804.472   112766794.438       -1227.263          36.000  
  21727529.003   114178918.802       -1227.087          39.000  
  21557855.488   113287298.858       -1227.162          37.000  
  21620566.898   113616882.756       -1227.099          41.000  
  21715513.053   114115792.692       -1227.173          38.000  
  21759179.223   114345352.786       -1227.171          37.000  
  21461142.691   112779076.210       -1227.214          38.000  
  21648402.543   113763120.672       -1227.120          38.000  
  21496017.947   112962374.780       -1227.078          36.000  
 25  8 12  8 47 22.6000000  0 29G 5G 1G 2G 3G 4G31G16G19G 7G 9G11G15
                                G 6G28G21G17G32G26G10G 8G23G13G14G27
                                G30G20G29G24G18
  21595408.066   113484679.224       -1226.910          48.000  
  21595397.674   113484584.226       -1227.037          49.000  
  21595457.030   113484851.801       -1226.957          49.000  
  21595469.539   113484792.120       -1226.949          49.000  
  21595376.180   113484614.366       -1226.923          49.000  
  21474674.143   112850197.115       -1226.968          40.000  
  21668382.323   113868147.676       -1227.046          41.000  
  21518922.862   113082690.584       -1226.918          35.000  
  21595520.170   113485097.684       -1226.861          46.000  
  21693290.276   113999016.617       -1226.907          40.000  
  21816078.580   114644273.520       -1226.915          38.000  
  21535040.744   113167429.172       -1226.937          41.000  
  21595433.809   113484831.577       -1226.885          49.000  
  21504272.559   113005734.115       -1226.888          39.000  
  21629989.178   113666384.927       -1226.834          35.000  
  21746922.905   114280870.769       -1226.948          38.000  
  21609182.014   113557073.563       -1226.897          36.000  
  21481999.865   112888675.077       -1226.844          36.000  
  21558779.004   113292151.612       -1226.969          37.000  
  21595398.124   113484625.576       -1226.932          49.000  
  21458851.181   112767039.831       -1226.926          36.000  
  21727575.704   114179164.201       -1226.959          39.000  
  21557902.259   113287544.263       -1226.851          37.000  
  21620613.579   113617128.148       -1226.981          41.000  
  21715559.766   114116038.077       -1226.897          38.000  
  21759225.910   114345598.188       -1227.057          37.000  
  21461189.425   112779321.603       -1226.952          38.000  
  21648449.276   113763366.066       -1226.889          38.000  
  21496064.624   112962620.181       -1226.982          36.000  
 25  8 12  8 47 22.8000000  0 29G 5G 1G 2G 3G 4G31G16G19G 7G 9G11G15
                                G 6G28G21G17G32G26G10G 8G23G13G14G27
                                G30G20G29G24G18
  21595454.757   113484924.675       -1227.374          48.000  
  21595444.359   113484829.647       -1227.094          49.000  
  21595503.745   113485097.230       -1227.301          49.000  
  21595516.244   113485037.553       -1227.121          49.000  
  21595422.679   113484859.816       -1227.389          49.000  
  21474720.810   112850442.548       -1227.236          40.000  
  21668429.068   113868393.112       -1227.375          41.000  
  21518969.529   113082936.025       -1227.434          35.000  
  21595566.890   113485343.120       -1227.506          47.000  
  21693336.986   113999262.060       -1227.427          40.000  
  21816125.275   114644518.960       -1227.392          38.000  
  21535087.471   113167674.611       -1227.347          41.000  
  21595480.509   113485077.009       -1227.225          49.000  
  21504319.263   113005979.548       -1227.217          39.000  
  21630035.954   113666630.354       -1227.245          35.000  
  21746969.615   114281116.203       -1227.250          38.000  
  21609228.716   113557318.991       -1227.146          36.000  
  21482046.569   112888920.520       -1227.380          36.000  
  21558825.674   113292397.048       -1227.275          37.000  
  21595444.820   113484871.007       -1227.232          49.000  
  21458897.925   112767285.264       -1227.257          36.000  
  21727622.410   114179409.640       -1227.403          39.000  
  21557949.046   113287789.685       -1227.137          37.000  
  21620660.299   113617373.586       -1227.288          41.000  
  21715606.455   114116283.521       -1227.406          38.000  
  21759272.631   114345843.622       -1227.358          37.000  
  21461236.088   112779567.044       -1227.369          38.000  
  21648495.962   113763611.504       -1227.334          38.000  
  21496111.352   112962865.615       -1227.314          37.000  
 25  8 12  8 47 23.0000000  0 29G 5G 1G 2G 3G 4G31G16G19G 7G 9G11G15
                                G 6G28G21G17G32G26G10G 8G23G13G14G27
                                G30G20G29G24G18
  21595501.470   113485170.098       -1227.084          47.000  
  21595491.042   113485075.084       -1227.244          49.000  
  21595550.495   113485342.653       -1227.125          49.000  
  21595562.951   113485282.984       -1227.176          49.000  
  21595469.577   113485105.243       -1227.380          49.000  
  21474767.526   112850687.976       -1227.256          41.000  
  21668475.725   113868638.541       -1227.202          41.000  
  21519016.214   113083181.452       -1227.084          34.000  
  21595613.618   113485588.525       -1227.151          47.000  
  21693383.685   113999507.477       -1227.153          40.000  
  21816172.004   114644764.374       -1227.333          38.000  
  21535134.159   113167920.032       -1227.241          41.000  
  21595527.211   113485322.446       -1227.289          49.000  
  21504365.983   113006224.971       -1227.252          39.000  
  21630082.645   113666875.781       -1227.170          36.000  
  21747016.289   114281361.634       -1227.287          38.000  
  21609275.499   113557564.427       -1227.351          36.000  
  21482093.254   112889165.934       -1227.128          36.000  
  21558872.396   113292642.473       -1227.094          37.000  
  21595491.531   113485116.427       -1227.072          49.000  
  21458944.658   112767530.691       -1227.358          36.000  
  21727669.108   114179655.058       -1227.146          39.000  
  21557995.737   113288035.111       -1227.274          37.000  
  21620707.016   113617619.014       -1227.133          41.000  
  21715653.185   114116528.950       -1227.247          38.000  
  21759319.330   114346089.039       -1227.009          37.000  
  21461282.825   112779812.474       -1227.262          38.000  
  21648542.687   113763856.927       -1227.362          38.000  
  21496158.065   112963111.029       -1227.072          36.000  
 25  8 12  8 47 23.2000000  0 29G 5G 1G 2G 3G 4G31G16G19G 7G 9G11G15
                                G 6G28G21G17G32G26G10G 8G23G13G14G27
                                G30G20G29G24G18
  21595548.192   113485415.536       -1227.389          47.000  
  21595537.742   113485320.515       -1227.082          49.000  
  21595597.222   113485588.096       -1227.088          49.000  
  21595609.664   113485528.428       -1227.276          49.000  
  21595516.171   113485350.676       -1227.168          49.000  
  21474814.158   112850933.412       -1227.190          41.000  
  21668522.454   113868883.980       -1227.183          41.000  
  21519062.915   113083426.902       -1227.272          34.000  
  21595660.319   113485833.972       -1227.200          47.000  
  21693430.390   113999752.924       -1227.256          40.000  
  21816218.683   114645009.817       -1227.236          38.000  
  21535180.859   113168165.477       -1227.225          41.000  
  21595573.910   113485567.881       -1227.068          49.000  
  21504412.619   113006470.413       -1227.194          39.000  
  21630129.343   113667121.229       -1227.293          35.000  
  21747062.992   114281607.072       -1227.123          38.000  
  21609322.202   113557809.855       -1227.081          36.000  
  21482139.937   112889411.396       -1227.382          35.000  
  21558919.102   113292887.919       -1227.368          37.000  
  21595538.236   113485361.871       -1227.195          49.000  
  21458991.424   112767776.132       -1227.129          37.000  
  21727715.826   114179900.502       -1227.211          39.000  
  21558042.416   113288280.553       -1227.142          37.000  
  21620753.753   113617864.455       -1227.242          41.000  
  21715699.887   114116774.384       -1227.198          38.000  
  21759366.015   114346334.488       -1227.273          37.000  
  21461329.475   112780057.912       -1227.327          38.000  
  21648589.355   113764102.363       -1227.196          38.000  
  21496204.735   112963356.471       -1227.181          36.000  
 25  8 12  8 47 23.4000000  0 29G 5G 1G 2G 3G 4G31G16G19G 7G 9G11G15
                                G 6G28G21G17G32G26G10G 8G23G13G14G27
                                G30G20G29G24G18
  21595595.020   113485660.968       -1227.307          48.000  
  21595584.432   113485565.938       -1227.153          49.000  
  21595643.948   113485833.522       -1227.211          49.000  
  21595656.371   113485773.852       -1227.134          49.000  
  21595562.239   113485596.104       -1227.236          49.000  
  21474860.831   112851178.838       -1227.104          41.000  
  21668569.126   113869129.405       -1227.205          41.000  
  21519109.596   113083672.334       -1227.244          34.000  
  21595707.031   113486079.411       -1227.248          47.000  
  21693477.095   113999998.350       -1227.168          40.000  
  21816265.325   114645255.240       -1227.084          38.000  
  21535227.573   113168410.902       -1227.218          41.000  
  21595620.633   113485813.306       -1227.142          49.000  
  21504459.344   113006715.842       -1227.219          39.000  
  21630176.005   113667366.647       -1227.109          35.000  
  21747109.687   114281852.496       -1227.251          38.000  
  21609368.953   113558055.282       -1227.146          36.000  
  21482186.620   112889656.819       -1227.266          35.000  
  21558965.817   113293133.348       -1227.205          37.000  
  21595584.939   113485607.306       -1227.228          49.000  
  21459038.110   112768021.554       -1227.167          37.000  
  21727762.536   114180145.925       -1227.210          39.000  
  21558089.121   113288525.975       -1227.184          37.000  
  21620800.470   113618109.878       -1227.192          41.000  
  21715746.593   114117019.813       -1227.158          38.000  
  21759412.698   114346579.911       -1227.104          37.000  
  21461376.237   112780303.333       -1227.094          38.000  
  21648636.057   113764347.788       -1227.099          38.000  
  21496251.452   112963601.907       -1227.300          36.000  
 25  8 12  8 47 23.6000000  0 29G 5G 1G 2G 3G 4G31G16G19G 7G 9G11G15
                                G 6G28G21G17G32G26G10G 8G23G13G14G27
                                G30G20G29G24G18
  21595641.605   113485906.410       -1227.237          48.000  
  21595631.127   113485811.378       -1227.130          49.000  
  21595690.677   113486078.962       -1227.098          49.000  
  21595703.081   113486019.292       -1227.197          49.000  
  21595608.751   113485841.536       -1227.109          49.000  
  21474907.587   112851424.277       -1227.130          41.000  
  21668615.846   113869374.843       -1227.125          41.000  
  21519156.306   113083917.769       -1227.253          34.000  
  21595753.770   113486324.837       -1227.103          47.000  
  21693523.816   114000243.791       -1227.190          40.000  
  21816312.017   114645500.683       -1227.182          38.000  
  21535274.263   113168656.339       -1227.172          41.000  
  21595667.334   113486058.738       -1227.098          49.000  
  21504506.000   113006961.276       -1227.186          39.000  
  21630222.695   113667612.088       -1227.156          35.000  
  21747156.405   114282097.934       -1227.219          38.000  
  21609415.656   113558300.719       -1227.095          36.000  
  21482233.303   112889902.258       -1227.297          35.000  
  21559012.520   113293378.790       -1227.249          37.000  
  21595631.634   113485852.738       -1227.142          49.000  
  21459084.773   112768266.995       -1227.175          37.000  
  21727809.256   114180391.364       -1227.112          39.000  
  21558135.850   113288771.412       -1227.145          37.000  
  21620847.167   113618355.319       -1227.150          41.000  
  21715793.280   114117265.255       -1227.178          38.000  
  21759459.381   114346825.350       -1227.170          37.000  
  21461422.949   112780548.777       -1227.175          38.000  
  21648682.741   113764593.224       -1227.067          38.000  
  21496298.165   112963847.341       -1227.150          36.000  
 25  8 12  8 47 23.8000000  0 29G 5G 1G 2G 3G 4G31G16G19G 7G 9G11G15
                                G 6G28G21G17G32G26G10G 8G23G13G14G27
                                G30G20G29G24G18
  21595688.344   113486151.849       -1227.406          48.000  
  21595677.811   113486056.828       -1227.361          49.000  
  21595737.407   113486324.408       -1227.310          49.000  
  21595749.788   113486264.731       -1227.325          49.000  
  21595655.715   113486086.983       -1227.391          49.000  
  21474954.298   112851669.719       -1227.271          41.000  
  21668662.515   113869620.289       -1227.567          41.000  
  21519202.981   113084163.208       -1227.635          34.000  
  21595800.472   113486570.288       -1227.439          47.000  
  21693570.511   114000489.229       -1227.490          40.000  
  21816358.725   114645746.130       -1227.331          38.000  
  21535321.035   113168901.780       -1227.440          41.000  
  21595714.051   113486304.189       -1227.437          49.000  
  21504552.714   113007206.718       -1227.283          39.000  
  21630269.437   113667857.537       -1227.451          35.000  
  21747203.131   114282343.375       -1227.396          38.000  
  21609462.349   113558546.171       -1227.337          36.000  
  21482279.989   112890147.694       -1227.622          36.000  
  21559059.205   113293624.224       -1227.391          37.000  
  21595678.374   113486098.181       -1227.411          49.000  
  21459131.482   112768512.437       -1227.225          37.000  
  21727856.023   114180636.810       -1227.415          39.000  
  21558182.596   113289016.854       -1227.183          37.000  
  21620893.823   113618600.761       -1227.503          41.000  
  21715840.038   114117510.699       -1227.594          38.000  
  21759506.083   114347070.795       -1227.483          37.000  
  21461469.688   112780794.219       -1227.463          38.000  
  21648729.448   113764838.673       -1227.279          38.000  
  21496344.884   112964092.785       -1227.385          36.000  
 25  8 12  8 47 24.0000000  0 29G 5G 1G 2G 3G 4G31G16G19G 7G 9G11G15
                                G 6G28G21G17G32G26G10G 8G23G13G14G27
                                G30G20G29G24G18
  21595735.096   113486397.275       -1227.231          48.000  
  21595724.516   113486302.263       -1227.319          49.000  
  21595784.117   113486569.842       -1227.292          49.000  
  21595796.505   113486510.172       -1227.382          49.000  
  21595702.936   113486332.414       -1227.403          49.000  
  21475000.996   112851915.158       -1227.407          41.000  
  21668709.253   113869865.715       -1227.217          41.000  
  21519249.707   113084408.627       -1227.078          34.000  
  21595847.166   113486815.725       -1227.314          47.000  
  21693617.216   114000734.664       -1227.355          40.000  
  21816405.440   114645991.571       -1227.473          38.000  
  21535367.708   113169147.210       -1227.278          41.000  
  21595760.730   113486549.620       -1227.371          49.000  
  21504599.405   113007452.159       -1227.446          39.000  
  21630316.135   113668102.964       -1227.362          35.000  
  21747249.838   114282588.803       -1227.238          38.000  
  21609509.058   113558791.608       -1227.383          36.000  
  21482326.686   112890393.114       -1227.228          36.000  
  21559105.872   113293869.664       -1227.354          37.000  
  21595725.093   113486343.616       -1227.337          49.000  
  21459178.174   112768757.882       -1227.477          37.000  
  21727902.728   114180882.246       -1227.314          39.000  
  21558229.293   113289262.303       -1227.456          37.000  
  21620940.516   113618846.188       -1227.259          41.000  
  21715886.733   114117756.126       -1227.219          38.000  
  21759552.797   114347316.217       -1227.123          37.000  
  21461516.352   112781039.650       -1227.252          38.000  
  21648776.142   113765084.114       -1227.528          38.000  
  21496391.576   112964338.222       -1227.374          36.000  
 25  8 12  8 47 24.2000000  0 29G 5G 1G 2G 3G 4G31G16G19G 7G 9G11G15
                                G 6G28G21G17G32G26G10G 8G23G13G14G27
                                G30G20G29G24G18
  21595781.870   113486642.702       -1227.170          48.000  
  21595771.196   113486547.687       -1227.206          49.000  
  21595830.850   113486815.269       -1227.282          49.000  
  21595843.211   113486755.591       -1227.259          49.000  
  21595750.210   113486577.837       -1227.127          49.000  
  21475047.661   112852160.577       -1227.217          41.000  
  21668755.893   113870111.146       -1227.219          41.000  
  21519296.416   113084654.054       -1227.065          34.000  
  21595893.886   113487061.146       -1227.208          47.000  
  21693663.904   114000980.086       -1227.180          40.000  
  21816452.181   114646236.987       -1227.293          38.000  
  21535414.400   113169392.640       -1227.207          41.000  
  21595807.455   113486795.041       -1227.163          49.000  
  21504646.083   113007697.576       -1227.197          39.000  
  21630362.830   113668348.375       -1227.006          35.000  
  21747296.561   114282834.235       -1227.204          38.000  
  21609555.782   113559037.027       -1227.186          36.000  
  21482373.379   112890638.543       -1227.135          36.000  
  21559152.582   113294115.085       -1227.244          37.000  
  21595771.788   113486589.044       -1227.255          49.000  
  21459224.865   112769003.297       -1227.233          37.000  
  21727949.430   114181127.671       -1227.266          39.000  
  21558275.992   113289507.716       -1227.212          37.000  
  21620987.214   113619091.615       -1227.186          41.000  
  21715933.467   114118001.554       -1227.211          38.000  
  21759599.515   114347561.651       -1227.153          37.000  
  21461563.098   112781285.073       -1227.161          38.000  
  21648822.859   113765329.528       -1227.235          38.000  
  21496438.275   112964583.647       -1227.301          36.000  
 25  8 12  8 47 24.4000000  0 29G 5G 1G 2G 3G 4G31G16G19G 7G 9G11G15
                                G 6G28G21G17G32G26G10G 8G23G13G14G27
                                G30G20G29G24G18
  21595828.563   113486888.130       -1227.083          48.000  
  21595817.844   113486793.118       -1227.144          49.000  
  21595877.565   113487060.701       -1227.203          49.000  
  21595889.918   113487001.016       -1227.042          49.000  
  21595797.224   113486823.272       -1227.189          49.000  
  21475094.371   112852406.005       -1227.054          41.000  
  21668802.582   113870356.573       -1226.989          41.000  
  21519343.142   113084899.489       -1227.041          34.000  
  21595940.599   113487306.575       -1227.077          47.000  
  21693710.590   114001225.516       -1227.092          40.000  
  21816498.832   114646482.407       -1227.117          38.000  
  21535461.089   113169638.066       -1227.025          41.000  
  21595854.178   113487040.474       -1227.157          49.000  
  21504692.767   113007943.003       -1227.068          39.000  
  21630409.551   113668593.823       -1227.179          35.000  
  21747343.309   114283079.665       -1227.135          38.000  
  21609602.508   113559282.460       -1227.252          36.000  
  21482420.056   112890883.977       -1227.021          36.000  
  21559199.300   113294360.513       -1226.997          37.000  
  21595818.495   113486834.467       -1227.155          49.000  
  21459271.618   112769248.729       -1227.178          37.000  
  21727996.158   114181373.096       -1227.077          39.000  
  21558322.686   113289753.151       -1227.214          37.000  
  21621033.913   113619337.047       -1227.092          41.000  
  21715980.123   114118246.984       -1227.069          38.000  
  21759646.253   114347807.085       -1227.054          37.000  
  21461609.770   112781530.502       -1227.046          38.000  
  21648869.550   113765574.955       -1227.095          38.000  
  21496484.990   112964829.071       -1227.068          36.000  
 25  8 12  8 47 24.6000000  0 29G 5G 1G 2G 3G 4G31G16G19G 7G 9G11G15
                                G 6G28G21G17G32G26G10G 8G23G13G14G27
                                G30G20G29G24G18
  21595875.243   113487133.553       -1227.074          48.000  
  21595864.507   113487038.536       -1227.141          49.000  
  21595924.261   113487306.118       -1227.123          49.000  
  21595936.616   113487246.435       -1227.022          49.000  
  21595843.891   113487068.696       -1227.132          49.000  
  21475141.056   112852651.430       -1227.112          41.000  
  21668849.264   113870601.997       -1227.094          41.000  
  21519389.809   113085144.906       -1226.989          34.000  
  21595987.320   113487551.995       -1227.111          47.000  
  21693757.309   114001470.937       -1227.067          40.000  
  21816545.563   114646727.843       -1227.270          38.000  
  21535507.796   113169883.489       -1227.094          41.000  
  21595900.871   113487285.893       -1227.075          49.000  
  21504739.438   113008188.431       -1227.131          39.000  
  21630456.228   113668839.236       -1226.958          35.000  
  21747389.977   114283325.090       -1227.186          38.000  
  21609649.230   113559527.878       -1227.163          36.000  
  21482466.745   112891129.398       -1226.959          36.000  
  21559246.068   113294605.935       -1227.040          37.000  
  21595865.205   113487079.890       -1227.034          49.000  
  21459318.342   112769494.150       -1227.019          37.000  
  21728042.834   114181618.518       -1227.148          39.000  
  21558369.346   113289998.571       -1227.124          37.000  
  21621080.634   113619582.469       -1227.132          41.000  
  21716026.835   114118492.402       -1227.042          38.000  
  21759692.944   114348052.500       -1227.044          37.000  
  21461656.528   112781775.923       -1227.040          38.000  
  21648916.245   113765820.382       -1227.158          38.000  
  21496531.655   112965074.494       -1227.133          36.000  
 25  8 12  8 47 24.8000000  0 29G 5G 1G 2G 3G 4G31G16G19G 7G 9G11G15
                                G 6G28G21G17G32G26G10G 8G23G13G14G27
                                G30G20G29G24G18
  21595921.935   113487378.985       -1227.307          48.000  
  21595911.199   113487283.966       -1227.197          49.000  
  21595971.022   113487551.544       -1227.190          49.000  
  21595983.318   113487491.870       -1227.221          49.000  
  21595891.145   113487314.121       -1227.190          49.000  
  21475187.770   112852896.860       -1227.220          41.000  
  21668895.972   113870847.429       -1227.253          41.000  
  21519436.505   113085390.346       -1227.250          34.000  
  21596034.000   113487797.424       -1227.065          47.000  
  21693804.037   114001716.373       -1227.261          40.000  
  21816592.275   114646973.265       -1227.252          38.000  
  21535554.492   113170128.918       -1227.197          41.000  
  21595947.517   113487531.320       -1227.134          49.000  
  21504786.110   113008433.858       -1227.197          39.000  
  21630502.961   113669084.675       -1227.216          35.000  
  21747436.685   114283570.515       -1227.258          38.000  
  21609695.931   113559773.302       -1227.061          36.000  
  21482513.448   112891374.838       -1227.412          36.000  
  21559292.760   113294851.368       -1227.220          37.000  
  21595911.910   113487325.318       -1227.177          49.000  
  21459365.056   112769739.575       -1227.072          37.000  
  21728089.533   114181863.950       -1227.183          39.000  
  21558416.039   113290244.006       -1227.239          37.000  
  21621127.323   113619827.897       -1227.245          41.000  
  21716073.496   114118737.835       -1227.222          38.000  
  21759739.686   114348297.940       -1227.357          37.000  
  21461703.185   112782021.356       -1227.256          38.000  
  21648962.924   113766065.807       -1227.131          38.000  
  21496578.364   112965319.920       -1227.067          36.000  
 25  8 12  8 47 25.0000000  0 29G 5G 1G 2G 3G 4G31G16G19G 7G 9G11G15
                                G 6G28G21G17G32G26G10G 8G23G13G14G27
                                G30G20G29G24G18
  21595968.642   113487624.382       -1226.990          48.000  
  21595957.898   113487529.375       -1227.000          49.000  
  21596017.754   113487796.953       -1226.960          49.000  
  21596030.022   113487737.276       -1227.013          49.000  
  21595938.393   113487559.527       -1227.008          49.000  
  21475234.479   112853142.265       -1226.992          41.000  
  21668942.643   113871092.831       -1227.020          41.000  
  21519483.198   113085635.746       -1227.114          34.000  
  21596080.732   113488042.839       -1227.001          47.000  
  21693850.756   114001961.773       -1227.032          40.000  
  21816639.008   114647218.678       -1227.056          38.000  
  21535601.212   113170374.325       -1227.041          41.000  
  21595994.225   113487776.732       -1227.004          49.000  
  21504832.857   113008679.273       -1227.118          39.000  
  21630549.676   113669330.078       -1227.047          36.000  
  21747483.377   114283815.922       -1227.008          38.000  
  21609742.590   113560018.719       -1226.989          36.000  
  21482560.185   112891620.235       -1227.043          36.000  
  21559339.475   113295096.770       -1227.015          37.000  
  21595958.619   113487570.726       -1227.025          49.000  
  21459411.706   112769984.995       -1227.109          36.000  
  21728136.240   114182109.358       -1227.018          39.000  
  21558462.712   113290489.413       -1227.025          37.000  
  21621173.992   113620073.301       -1226.980          41.000  
  21716120.181   114118983.238       -1226.971          38.000  
  21759786.393   114348543.338       -1226.996          37.000  
  21461749.892   112782266.756       -1227.015          38.000  
  21649009.678   113766311.220       -1227.044          38.000  
  21496625.089   112965565.330       -1226.932          36.000  
 25  8 12  8 47 25.2000000  0 29G 5G 1G 2G 3G 4G31G16G19G 7G 9G11G15
                                G 6G28G21G17G32G26G10G 8G23G13G14G27
                                G30G20G29G24G18
  21596015.342   113487869.819       -1227.247          48.000  
  21596004.617   113487774.801       -1227.159          49.000  
  21596064.459   113488042.382       -1227.204          49.000  
  21596076.742   113487982.705       -1227.230          49.000  
  21595985.719   113487804.959       -1227.276          49.000  
  21475281.202   112853387.693       -1227.185          41.000  
  21668989.363   113871338.266       -1227.281          41.000  
  21519529.939   113085881.200       -1227.380          34.000  
  21596127.415   113488288.264       -1227.286          47.000  
  21693897.455   114002207.198       -1227.215          40.000  
  21816685.715   114647464.115       -1227.271          38.000  
  21535647.889   113170619.751       -1227.200          41.000  
  21596040.942   113488022.162       -1227.232          49.000  
  21504879.526   113008924.683       -1227.072          39.000  
  21630596.428   113669575.517       -1227.328          35.000  
  21747530.038   114284061.338       -1227.133          38.000  
  21609789.266   113560264.144       -1227.200          36.000  
  21482606.880   112891865.704       -1227.302          36.000  
  21559386.163   113295342.197       -1227.250          37.000  
  21596005.331   113487816.157       -1227.238          49.000  
  21459458.431   112770230.399       -1227.113          36.000  
  21728182.949   114182354.789       -1227.195          39.000  
  21558509.420   113290734.847       -1227.307          37.000  
  21621220.708   113620318.738       -1227.265          41.000  
  21716166.877   114119228.687       -1227.351          38.000  
  21759833.123   114348788.778       -1227.289          37.000  
  21461796.558   112782512.189       -1227.318          38.000  
  21649056.363   113766556.625       -1227.150          38.000  
  21496671.786   112965810.763       -1227.167          36.000  
 25  8 12  8 47 25.4000000  0 29G 5G 1G 2G 3G 4G31G16G19G 7G 9G11G15
                                G 6G28G21G17G32G26G10G 8G23G13G14G27
                                G30G20G29G24G18
  21596062.100   113488115.252       -1227.334          48.000  
  21596051.287   113488020.231       -1227.209          49.000  
  21596111.213   113488287.809       -1227.184          49.000  
  21596123.445   113488228.139       -1227.254          49.000  
  21596032.966   113488050.388       -1227.171          49.000  
  21475327.922   112853633.122       -1227.192          41.000  
  21669036.048   113871583.693       -1227.296          40.000  
  21519576.672   113086126.634       -1227.367          34.000  
  21596174.132   113488533.688       -1227.205          47.000  
  21693944.132   114002452.631       -1227.202          40.000  
  21816732.424   114647709.545       -1227.289          38.000  
  21535694.603   113170865.184       -1227.271          41.000  
  21596087.642   113488267.592       -1227.229          49.000  
  21504926.211   113009170.124       -1227.219          39.000  
  21630643.113   113669820.945       -1227.333          35.000  
  21747576.705   114284306.778       -1227.206          38.000  
  21609835.963   113560509.572       -1227.120          36.000  
  21482653.598   112892111.130       -1227.339          36.000  
  21559432.904   113295587.630       -1227.229          37.000  
  21596052.050   113488061.594       -1227.332          49.000  
  21459505.104   112770475.832       -1227.068          36.000  
  21728229.599   114182600.219       -1227.262          38.000  
  21558556.117   113290980.274       -1227.228          37.000  
  21621267.394   113620564.166       -1227.251          41.000  
  21716213.586   114119474.111       -1227.375          38.000  
  21759879.864   114349034.202       -1227.316          37.000  
  21461843.280   112782757.617       -1227.256          38.000  
  21649103.088   113766802.060       -1227.112          38.000  
  21496718.459   112966056.197       -1227.234          36.000  
 25  8 12  8 47 25.6000000  0 29G 5G 1G 2G 3G 4G31G16G19G 7G 9G11G15
                                G 6G28G21G17G32G26G10G 8G23G13G14G27
                                G30G20G29G24G18
  21596108.697   113488360.686       -1227.035          48.000  
  21596097.972   113488265.670       -1227.139          49.000  
  21596157.960   113488533.258       -1227.244          49.000  
  21596170.146   113488473.578       -1227.124          49.000  
  21596079.364   113488295.843       -1227.309          49.000  
  21475374.664   112853878.570       -1227.195          41.000  
  21669082.787   113871829.141       -1227.282          40.000  
  21519623.353   113086372.082       -1227.299          34.000  
  21596220.826   113488779.143       -1227.237          47.000  
  21693990.825   114002698.076       -1227.188          40.000  
  21816779.086   114647954.984       -1227.239          38.000  
  21535741.319   113171110.633       -1227.211          41.000  
  21596134.314   113488513.035       -1227.164          49.000  
  21504972.899   113009415.568       -1227.191          39.000  
  21630689.769   113670066.390       -1227.312          35.000  
  21747623.379   114284552.224       -1227.320          38.000  
  21609882.632   113560755.026       -1227.319          36.000  
  21482700.247   112892356.571       -1227.096          36.000  
  21559479.585   113295833.073       -1227.146          37.000  
  21596098.754   113488307.036       -1227.142          49.000  
  21459551.750   112770721.279       -1227.212          36.000  
  21728276.318   114182845.658       -1227.144          38.000  
  21558602.873   113291225.723       -1227.245          37.000  
  21621314.081   113620809.616       -1227.232          41.000  
  21716260.271   114119719.556       -1227.208          38.000  
  21759926.579   114349279.656       -1227.288          37.000  
  21461889.954   112783003.064       -1227.240          38.000  
  21649149.791   113767047.508       -1227.237          38.000  
  21496765.122   112966301.640       -1227.220          36.000  
 25  8 12  8 47 25.8000000  0 29G 5G 1G 2G 3G 4G31G16G19G 7G 9G11G15
                                G 6G28G21G17G32G26G10G 8G23G13G14G27
                                G30G20G29G24G18
  21596155.428   113488606.146       -1227.484          48.000  
  21596144.668   113488511.127       -1227.289          49.000  
  21596204.656   113488778.704       -1227.214          49.000  
  21596216.857   113488719.026       -1227.264          49.000  
  21596126.491   113488541.282       -1227.342          49.000  
  21475421.377   112854124.019       -1227.325          41.000  
  21669129.483   113872074.589       -1227.469          40.000  
  21519670.086   113086617.527       -1227.579          35.000  
  21596267.549   113489024.592       -1227.298          47.000  
  21694037.530   114002943.524       -1227.319          40.000  
  21816825.789   114648200.438       -1227.256          38.000  
  21535788.011   113171356.081       -1227.395          41.000  
  21596181.048   113488758.481       -1227.227          49.000  
  21505019.640   113009661.017       -1227.266          39.000  
  21630736.491   113670311.838       -1227.464          35.000  
  21747670.074   114284797.669       -1227.340          38.000  
  21609929.325   113561000.466       -1227.117          36.000  
  21482746.982   112892602.021       -1227.430          36.000  
  21559526.312   113296078.522       -1227.357          37.000  
  21596145.465   113488552.484       -1227.285          49.000  
  21459598.452   112770966.723       -1227.117          36.000  
  21728322.984   114183091.113       -1227.304          38.000  
  21558649.604   113291471.168       -1227.336          37.000  
  21621360.799   113621055.061       -1227.343          41.000  
  21716306.979   114119965.011       -1227.492          38.000  
  21759973.305   114349525.108       -1227.515          37.000  
  21461936.678   112783248.515       -1227.383          38.000  
  21649196.535   113767292.953       -1227.156          38.000  
  21496811.808   112966547.090       -1227.181          36.000  
 25  8 12  8 47 26.0000000  0 29G 5G 1G 2G 3G 4G31G16G19G 7G 9G11G15
                                G 6G28G21G17G32G26G10G 8G23G13G14G27
                                G30G20G29G24G18
  21596202.149   113488851.570       -1227.198          48.000  
  21596191.339   113488756.548       -1226.983          49.000  
  21596251.376   113489024.127       -1227.022          49.000  
  21596263.580   113488964.455       -1227.112          49.000  
  21596173.640   113488786.705       -1227.003          49.000  
  21475468.087   112854369.443       -1227.075          41.000  
  21669176.158   113872320.007       -1227.026          40.000  
  21519716.797   113086862.946       -1227.087          35.000  
  21596314.265   113489270.015       -1227.042          47.000  
  21694084.236   114003188.951       -1227.108          40.000  
  21816872.482   114648445.859       -1227.109          38.000  
  21535834.728   113171601.502       -1227.062          41.000  
  21596227.738   113489003.906       -1227.021          49.000  
  21505066.258   113009906.438       -1227.015          39.000  
  21630783.134   113670557.256       -1226.925          35.000  
  21747716.767   114285043.086       -1226.906          38.000  
  21609975.978   113561245.897       -1227.023          36.000  
  21482793.676   112892847.442       -1227.025          36.000  
  21559572.990   113296323.955       -1227.148          37.000  
  21596192.142   113488797.912       -1227.065          49.000  
  21459645.145   112771212.150       -1227.002          36.000  
  21728369.701   114183336.534       -1227.016          38.000  
  21558696.308   113291716.591       -1226.917          37.000  
  21621407.502   113621300.485       -1227.087          41.000  
  21716353.670   114120210.431       -1227.092          38.000  
  21760020.038   114349770.533       -1227.158          37.000  
  21461983.384   112783493.946       -1227.249          38.000  
  21649243.245   113767538.378       -1227.025          38.000  
  21496858.495   112966792.515       -1227.107          36.000  
 25  8 12  8 47 26.2000000  0 29G 5G 1G 2G 3G 4G31G16G19G 7G 9G11G15
                                G 6G28G21G17G32G26G10G 8G23G13G14G27
                                G30G20G29G24G18
  21596248.795   113489096.990       -1227.123          48.000  
  21596238.011   113489001.974       -1227.265          49.000  
  21596298.138   113489269.554       -1227.198          49.000  
  21596310.293   113489209.877       -1227.186          49.000  
  21596220.617   113489032.134       -1227.174          49.000  
  21475514.758   112854614.868       -1227.238          41.000  
  21669222.839   113872565.432       -1227.224          40.000  
  21519763.492   113087108.376       -1227.292          34.000  
  21596360.970   113489515.433       -1227.180          47.000  
  21694130.936   114003434.370       -1227.154          40.000  
  21816919.229   114648691.279       -1227.144          38.000  
  21535881.480   113171846.925       -1227.195          41.000  
  21596274.443   113489249.330       -1227.153          49.000  
  21505112.989   113010151.860       -1227.188          39.000  
  21630829.876   113670802.685       -1227.270          35.000  
  21747763.436   114285288.514       -1227.205          38.000  
  21610022.709   113561491.315       -1227.148          36.000  
  21482840.383   112893092.867       -1227.183          36.000  
  21559619.698   113296569.373       -1227.227          37.000  
  21596238.844   113489043.330       -1227.128          49.000  
  21459691.806   112771457.573       -1227.131          36.000  
  21728416.410   114183581.958       -1227.212          38.000  
  21558742.987   113291962.018       -1227.233          37.000  
  21621454.189   113621545.912       -1227.266          41.000  
  21716400.388   114120455.855       -1227.245          38.000  
  21760066.711   114350015.954       -1227.213          37.000  
  21462030.095   112783739.362       -1227.242          38.000  
  21649289.943   113767783.805       -1227.197          38.000  
  21496905.210   112967037.928       -1227.058          35.000  
 25  8 12  8 47 26.4000000  0 29G 5G 1G 2G 3G 4G31G16G19G 7G 9G11G15
                                G 6G28G21G17G32G26G10G 8G23G13G14G27
                                G30G20G29G24G18
  21596295.444   113489342.400       -1227.163          48.000  
  21596284.689   113489247.380       -1227.097          49.000  
  21596344.858   113489514.963       -1227.128          49.000  
  21596356.989   113489455.291       -1227.183          49.000  
  21596267.924   113489277.543       -1227.236          49.000  
  21475561.485   112854860.275       -1227.188          41.000  
  21669269.542   113872810.833       -1227.046          40.000  
  21519810.180   113087353.772       -1227.114          34.000  
  21596407.705   113489760.845       -1227.162          47.000  
  21694177.627   114003679.777       -1227.093          40.000  
  21816965.924   114648936.694       -1227.141          38.000  
  21535928.160   113172092.336       -1227.197          41.000  
  21596321.135   113489494.742       -1227.174          49.000  
  21505159.673   113010397.273       -1227.172          39.000  
  21630876.610   113671048.091       -1227.291          35.000  
  21747810.130   114285533.925       -1227.177          38.000  
  21610069.392   113561736.733       -1227.229          36.000  
  21482887.150   112893338.276       -1227.239          36.000  
  21559666.366   113296814.775       -1227.107          37.000  
  21596285.542   113489288.739       -1227.135          49.000  
  21459738.492   112771702.996       -1227.218          36.000  
  21728463.106   114183827.369       -1227.096          38.000  
  21558789.682   113292207.429       -1227.266          37.000  
  21621500.864   113621791.317       -1227.173          41.000  
  21716447.069   114120701.260       -1227.190          38.000  
  21760113.424   114350261.354       -1227.229          37.000  
  21462076.808   112783984.767       -1227.142          38.000  
  21649336.633   113768029.218       -1227.229          38.000  
  21496951.876   112967283.346       -1227.126          35.000  
 25  8 12  8 47 26.6000000  0 29G 5G 1G 2G 3G 4G31G16G19G 7G 9G11G15
                                G 6G28G21G17G32G26G10G 8G23G13G14G27
                                G30G20G29G24G18
  21596342.129   113489587.809       -1227.112          48.000  
  21596331.318   113489492.786       -1227.061          49.000  
  21596391.586   113489760.362       -1226.997          49.000  
  21596403.694   113489700.689       -1227.043          49.000  
  21596314.998   113489522.944       -1227.016          49.000  
  21475608.138   112855105.677       -1227.023          41.000  
  21669316.249   113873056.247       -1227.092          40.000  
  21519856.881   113087599.182       -1227.020          34.000  
  21596454.402   113490006.253       -1227.139          47.000  
  21694224.351   114003925.186       -1227.060          40.000  
  21817012.647   114649182.098       -1227.144          38.000  
  21535974.905   113172337.739       -1227.084          41.000  
  21596367.870   113489740.145       -1227.041          49.000  
  21505206.357   113010642.672       -1227.007          39.000  
  21630923.292   113671293.490       -1226.932          35.000  
  21747856.792   114285779.324       -1227.025          38.000  
  21610116.122   113561982.132       -1227.037          36.000  
  21482933.813   112893583.678       -1227.024          36.000  
  21559713.031   113297060.182       -1226.995          37.000  
  21596332.250   113489534.144       -1227.049          49.000  
  21459785.136   112771948.390       -1227.095          36.000  
  21728509.783   114184072.774       -1227.076          38.000  
  21558836.399   113292452.825       -1226.963          37.000  
  21621547.583   113622036.722       -1227.007          41.000  
  21716493.802   114120946.671       -1227.116          38.000  
  21760160.136   114350506.767       -1226.969          37.000  
  21462123.510   112784230.176       -1227.094          38.000  
  21649383.334   113768274.616       -1227.011          38.000  
  21496998.573   112967528.746       -1227.035          35.000  
 25  8 12  8 47 26.8000000  0 29G 5G 1G 2G 3G 4G31G16G19G 7G 9G11G15
                                G 6G28G21G17G32G26G10G 8G23G13G14G27
                                G30G20G29G24G18
  21596388.827   113489833.224       -1227.183          48.000  
  21596377.978   113489738.201       -1227.116          49.000  
  21596438.314   113490005.780       -1227.174          49.000  
  21596450.405   113489946.105       -1227.162          49.000  
  21596361.773   113489768.356       -1227.122          49.000  
  21475654.855   112855351.096       -1227.195          41.000  
  21669362.974   113873301.659       -1227.180          40.000  
  21519903.621   113087844.601       -1227.250          34.000  
  21596501.076   113490251.663       -1227.087          47.000  
  21694271.023   114004170.602       -1227.214          40.000  
  21817059.350   114649427.506       -1227.175          38.000  
  21536021.599   113172583.153       -1227.203          41.000  
  21596414.560   113489985.557       -1227.116          49.000  
  21505253.024   113010888.087       -1227.145          39.000  
  21630970.000   113671538.912       -1227.244          35.000  
  21747903.476   114286024.741       -1227.156          38.000  
  21610162.808   113562227.542       -1227.126          36.000  
  21482980.483   112893829.097       -1227.246          36.000  
  21559759.718   113297305.599       -1227.174          37.000  
  21596378.969   113489779.559       -1227.143          49.000  
  21459831.818   112772193.800       -1227.043          36.000  
  21728556.464   114184318.186       -1227.132          38.000  
  21558883.123   113292698.245       -1227.122          37.000  
  21621594.250   113622282.139       -1227.239          41.000  
  21716540.479   114121192.083       -1227.219          38.000  
  21760206.841   114350752.191       -1227.307          37.000  
  21462170.212   112784475.589       -1227.169          38.000  
  21649429.993   113768520.027       -1227.092          38.000  
  21497045.250   112967774.162       -1227.072          35.000  
 25  8 12  8 47 27.0000000  0 29G 5G 1G 2G 3G 4G31G16G19G 7G 9G11G15
                                G 6G28G21G17G32G26G10G 8G23G13G14G27
                                G30G20G29G24G18
  21596435.500   113490078.663       -1227.171          48.000  
  21596424.620   113489983.642       -1227.265          49.000  
  21596485.077   113490251.221       -1227.303          49.000  
  21596497.106   113490191.547       -1227.323          49.000  
  21596407.912   113490013.798       -1227.324          49.000  
  21475701.503   112855596.548       -1227.357          41.000  
  21669409.653   113873547.089       -1227.142          40.000  
  21519950.329   113088090.024       -1227.209          35.000  
  21596547.799   113490497.090       -1227.205          47.000  
  21694317.739   114004416.039       -1227.237          40.000  
  21817106.092   114649672.936       -1227.408          38.000  
  21536068.309   113172828.589       -1227.273          41.000  
  21596461.247   113490230.997       -1227.290          49.000  
  21505299.702   113011133.541       -1227.448          39.000  
  21631016.677   113671784.335       -1227.153          35.000  
  21747950.198   114286270.190       -1227.333          38.000  
  21610209.524   113562472.980       -1227.224          36.000  
  21483027.197   112894074.531       -1227.107          36.000  
  21559806.459   113297551.044       -1227.273          37.000  
  21596425.666   113490024.996       -1227.214          49.000  
  21459878.514   112772439.248       -1227.386          36.000  
  21728603.137   114184563.640       -1227.325          38.000  
  21558929.807   113292943.663       -1227.358          37.000  
  21621640.947   113622527.573       -1227.178          41.000  
  21716587.239   114121437.505       -1227.131          38.000  
  21760253.538   114350997.599       -1227.045          37.000  
  21462216.936   112784721.018       -1227.106          38.000  
  21649476.729   113768765.465       -1227.395          38.000  
  21497091.934   112968019.599       -1227.185          36.000  
 25  8 12  8 47 27.2000000  0 29G 5G 1G 2G 3G 4G31G16G19G 7G 9G11G15
                                G 6G28G21G17G32G26G10G 8G23G13G14G27
                                G30G20G29G24G18
  21596482.239   113490324.103       -1227.530          48.000  
  21596471.306   113490229.079       -1227.475          49.000  
  21596531.791   113490496.657       -1227.475          49.000  
  21596543.822   113490436.984       -1227.462          49.000  
  21596453.985   113490259.234       -1227.478          49.000  
  21475748.203   112855841.978       -1227.551          41.000  
  21669456.357   113873792.529       -1227.397          40.000  
  21519997.061   113088335.464       -1227.367          35.000  
  21596594.520   113490742.530       -1227.504          47.000  
  21694364.438   114004661.476       -1227.532          40.000  
  21817152.796   114649918.365       -1227.448          38.000  
  21536115.012   113173074.025       -1227.469          41.000  
  21596507.963   113490476.435       -1227.469          49.000  
  21505346.386   113011378.965       -1227.521          39.000  
  21631063.384   113672029.780       -1227.468          35.000  
  21747996.888   114286515.622       -1227.497          38.000  
  21610256.218   113562718.418       -1227.600          36.000  
  21483073.921   112894319.972       -1227.440          36.000  
  21559853.173   113297796.480       -1227.515          37.000  
  21596472.382   113490270.435       -1227.429          49.000  
  21459925.246   112772684.675       -1227.460          36.000  
  21728649.852   114184809.072       -1227.579          38.000  
  21558976.496   113293189.095       -1227.385          37.000  
  21621687.633   113622773.016       -1227.530          41.000  
  21716633.918   114121682.949       -1227.435          38.000  
  21760300.228   114351243.055       -1227.501          37.000  
  21462263.646   112784966.464       -1227.454          38.000  
  21649523.462   113769010.895       -1227.481          38.000  
  21497138.652   112968265.035       -1227.449          36.000  
 25  8 12  8 47 27.4000000  0 29G 5G 1G 2G 3G 4G31G16G19G 7G 9G11G15
                                G 6G28G21G17G32G26G10G 8G23G13G14G27
                                G30G20G29G24G18
  21596528.927   113490569.532       -1227.138          48.000  
  21596518.012   113490474.514       -1227.216          49.000  
  21596578.497   113490742.089       -1227.197          49.000  
  21596590.521   113490682.418       -1227.209          49.000  
  21596500.145   113490504.667       -1227.098          49.000  
  21475794.899   112856087.408       -1227.013          41.000  
  21669503.041   113874037.968       -1227.155          40.000  
  21520043.768   113088580.903       -1227.213          35.000  
  21596641.208   113490987.963       -1227.146          47.000  
  21694411.151   114004906.909       -1227.110          40.000  
  21817199.492   114650163.791       -1226.916          38.000  
  21536161.737   113173319.456       -1227.058          41.000  
  21596554.651   113490721.868       -1227.168          49.000  
  21505393.103   113011624.395       -1227.008          39.000  
  21631110.097   113672275.215       -1227.240          35.000  
  21748043.624   114286761.053       -1227.072          38.000  
  21610302.923   113562963.845       -1227.041          36.000  
  21483120.615   112894565.411       -1227.173          36.000  
  21559899.890   113298041.912       -1227.158          37.000  
  21596519.076   113490515.869       -1227.213          49.000  
  21459971.946   112772930.108       -1226.985          36.000  
  21728696.543   114185054.500       -1227.019          38.000  
  21559023.192   113293434.535       -1227.194          37.000  
  21621734.337   113623018.447       -1227.137          41.000  
  21716680.632   114121928.388       -1227.279          38.000  
  21760346.938   114351488.486       -1227.301          37.000  
  21462310.377   112785211.895       -1227.091          38.000  
  21649570.156   113769256.322       -1226.974          38.000  
  21497185.361   112968510.467       -1227.039          36.000  
 25  8 12  8 47 27.6000000  0 29G 5G 1G 2G 3G 4G31G16G19G 7G 9G11G15
                                G 6G28G21G17G32G26G10G 8G23G13G14G27
                                G30G20G29G24G18
  21596575.604   113490814.960       -1226.980          48.000  
  21596564.709   113490719.942       -1227.001          49.000  
  21596625.210   113490987.520       -1227.019          49.000  
  21596637.224   113490927.844       -1227.034          49.000  
  21596546.466   113490750.102       -1227.010          49.000  
  21475841.624   112856332.847       -1227.061          40.000  
  21669549.757   113874283.389       -1226.868          40.000  
  21520090.514   113088826.326       -1226.938          35.000  
  21596687.930   113491233.398       -1227.023          47.000  
  21694457.815   114005152.341       -1226.991          40.000  
  21817246.222   114650409.233       -1226.952          38.000  
  21536208.467   113173564.890       -1227.009          41.000  
  21596601.352   113490967.298       -1227.055          49.000  
  21505439.825   113011869.833       -1226.960          39.000  
  21631156.789   113672520.637       -1226.968          35.000  
  21748090.310   114287006.491       -1227.017          38.000  
  21610349.622   113563209.285       -1227.023          36.000  
  21483167.315   112894810.827       -1226.899          36.000  
  21559946.578   113298287.341       -1226.982          37.000  
  21596565.791   113490761.293       -1226.976          49.000  
  21460018.631   112773175.555       -1227.039          36.000  
  21728743.292   114185299.936       -1226.946          38.000  
  21559069.947   113293679.968       -1227.009          37.000  
  21621781.014   113623263.876       -1226.983          41.000  
  21716727.316   114122173.812       -1227.046          38.000  
  21760393.668   114351733.910       -1226.959          37.000  
  21462357.084   112785457.325       -1227.036          38.000  
  21649616.913   113769501.771       -1227.192          38.000  
  21497232.043   112968755.902       -1227.010          36.000  
 25  8 12  8 47 27.8000000  0 29G 5G 1G 2G 3G 4G31G16G19G 7G 9G11G15
                                G 6G28G21G17G32G26G10G 8G23G13G14G27
                                G30G20G29G24G18
  21596622.356   113491060.384       -1227.119          48.000  
  21596611.410   113490965.364       -1227.041          49.000  
  21596671.936   113491232.948       -1227.138          49.000  
  21596683.936   113491173.268       -1227.061          49.000  
  21596592.915   113490995.530       -1227.163          49.000  
  21475888.308   112856578.271       -1227.101          40.000  
  21669596.486   113874528.814       -1227.033          40.000  
  21520137.230   113089071.737       -1226.798          35.000  
  21596734.641   113491478.829       -1227.177          47.000  
  21694504.526   114005397.764       -1227.105          40.000  
  21817292.911   114650654.675       -1227.385          38.000  
  21536255.140   113173810.318       -1227.170          41.000  
  21596648.063   113491212.723       -1227.085          49.000  
  21505486.540   113012115.260       -1227.137          39.000  
  21631203.516   113672766.071       -1227.256          35.000  
  21748137.026   114287251.910       -1226.937          38.000  
  21610396.343   113563454.725       -1227.357          36.000  
  21483214.055   112895056.241       -1226.967          36.000  
  21559993.284   113298532.757       -1226.998          37.000  
  21596612.495   113491006.716       -1227.061          49.000  
  21460065.319   112773420.984       -1227.213          36.000  
  21728789.998   114185545.361       -1227.161          38.000  
  21559116.708   113293925.411       -1227.365          37.000  
  21621827.715   113623509.302       -1227.184          41.000  
  21716774.062   114122419.244       -1227.249          38.000  
  21760440.365   114351979.329       -1227.089          37.000  
  21462403.803   112785702.743       -1226.998          38.000  
  21649663.651   113769747.201       -1227.315          38.000  
  21497278.761   112969001.331       -1227.233          36.000  
 25  8 12  8 47 28.0000000  0 29G 5G 1G 2G 3G 4G31G16G19G 7G 9G11G15
                                G 6G28G21G17G32G26G10G 8G23G13G14G27
                                G30G20G29G24G18
  21596669.033   113491305.786       -1227.034          48.000  
  21596658.130   113491210.766       -1226.995          49.000  
  21596718.626   113491478.349       -1226.977          49.000  
  21596730.640   113491418.672       -1227.000          49.000  
  21596639.633   113491240.931       -1227.002          49.000  
  21475935.031   112856823.669       -1227.096          40.000  
  21669643.166   113874774.217       -1227.041          40.000  
  21520183.938   113089317.140       -1227.323          35.000  
  21596781.332   113491724.231       -1226.930          47.000  
  21694551.182   114005643.166       -1227.040          40.000  
  21817339.560   114650900.074       -1226.886          38.000  
  21536301.884   113174055.723       -1226.986          42.000  
  21596694.756   113491458.126       -1226.988          49.000  
  21505533.270   113012360.656       -1227.029          39.000  
  21631250.187   113673011.474       -1226.892          35.000  
  21748183.727   114287497.308       -1227.153          38.000  
  21610442.999   113563700.131       -1227.015          36.000  
  21483260.824   112895301.644       -1227.054          36.000  
  21560039.919   113298778.163       -1227.067          37.000  
  21596659.199   113491252.121       -1226.988          49.000  
  21460112.065   112773666.381       -1227.002          36.000  
  21728836.703   114185790.765       -1226.980          38.000  
  21559163.527   113294170.812       -1226.932          37.000  
  21621874.403   113623754.704       -1226.976          41.000  
  21716820.689   114122664.646       -1226.961          38.000  
  21760487.061   114352224.731       -1226.850          37.000  
  21462450.509   112785948.150       -1227.034          38.000  
  21649710.354   113769992.608       -1226.895          38.000  
  21497325.411   112969246.736       -1226.960          36.000  
 25  8 12  8 47 28.2000000  0 29G 5G 1G 2G 3G 4G31G16G19G 7G 9G11G15
                                G 6G28G21G17G32G26G10G 8G23G13G14G27
                                G30G20G29G24G18
  21596715.748   113491551.169       -1226.971          48.000  
  21596704.786   113491456.151       -1227.004          49.000  
  21596765.354   113491723.734       -1226.979          49.000  
  21596777.343   113491664.059       -1226.997          49.000  
  21596686.225   113491486.311       -1226.987          49.000  
  21475981.659   112857069.049       -1226.906          40.000  
  21669689.871   113875019.610       -1227.062          40.000  
  21520230.586   113089562.514       -1226.957          35.000  
  21596828.029   113491969.616       -1227.025          47.000  
  21694597.913   114005888.550       -1226.898          40.000  
  21817386.282   114651145.463       -1226.925          38.000  
  21536348.611   113174301.105       -1226.947          42.000  
  21596741.457   113491703.508       -1226.956          49.000  
  21505579.932   113012606.037       -1226.947          39.000  
  21631296.939   113673256.868       -1227.122          35.000  
  21748230.407   114287742.688       -1226.985          38.000  
  21610489.725   113563945.506       -1226.909          36.000  
  21483307.523   112895547.030       -1226.986          36.000  
  21560086.566   113299023.551       -1227.020          36.000  
  21596705.882   113491497.508       -1226.991          49.000  
  21460158.780   112773911.761       -1226.891          36.000  
  21728883.390   114186036.149       -1226.898          38.000  
  21559210.256   113294416.192       -1227.025          37.000  
  21621921.112   113624000.093       -1226.990          41.000  
  21716867.415   114122910.035       -1227.001          38.000  
  21760533.779   114352470.130       -1227.133          37.000  
  21462497.183   112786193.531       -1226.941          38.000  
  21649757.082   113770237.990       -1226.994          38.000  
  21497372.112   112969492.123       -1227.029          36.000  
 25  8 12  8 47 28.4000000  0 29G 5G 1G 2G 3G 4G31G16G19G 7G 9G11G15
                                G 6G28G21G17G32G26G10G 8G23G13G14G27
                                G30G20G29G24G18
  21596762.364   113491796.563       -1226.948          48.000  
  21596751.437   113491701.543       -1226.974          49.000  
  21596812.111   113491969.127       -1226.941          49.000  
  21596824.038   113491909.456       -1226.933          49.000  
  21596732.994   113491731.710       -1226.965          49.000  
  21476028.369   112857314.450       -1227.023          40.000  
  21669736.566   113875265.004       -1226.979          40.000  
  21520277.319   113089807.913       -1226.815          35.000  
  21596874.718   113492215.010       -1226.942          47.000  
  21694644.568   114006133.951       -1226.989          40.000  
  21817432.955   114651390.856       -1226.853          38.000  
  21536395.296   113174546.504       -1226.945          42.000  
  21596788.108   113491948.905       -1226.965          49.000  
  21505626.670   113012851.440       -1227.015          39.000  
  21631343.666   113673502.258       -1226.994          35.000  
  21748277.101   114287988.082       -1226.945          37.000  
  21610536.412   113564190.908       -1227.097          36.000  
  21483354.191   112895792.423       -1226.893          36.000  
  21560133.260   113299268.952       -1227.058          36.000  
  21596752.575   113491742.903       -1226.999          49.000  
  21460205.458   112774157.161       -1226.965          36.000  
  21728930.111   114186281.550       -1226.976          38.000  
  21559256.980   113294661.591       -1227.031          37.000  
  21621967.829   113624245.487       -1226.971          41.000  
  21716914.100   114123155.428       -1226.919          38.000  
  21760580.499   114352715.519       -1226.988          37.000  
  21462543.875   112786438.927       -1226.852          38.000  
  21649803.828   113770483.388       -1226.961          38.000  
  21497418.799   112969737.518       -1226.881          36.000  
 25  8 12  8 47 28.6000000  0 29G 5G 1G 2G 3G 4G31G16G19G 7G 9G11G15
                                G 6G28G21G17G32G26G10G 8G23G13G14G27
                                G30G20G29G24G18
  21596809.097   113492041.953       -1226.903          48.000  
  21596798.109   113491946.936       -1226.961          49.000  
  21596858.860   113492214.522       -1227.005          49.000  
  21596870.752   113492154.851       -1227.053          49.000  
  21596779.863   113491977.108       -1227.103          49.000  
  21476075.037   112857559.840       -1227.014          40.000  
  21669783.264   113875510.391       -1227.061          40.000  
  21520323.956   113090053.305       -1227.034          35.000  
  21596921.396   113492460.403       -1226.958          47.000  
  21694691.303   114006379.340       -1227.020          40.000  
  21817479.673   114651636.255       -1227.068          38.000  
  21536441.988   113174791.899       -1227.094          42.000  
  21596834.806   113492194.299       -1227.113          49.000  
  21505673.387   113013096.828       -1227.064          39.000  
  21631390.375   113673747.648       -1227.041          35.000  
  21748323.760   114288233.475       -1227.087          37.000  
  21610583.085   113564436.297       -1226.908          36.000  
  21483400.935   112896037.819       -1227.114          36.000  
  21560179.926   113299514.336       -1226.936          36.000  
  21596799.269   113491988.294       -1226.941          49.000  
  21460252.171   112774402.558       -1227.106          36.000  
  21728976.802   114186526.937       -1227.048          38.000  
  21559303.785   113294906.984       -1227.009          37.000  
  21622014.528   113624490.878       -1227.040          41.000  
  21716960.819   114123400.817       -1226.947          38.000  
  21760627.208   114352960.911       -1227.000          37.000  
  21462590.582   112786684.322       -1227.013          38.000  
  21649850.541   113770728.786       -1227.031          38.000  
  21497465.530   112969982.911       -1227.067          36.000  
 25  8 12  8 47 28.8000000  0 29G 5G 1G 2G 3G 4G31G16G19G 7G 9G11G15
                                G 6G28G21G17G32G26G10G 8G23G13G14G27
                                G30G20G29G24G18
  21596855.768   113492287.362       -1227.086          48.000  
  21596844.810   113492192.346       -1227.122          49.000  
  21596905.552   113492459.926       -1227.079          49.000  
  21596917.462   113492400.254       -1227.090          49.000  
  21596826.323   113492222.509       -1227.131          49.000  
  21476121.774   112857805.244       -1227.092          40.000  
  21669829.966   113875755.810       -1227.306          40.000  
  21520370.686   113090298.756       -1227.358          35.000  
  21596968.094   113492705.809       -1227.138          47.000  
  21694737.971   114006624.754       -1227.206          40.000  
  21817526.364   114651881.656       -1227.219          38.000  
  21536488.647   113175037.302       -1227.166          42.000  
  21596881.523   113492439.706       -1227.174          49.000  
  21505720.131   113013342.240       -1227.120          39.000  
  21631437.049   113673993.043       -1227.027          35.000  
  21748370.456   114288478.893       -1227.054          37.000  
  21610629.750   113564681.688       -1227.000          36.000  
  21483447.637   112896283.247       -1227.312          36.000  
  21560226.550   113299759.747       -1227.164          36.000  
  21596845.994   113492233.707       -1227.120          49.000  
  21460298.878   112774647.964       -1227.202          36.000  
  21729023.515   114186772.333       -1227.151          38.000  
  21559350.559   113295152.391       -1227.000          37.000  
  21622061.213   113624736.282       -1227.146          41.000  
  21717007.527   114123646.223       -1227.174          38.000  
  21760673.899   114353206.322       -1227.208          37.000  
  21462637.314   112786929.739       -1227.225          38.000  
  21649897.289   113770974.183       -1227.068          38.000  
  21497512.241   112970228.302       -1227.040          36.000  
 25  8 12  8 47 29.0000000  0 29G 5G 1G 2G 3G 4G31G16G19G 7G 9G11G15
                                G 6G28G21G17G32G26G10G 8G23G13G14G27
                                G30G20G29G24G18
  21596902.470   113492532.745       -1227.064          48.000  
  21596891.475   113492437.738       -1227.051          49.000  
  21596952.289   113492705.316       -1227.053          49.000  
  21596964.168   113492645.643       -1227.104          49.000  
  21596872.626   113492467.895       -1227.075          49.000  
  21476168.443   112858050.631       -1227.130          40.000  
  21669876.641   113876001.196       -1227.034          40.000  
  21520417.337   113090544.130       -1227.073          35.000  
  21597014.786   113492951.205       -1227.182          47.000  
  21694784.712   114006870.135       -1227.103          40.000  
  21817573.084   114652127.038       -1227.104          38.000  
  21536535.370   113175282.687       -1227.056          42.000  
  21596928.251   113492685.091       -1226.924          49.000  
  21505766.832   113013587.621       -1227.074          39.000  
  21631483.694   113674238.450       -1227.032          35.000  
  21748417.140   114288724.278       -1227.161          37.000  
  21610676.454   113564927.080       -1226.998          36.000  
  21483494.290   112896528.625       -1227.085          36.000  
  21560273.279   113300005.133       -1227.045          36.000  
  21596892.710   113492479.096       -1227.072          49.000  
  21460345.569   112774893.349       -1227.151          36.000  
  21729070.213   114187017.721       -1227.046          38.000  
  21559397.199   113295397.786       -1227.164          37.000  
  21622107.903   113624981.669       -1227.063          41.000  
  21717054.270   114123891.613       -1227.012          38.000  
  21760720.578   114353451.720       -1226.949          37.000  
  21462683.985   112787175.125       -1227.085          38.000  
  21649943.963   113771219.569       -1227.101          38.000  
  21497558.915   112970473.699       -1227.252          36.000  
 25  8 12  8 47 29.2000000  0 29G 5G 1G 2G 3G 4G31G16G19G 7G 9G11G15
                                G 6G28G21G17G32G26G10G 8G23G13G14G27
                                G30G20G29G24G18
  21596949.148   113492778.153       -1227.179          48.000  
  21596938.166   113492683.136       -1227.122          49.000  
  21596999.014   113492950.722       -1227.205          49.000  
  21597010.870   113492891.042       -1227.167          49.000  
  21596918.972   113492713.295       -1227.181          49.000  
  21476215.162   112858296.029       -1227.151          40.000  
  21669923.326   113876246.602       -1227.219          40.000  
  21520464.116   113090789.531       -1227.172          35.000  
  21597061.485   113493196.602       -1227.137          47.000  
  21694831.359   114007115.537       -1227.189          40.000  
  21817619.832   114652372.443       -1227.227          38.000  
  21536582.056   113175528.089       -1227.172          41.000  
  21596974.952   113492930.499       -1227.244          49.000  
  21505813.512   113013833.025       -1227.140          39.000  
  21631530.399   113674483.853       -1227.325          35.000  
  21748463.838   114288969.680       -1227.228          37.000  
  21610723.158   113565172.482       -1227.235          36.000  
  21483540.968   112896774.027       -1227.155          36.000  
  21560319.987   113300250.536       -1227.129          37.000  
  21596939.412   113492724.496       -1227.167          49.000  
  21460392.234   112775138.745       -1227.119          37.000  
  21729116.922   114187263.123       -1227.189          38.000  
  21559443.835   113295643.180       -1227.153          37.000  
  21622154.596   113625227.071       -1227.154          41.000  
  21717100.958   114124137.019       -1227.280          38.000  
  21760767.289   114353697.120       -1227.143          37.000  
  21462730.739   112787420.525       -1227.145          38.000  
  21649990.637   113771464.974       -1227.212          38.000  
  21497605.660   112970719.091       -1227.053          36.000  
 25  8 12  8 47 29.4000000  0 29G 5G 1G 2G 3G 4G31G16G19G 7G 9G11G15
                                G 6G28G21G17G32G26G10G 8G23G13G14G27
                                G30G20G29G24G18
  21596995.806   113493023.551       -1227.067          48.000  
  21596984.854   113492928.527       -1227.074          49.000  
  21597045.719   113493196.108       -1227.029          49.000  
  21597057.562   113493136.434       -1227.068          49.000  
  21596965.623   113492958.685       -1227.029          49.000  
  21476261.820   112858541.419       -1226.997          41.000  
  21669970.023   113876491.990       -1227.043          40.000  
  21520510.796   113091034.930       -1227.054          35.000  
  21597108.140   113493441.990       -1226.997          47.000  
  21694878.100   114007360.930       -1227.029          40.000  
  21817666.524   114652617.826       -1226.979          38.000  
  21536628.791   113175773.483       -1227.095          41.000  
  21597021.665   113493175.889       -1227.053          49.000  
  21505860.203   113014078.415       -1227.018          39.000  
  21631577.118   113674729.234       -1227.073          35.000  
  21748510.515   114289215.067       -1227.051          37.000  
  21610769.867   113565417.869       -1227.012          36.000  
  21483587.666   112897019.423       -1227.100          36.000  
  21560366.711   113300495.930       -1226.979          37.000  
  21596986.122   113492969.890       -1227.107          49.000  
  21460438.959   112775384.134       -1227.034          37.000  
  21729163.605   114187508.512       -1227.003          38.000  
  21559490.490   113295888.567       -1226.990          37.000  
  21622201.329   113625472.464       -1227.007          41.000  
  21717147.682   114124382.405       -1227.012          38.000  
  21760813.983   114353942.508       -1226.983          37.000  
  21462777.404   112787665.919       -1226.996          38.000  
  21650037.275   113771710.363       -1227.048          38.000  
  21497652.342   112970964.484       -1227.064          36.000  
 25  8 12  8 47 29.6000000  0 29G 5G 1G 2G 3G 4G31G16G19G 7G 9G11G15
                                G 6G28G21G17G32G26G10G 8G23G13G14G27
                                G30G20G29G24G18
  21597042.525   113493268.940       -1226.957          48.000  
  21597031.533   113493173.922       -1226.953          49.000  
  21597092.438   113493441.502       -1226.927          49.000  
  21597104.253   113493381.827       -1226.954          49.000  
  21597011.981   113493204.078       -1226.902          49.000  
  21476308.514   112858786.819       -1227.026          41.000  
  21670016.675   113876737.384       -1226.926          40.000  
  21520557.503   113091280.316       -1226.919          35.000  
  21597154.845   113493687.383       -1226.929          47.000  
  21694924.752   114007606.325       -1226.967          40.000  
  21817713.210   114652863.216       -1226.756          38.000  
  21536675.464   113176018.874       -1226.907          41.000  
  21597068.355   113493421.280       -1226.903          49.000  
  21505906.895   113014323.814       -1226.980          39.000  
  21631623.726   113674974.630       -1226.834          35.000  
  21748557.196   114289460.470       -1227.024          38.000  
  21610816.556   113565663.262       -1226.844          36.000  
  21483634.329   112897264.816       -1226.915          36.000  
  21560413.447   113300741.332       -1227.053          37.000  
  21597032.804   113493215.283       -1226.948          49.000  
  21460485.611   112775629.528       -1226.854          37.000  
  21729210.315   114187753.915       -1227.050          38.000  
  21559537.152   113296133.950       -1226.586          37.000  
  21622248.000   113625717.860       -1226.946          41.000  
  21717194.328   114124627.794       -1226.814          38.000  
  21760860.678   114354187.900       -1226.806          37.000  
  21462824.134   112787911.312       -1226.887          38.000  
  21650083.940   113771955.745       -1226.751          38.000  
  21497699.071   112971209.878       -1226.934          36.000  
 25  8 12  8 47 29.8000000  0 29G 5G 1G 2G 3G 4G31G16G19G 7G 9G11G15
                                G 6G28G21G17G32G26G10G 8G23G13G14G27
                                G30G20G29G24G18
  21597089.213   113493514.338       -1227.000          48.000  
  21597078.162   113493419.314       -1226.881          49.000  
  21597139.151   113493686.893       -1226.916          49.000  
  21597150.953   113493627.220       -1226.922          49.000  
  21597058.903   113493449.472       -1226.960          49.000  
  21476355.192   112859032.213       -1226.786          40.000  
  21670063.371   113876982.776       -1227.153          40.000  
  21520604.234   113091525.716       -1227.085          35.000  
  21597201.544   113493932.776       -1227.006          47.000  
  21694971.531   114007851.715       -1226.927          40.000  
  21817759.905   114653108.611       -1226.944          38.000  
  21536722.179   113176264.266       -1226.980          41.000  
  21597115.080   113493666.669       -1226.890          49.000  
  21505953.630   113014569.209       -1226.759          39.000  
  21631670.474   113675220.021       -1227.166          35.000  
  21748603.914   114289705.856       -1226.851          38.000  
  21610863.254   113565908.653       -1226.823          36.000  
  21483681.034   112897510.213       -1227.102          36.000  
  21560460.141   113300986.725       -1227.017          37.000  
  21597079.513   113493460.676       -1227.020          49.000  
  21460532.314   112775874.923       -1226.864          36.000  
  21729256.970   114187999.311       -1226.959          38.000  
  21559583.857   113296379.337       -1226.925          37.000  
  21622294.722   113625963.255       -1227.073          41.000  
  21717241.028   114124873.190       -1227.079          38.000  
  21760907.402   114354433.289       -1227.294          37.000  
  21462870.790   112788156.710       -1227.092          38.000  
  21650130.639   113772201.139       -1226.804          38.000  
  21497745.757   112971455.273       -1226.926          36.000  
 25  8 12  8 47 30.0000000  0 29G 5G 1G 2G 3G 4G31G16G19G 7G 9G11G15
                                G 6G28G21G17G32G26G10G 8G23G13G14G27
                                G30G20G29G24G18
  21597135.955   113493759.734       -1226.911          48.000  
  21597124.856   113493664.711       -1226.919          49.000  
  21597185.848   113493932.289       -1226.899          49.000  
  21597197.663   113493872.614       -1226.912          49.000  
  21597106.038   113493694.872       -1226.996          49.000  
  21476401.858   112859277.616       -1227.062          40.000  
  21670110.016   113877228.165       -1226.837          40.000  
  21520650.959   113091771.099       -1226.843          35.000  
  21597248.265   113494178.169       -1226.940          47.000  
  21695018.221   114008097.110       -1226.900          40.000  
  21817806.605   114653354.012       -1227.091          38.000  
  21536768.882   113176509.662       -1226.949          41.000  
  21597161.783   113493912.065       -1226.899          49.000  
  21506000.364   113014814.614       -1227.091          39.000  
  21631717.109   113675465.408       -1226.927          35.000  
  21748650.573   114289951.260       -1226.960          38.000  
  21610909.977   113566154.063       -1227.071          36.000  
  21483727.729   112897755.602       -1226.941          36.000  
  21560506.806   113301232.120       -1226.952          37.000  
  21597126.198   113493706.069       -1226.927          49.000  
  21460579.007   112776120.332       -1227.190          36.000  
  21729303.680   114188244.707       -1226.950          38.000  
  21559630.534   113296624.736       -1227.042          37.000  
  21622341.388   113626208.644       -1226.863          41.000  
  21717287.726   114125118.575       -1226.792          38.000  
  21760954.097   114354678.667       -1226.759          37.000  
  21462917.500   112788402.095       -1226.764          38.000  
  21650177.370   113772446.545       -1227.085          38.000  
  21497792.440   112971700.674       -1226.970          36.000  
 25  8 12  8 47 30.2000000  0 29G 5G 1G 2G 3G 4G31G16G19G 7G 9G11G15
                                G 6G28G21G17G32G26G10G 8G23G13G14G27
                                G30G20G29G24G18
  21597182.750   113494005.108       -1227.027          48.000  
  21597171.538   113493910.082       -1226.948          49.000  
  21597232.544   113494177.664       -1227.000          49.000  
  21597244.377   113494117.991       -1227.020          49.000  
  21597152.964   113493940.238       -1226.959          49.000  
  21476448.509   112859522.984       -1227.058          40.000  
  21670156.739   113877473.543       -1227.014          40.000  
  21520697.616   113092016.484       -1227.087          35.000  
  21597294.983   113494423.541       -1226.982          47.000  
  21695064.972   114008342.488       -1227.040          40.000  
  21817853.295   114653599.384       -1227.161          37.000  
  21536815.618   113176755.035       -1227.084          41.000  
  21597208.483   113494157.444       -1227.025          49.000  
  21506047.050   113015059.980       -1227.072          39.000  
  21631763.835   113675710.774       -1226.826          35.000  
  21748697.271   114290196.628       -1227.029          38.000  
  21610956.647   113566399.425       -1226.964          36.000  
  21483774.451   112898000.980       -1227.035          36.000  
  21560553.564   113301477.484       -1226.895          37.000  
  21597172.874   113493951.442       -1226.983          49.000  
  21460625.709   112776365.689       -1227.037          36.000  
  21729350.407   114188490.082       -1227.088          38.000  
  21559677.179   113296870.101       -1227.035          37.000  
  21622388.109   113626454.020       -1226.962          41.000  
  21717334.460   114125363.961       -1227.010          38.000  
  21761000.761   114354924.044       -1226.789          37.000  
  21462964.173   112788647.480       -1227.040          38.000  
  21650224.055   113772691.913       -1227.148          38.000  
  21497839.180   112971946.043       -1227.013          36.000  
 25  8 12  8 47 30.4000000  0 29G 5G 1G 2G 3G 4G31G16G19G 7G 9G11G15
                                G 6G28G21G17G32G26G10G 8G23G13G14G27
                                G30G20G29G24G18
  21597229.424   113494250.505       -1227.008          48.000  
  21597218.211   113494155.467       -1226.864          49.000  
  21597279.242   113494423.050       -1226.955          49.000  
  21597291.066   113494363.373       -1226.913          49.000  
  21597199.477   113494185.630       -1226.999          49.000  
  21476495.215   112859768.370       -1226.890          40.000  
  21670203.428   113877718.930       -1226.928          40.000  
  21520744.365   113092261.869       -1226.907          35.000  
  21597341.636   113494668.934       -1226.939          47.000  
  21695111.614   114008587.873       -1226.894          40.000  
  21817899.949   114653844.758       -1226.880          37.000  
  21536862.298   113177000.420       -1226.956          41.000  
  21597255.178   113494402.826       -1226.904          49.000  
  21506093.707   113015305.364       -1226.919          39.000  
  21631810.529   113675956.175       -1226.844          35.000  
  21748744.001   114290442.015       -1226.937          38.000  
  21611003.359   113566644.807       -1226.854          36.000  
  21483821.151   112898246.367       -1226.841          36.000  
  21560600.250   113301722.880       -1226.893          37.000  
  21597219.566   113494196.827       -1226.883          49.000  
  21460672.390   112776611.069       -1226.794          36.000  
  21729397.132   114188735.465       -1226.936          38.000  
  21559723.832   113297115.490       -1226.887          37.000  
  21622434.790   113626699.408       -1226.894          41.000  
  21717381.124   114125609.348       -1226.967          38.000  
  21761047.468   114355169.447       -1226.946          37.000  
  21463010.931   112788892.872       -1226.956          38.000  
  21650270.747   113772937.291       -1226.900          38.000  
  21497885.892   112972191.430       -1226.981          36.000  
 25  8 12  8 47 30.6000000  0 29G 5G 1G 2G 3G 4G31G16G19G 7G 9G11G15
                                G 6G28G21G17G32G26G10G 8G23G13G14G27
                                G30G20G29G24G18
  21597276.152   113494495.867       -1227.007          48.000  
  21597264.897   113494400.846       -1226.913          49.000  
  21597325.948   113494668.431       -1226.906          49.000  
  21597337.766   113494608.751       -1226.921          49.000  
  21597245.864   113494431.001       -1226.897          49.000  
  21476541.838   112860013.740       -1226.937          40.000  
  21670250.112   113877964.307       -1226.904          40.000  
  21520791.074   113092507.239       -1226.869          35.000  
  21597388.318   113494914.308       -1226.958          47.000  
  21695158.348   114008833.249       -1227.027          40.000  
  21817946.670   114654090.160       -1227.107          37.000  
  21536908.992   113177245.800       -1226.960          41.000  
  21597301.888   113494648.205       -1226.906          49.000  
  21506140.388   113015550.740       -1227.024          39.000  
  21631857.262   113676201.554       -1226.884          35.000  
  21748790.672   114290687.388       -1226.937          38.000  
  21611050.034   113566890.192       -1226.934          36.000  
  21483867.842   112898491.738       -1226.884          36.000  
  21560646.987   113301968.249       -1226.917          37.000  
  21597266.254   113494442.203       -1226.882          49.000  
  21460719.058   112776856.466       -1227.074          36.000  
  21729443.798   114188980.836       -1226.997          38.000  
  21559770.499   113297360.901       -1227.057          37.000  
  21622481.517   113626944.781       -1226.876          41.000  
  21717427.840   114125854.718       -1226.869          38.000  
  21761094.159   114355414.821       -1226.822          37.000  
  21463057.580   112789138.234       -1226.904          38.000  
  21650317.413   113773182.686       -1227.019          38.000  
  21497932.644   112972436.805       -1227.015          36.000  
 25  8 12  8 47 30.8000000  0 29G 5G 1G 2G 3G 4G31G16G19G 7G 9G11G15
                                G 6G28G21G17G32G26G10G 8G23G13G14G27
                                G30G20G29G24G18
  21597322.883   113494741.230       -1226.869          48.000  
  21597311.579   113494646.208       -1226.850          49.000  
  21597372.641   113494913.795       -1226.937          49.000  
  21597384.461   113494854.111       -1226.858          49.000  
  21597292.501   113494676.367       -1226.896          49.000  
  21476588.538   112860259.099       -1226.819          40.000  
  21670296.790   113878209.670       -1226.881          40.000  
  21520837.760   113092752.607       -1226.932          35.000  
  21597434.989   113495159.670       -1226.845          47.000  
  21695204.987   114009078.607       -1226.852          40.000  
  21817993.394   114654335.509       -1226.843          38.000  
  21536955.661   113177491.161       -1226.858          41.000  
  21597348.579   113494893.569       -1226.928          49.000  
  21506187.082   113015796.096       -1226.793          39.000  
  21631903.956   113676446.914       -1226.816          35.000  
  21748837.352   114290932.749       -1226.865          38.000  
  21611096.733   113567135.550       -1226.811          36.000  
  21483914.514   112898737.103       -1226.958          36.000  
  21560693.694   113302213.611       -1226.906          37.000  
  21597312.953   113494687.572       -1226.955          49.000  
  21460765.734   112777101.816       -1226.851          36.000  
  21729490.509   114189226.195       -1226.812          38.000  
  21559817.091   113297606.251       -1226.927          37.000  
  21622528.196   113627190.146       -1226.869          41.000  
  21717474.494   114126100.083       -1226.896          38.000  
  21761140.855   114355660.193       -1227.004          37.000  
  21463104.305   112789383.597       -1226.813          38.000  
  21650364.092   113773428.043       -1226.945          38.000  
  21497979.365   112972682.163       -1226.720          36.000  
 25  8 12  8 47 31.0000000  0 29G 5G 1G 2G 3G 4G31G16G19G 7G 9G11G15
                                G 6G28G21G17G32G26G10G 8G23G13G14G27
                                G30G20G29G24G18
  21597369.575   113494986.601       -1226.813          48.000  
  21597358.268   113494891.574       -1226.770          49.000  
  21597419.346   113495159.157       -1226.750          49.000  
  21597431.154   113495099.479       -1226.809          49.000  
  21597339.362   113494921.732       -1226.769          49.000  
  21476635.198   112860504.469       -1226.703          40.000  
  21670343.491   113878455.034       -1226.823          40.000  
  21520884.440   113092997.964       -1226.689          35.000  
  21597481.696   113495405.042       -1226.879          47.000  
  21695251.704   114009323.973       -1226.769          40.000  
  21818040.091   114654580.872       -1226.564          38.000  
  21537002.366   113177736.526       -1226.742          41.000  
  21597395.289   113495138.928       -1226.690          49.000  
  21506233.735   113016041.469       -1226.752          39.000  
  21631950.648   113676692.285       -1226.745          35.000  
  21748884.016   114291178.114       -1226.689          38.000  
  21611143.410   113567380.922       -1226.800          36.000  
  21483961.225   112898982.463       -1226.715          36.000  
  21560740.380   113302458.967       -1226.577          37.000  
  21597359.628   113494932.928       -1226.725          49.000  
  21460812.448   112777347.186       -1226.732          36.000  
  21729537.209   114189471.562       -1226.756          38.000  
  21559863.785   113297851.619       -1226.792          37.000  
  21622574.889   113627435.509       -1226.764          41.000  
  21717521.199   114126345.443       -1226.717          38.000  
  21761187.537   114355905.548       -1226.827          37.000  
  21463150.956   112789628.963       -1226.735          38.000  
  21650410.742   113773673.408       -1226.715          38.000  
  21498026.067   112972927.537       -1226.779          36.000  
 25  8 12  8 47 31.2000000  0 29G 5G 1G 2G 3G 4G31G16G19G 7G 9G11G15
                                G 6G28G21G17G32G26G10G 8G23G13G14G27
                                G30G20G29G24G18
  21597416.253   113495231.952       -1227.027          48.000  
  21597404.923   113495136.933       -1226.828          49.000  
  21597466.063   113495404.514       -1226.855          49.000  
  21597477.845   113495344.842       -1226.972          49.000  
  21597386.468   113495167.091       -1226.996          49.000  
  21476681.885   112860749.828       -1226.976          40.000  
  21670390.164   113878700.389       -1226.826          40.000  
  21520931.133   113093243.328       -1227.062          35.000  
  21597528.383   113495650.392       -1226.968          47.000  
  21695298.357   114009569.332       -1227.001          40.000  
  21818086.805   114654826.239       -1226.932          38.000  
  21537049.026   113177981.889       -1227.041          41.000  
  21597441.997   113495384.291       -1226.907          49.000  
  21506280.427   113016286.828       -1226.980          39.000  
  21631997.373   113676937.648       -1227.088          35.000  
  21748930.710   114291423.479       -1227.017          38.000  
  21611190.099   113567626.280       -1227.084          36.000  
  21484007.908   112899227.825       -1227.002          36.000  
  21560787.084   113302704.337       -1227.054          37.000  
  21597406.356   113495178.296       -1227.045          49.000  
  21460859.096   112777592.544       -1226.917          36.000  
  21729583.902   114189716.920       -1226.834          38.000  
  21559910.450   113298096.974       -1226.937          37.000  
  21622621.605   113627680.870       -1227.029          41.000  
  21717567.865   114126590.802       -1226.974          38.000  
  21761234.225   114356150.910       -1226.936          37.000  
  21463197.681   112789874.323       -1227.001          38.000  
  21650457.454   113773918.771       -1227.046          38.000  
  21498072.749   112973172.894       -1226.876          36.000  
 25  8 12  8 47 31.4000000  0 29G 5G 1G 2G 3G 4G31G16G19G 7G 9G11G15
                                G 6G28G21G17G32G26G10G 8G23G13G14G27
                                G30G20G29G24G18
  21597462.937   113495477.345       -1226.896          48.000  
  21597451.616   113495382.326       -1226.857          49.000  
  21597512.774   113495649.903       -1226.764          49.000  
  21597524.541   113495590.228       -1226.725          49.000  
  21597433.042   113495412.480       -1226.750          49.000  
  21476728.580   112860995.222       -1226.854          40.000  
  21670436.876   113878945.782       -1226.737          40.000  
  21520977.811   113093488.714       -1226.863          35.000  
  21597575.040   113495895.774       -1226.573          47.000  
  21695345.071   114009814.723       -1226.836          40.000  
  21818133.498   114655071.621       -1226.651          38.000  
  21537095.729   113178227.274       -1226.713          41.000  
  21597488.697   113495629.679       -1226.778          49.000  
  21506327.130   113016532.219       -1226.813          39.000  
  21632044.051   113677183.026       -1226.682          35.000  
  21748977.399   114291668.868       -1226.872          38.000  
  21611236.767   113567871.659       -1226.653          36.000  
  21484054.607   112899473.220       -1226.881          36.000  
  21560833.783   113302949.724       -1226.847          37.000  
  21597453.028   113495423.682       -1226.850          49.000  
  21460905.771   112777837.930       -1226.764          36.000  
  21729630.543   114189962.322       -1226.887          38.000  
  21559957.170   113298342.348       -1226.433          37.000  
  21622668.348   113627926.260       -1226.790          41.000  
  21717614.568   114126836.190       -1226.800          38.000  
  21761280.916   114356396.294       -1226.634          37.000  
  21463244.344   112790119.709       -1226.755          38.000  
  21650504.106   113774164.147       -1226.560          38.000  
  21498119.417   112973418.289       -1226.748          36.000  
 25  8 12  8 47 31.6000000  0 29G 5G 1G 2G 3G 4G31G16G19G 7G 9G11G15
                                G 6G28G21G17G32G26G10G 8G23G13G14G27
                                G30G20G29G24G18
  21597509.709   113495722.776       -1227.102          48.000  
  21597498.315   113495627.750       -1227.144          49.000  
  21597559.483   113495895.334       -1227.192          49.000  
  21597571.243   113495835.653       -1227.147          49.000  
  21597479.583   113495657.911       -1227.275          49.000  
  21476775.280   112861240.653       -1227.170          40.000  
  21670483.599   113879191.210       -1227.299          40.000  
  21521024.583   113093734.149       -1227.284          35.000  
  21597621.748   113496141.211       -1227.423          47.000  
  21695391.715   114010060.151       -1227.267          40.000  
  21818180.213   114655317.046       -1227.389          38.000  
  21537142.422   113178472.706       -1227.330          41.000  
  21597535.418   113495875.107       -1227.152          49.000  
  21506373.843   113016777.647       -1227.161          39.000  
  21632090.724   113677428.467       -1227.330          35.000  
  21749024.114   114291914.294       -1227.114          38.000  
  21611283.473   113568117.096       -1227.299          36.000  
  21484101.304   112899718.649       -1227.194          36.000  
  21560880.481   113303195.158       -1227.255          37.000  
  21597499.742   113495669.109       -1227.151          49.000  
  21460952.501   112778083.350       -1227.142          36.000  
  21729677.223   114190207.747       -1227.179          38.000  
  21560003.840   113298587.779       -1227.393          37.000  
  21622715.024   113628171.693       -1227.238          41.000  
  21717661.271   114127081.623       -1227.192          38.000  
  21761327.615   114356641.730       -1227.352          37.000  
  21463291.109   112790365.150       -1227.368          38.000  
  21650550.799   113774409.580       -1227.302          38.000  
  21498166.129   112973663.717       -1227.393          36.000  
 25  8 12  8 47 31.8000000  0 29G 5G 1G 2G 3G 4G31G16G19G 7G 9G11G15
                                G 6G28G21G17G32G26G10G 8G23G13G14G27
                                G30G20G29G24G18
  21597556.413   113495968.145       -1226.920          48.000  
  21597544.986   113495873.124       -1226.839          49.000  
  21597606.188   113496140.711       -1226.952          49.000  
  21597617.927   113496081.027       -1226.880          49.000  
  21597526.604   113495903.275       -1226.830          49.000  
  21476821.925   112861486.022       -1226.809          40.000  
  21670530.300   113879436.579       -1226.908          40.000  
  21521071.244   113093979.520       -1227.087          35.000  
  21597668.425   113496386.575       -1226.897          47.000  
  21695438.446   114010305.521       -1226.941          40.000  
  21818226.917   114655562.407       -1226.733          38.000  
  21537189.099   113178718.071       -1226.824          41.000  
  21597582.095   113496120.484       -1226.899          49.000  
  21506420.547   113017023.017       -1226.703          39.000  
  21632137.436   113677673.827       -1226.965          35.000  
  21749070.807   114292159.667       -1226.735          38.000  
  21611330.166   113568362.463       -1226.833          36.000  
  21484148.027   112899964.020       -1226.946          36.000  
  21560927.200   113303440.526       -1226.863          37.000  
  21597546.427   113495914.486       -1226.935          49.000  
  21460999.151   112778328.718       -1226.613          36.000  
  21729723.922   114190453.119       -1226.810          38.000  
  21560050.524   113298833.143       -1226.945          37.000  
  21622761.710   113628417.061       -1226.908          41.000  
  21717707.982   114127327.001       -1227.100          38.000  
  21761374.315   114356887.091       -1226.985          37.000  
  21463337.734   112790610.512       -1226.981          38.000  
  21650597.449   113774654.937       -1226.613          38.000  
  21498212.798   112973909.081       -1226.796          36.000  
 25  8 12  8 47 32.0000000  0 29G 5G 1G 2G 3G 4G31G16G19G 7G 9G11G15
                                G 6G28G21G17G32G26G10G 8G23G13G14G27
                                G30G20G29G24G18
  21597603.090   113496213.552       -1227.099          48.000  
  21597591.683   113496118.524       -1227.038          49.000  
  21597652.893   113496386.107       -1227.019          49.000  
  21597664.629   113496326.421       -1227.052          49.000  
  21597573.642   113496148.687       -1227.085          49.000  
  21476868.641   112861731.424       -1227.086          40.000  
  21670576.998   113879681.985       -1227.096          40.000  
  21521117.965   113094224.923       -1227.220          35.000  
  21597715.129   113496631.981       -1227.034          47.000  
  21695485.096   114010550.921       -1227.094          40.000  
  21818273.647   114655807.808       -1227.052          38.000  
  21537235.792   113178963.474       -1227.024          41.000  
  21597628.770   113496365.879       -1227.052          49.000  
  21506467.283   113017268.419       -1226.997          39.000  
  21632184.100   113677919.232       -1227.123          35.000  
  21749117.535   114292405.073       -1227.016          38.000  
  21611376.882   113568607.867       -1227.096          36.000  
  21484194.739   112900209.418       -1227.123          36.000  
  21560973.949   113303685.929       -1227.128          37.000  
  21597593.143   113496159.888       -1227.141          49.000  
  21461045.796   112778574.126       -1226.962          36.000  
  21729770.665   114190698.520       -1226.970          38.000  
  21560097.219   113299078.544       -1227.031          37.000  
  21622808.354   113628662.466       -1227.079          41.000  
  21717754.676   114127572.393       -1227.102          38.000  
  21761420.995   114357132.500       -1227.081          37.000  
  21463384.481   112790855.910       -1227.069          38.000  
  21650644.145   113774900.346       -1226.993          38.000  
  21498259.492   112974154.491       -1227.179          36.000  
 25  8 12  8 47 32.2000000  0 29G 5G 1G 2G 3G 4G31G16G19G 7G 9G11G15
                                G 6G28G21G17G32G26G10G 8G23G13G14G27
                                G30G20G29G24G18
  21597649.766   113496458.965       -1227.098          48.000  
  21597638.342   113496363.947       -1227.192          49.000  
  21597699.612   113496631.525       -1227.243          49.000  
  21597711.324   113496571.838       -1227.085          49.000  
  21597620.415   113496394.095       -1227.171          49.000  
  21476915.319   112861976.841       -1227.166          40.000  
  21670623.697   113879927.396       -1227.186          40.000  
  21521164.681   113094470.331       -1227.200          35.000  
  21597761.803   113496877.392       -1227.151          47.000  
  21695531.826   114010796.335       -1227.171          40.000  
  21818320.313   114656053.223       -1227.135          38.000  
  21537282.502   113179208.887       -1227.133          41.000  
  21597675.463   113496611.301       -1227.247          49.000  
  21506513.967   113017513.836       -1227.144          39.000  
  21632230.818   113678164.649       -1227.322          35.000  
  21749164.292   114292650.490       -1227.128          38.000  
  21611423.581   113568853.279       -1227.222          36.000  
  21484241.413   112900454.840       -1227.267          36.000  
  21561020.698   113303931.340       -1227.118          37.000  
  21597639.855   113496405.301       -1227.197          49.000  
  21461092.495   112778819.542       -1227.207          36.000  
  21729817.339   114190943.936       -1227.142          38.000  
  21560143.907   113299323.963       -1227.195          37.000  
  21622855.033   113628907.878       -1227.131          41.000  
  21717801.367   114127817.809       -1227.170          38.000  
  21761467.694   114357377.913       -1227.188          37.000  
  21463431.138   112791101.324       -1227.133          38.000  
  21650690.848   113775145.759       -1227.131          38.000  
  21498306.177   112974399.899       -1227.163          36.000  
 25  8 12  8 47 32.4000000  0 29G 5G 1G 2G 3G 4G31G16G19G 7G 9G11G15
                                G 6G28G21G17G32G26G10G 8G23G13G14G27
                                G30G20G29G24G18
  21597696.434   113496704.387       -1227.310          48.000  
  21597685.059   113496609.365       -1227.242          49.000  
  21597746.321   113496876.943       -1227.316          49.000  
  21597758.034   113496817.265       -1227.260          49.000  
  21597666.977   113496639.519       -1227.315          49.000  
  21476962.030   112862222.264       -1227.300          40.000  
  21670670.375   113880172.818       -1227.238          40.000  
  21521211.411   113094715.740       -1227.227          35.000  
  21597808.510   113497122.818       -1227.240          47.000  
  21695578.487   114011041.755       -1227.231          40.000  
  21818366.993   114656298.656       -1227.278          37.000  
  21537329.189   113179454.311       -1227.257          41.000  
  21597722.156   113496856.720       -1227.215          49.000  
  21506560.692   113017759.266       -1227.369          39.000  
  21632277.511   113678410.057       -1227.350          35.000  
  21749210.999   114292895.903       -1227.269          38.000  
  21611470.268   113569098.706       -1227.293          35.000  
  21484288.135   112900700.251       -1227.296          36.000  
  21561067.418   113304176.762       -1227.295          37.000  
  21597686.578   113496650.719       -1227.217          49.000  
  21461139.226   112779064.972       -1227.286          36.000  
  21729864.101   114191189.361       -1227.210          38.000  
  21560190.588   113299569.380       -1227.341          37.000  
  21622901.700   113629153.302       -1227.350          41.000  
  21717848.057   114128063.228       -1227.311          38.000  
  21761514.389   114357623.327       -1227.306          37.000  
  21463477.877   112791346.747       -1227.285          38.000  
  21650737.584   113775391.187       -1227.362          38.000  
  21498352.914   112974645.325       -1227.288          36.000  
 25  8 12  8 47 32.6000000  0 29G 5G 1G 2G 3G 4G31G16G19G 7G 9G11G15
                                G 6G28G21G17G32G26G10G 8G23G13G14G27
                                G30G20G29G24G18
  21597743.111   113496949.800       -1227.135          48.000  
  21597731.760   113496854.774       -1227.122          49.000  
  21597793.034   113497122.355       -1227.202          49.000  
  21597804.733   113497062.672       -1227.134          49.000  
  21597713.818   113496884.928       -1227.125          49.000  
  21477008.719   112862467.675       -1227.190          40.000  
  21670717.079   113880418.233       -1227.205          40.000  
  21521258.116   113094961.167       -1227.197          35.000  
  21597855.182   113497368.235       -1227.311          47.000  
  21695625.223   114011287.176       -1227.238          40.000  
  21818413.684   114656544.070       -1227.304          37.000  
  21537375.897   113179699.723       -1227.251          42.000  
  21597768.872   113497102.138       -1227.178          49.000  
  21506607.377   113018004.670       -1227.212          39.000  
  21632324.203   113678655.478       -1227.014          35.000  
  21749257.746   114293141.318       -1227.228          38.000  
  21611516.993   113569344.118       -1227.162          35.000  
  21484334.810   112900945.671       -1227.166          36.000  
  21561114.117   113304422.169       -1227.072          37.000  
  21597733.283   113496896.137       -1227.193          49.000  
  21461185.916   112779310.380       -1227.281          36.000  
  21729910.788   114191434.773       -1227.250          38.000  
  21560237.331   113299814.790       -1227.183          37.000  
  21622948.427   113629398.712       -1227.155          41.000  
  21717894.748   114128308.645       -1227.116          38.000  
  21761561.060   114357868.743       -1227.112          37.000  
  21463524.540   112791592.165       -1227.130          38.000  
  21650784.282   113775636.592       -1227.147          38.000  
  21498399.620   112974890.733       -1227.159          36.000  
 25  8 12  8 47 32.8000000  0 29G 5G 1G 2G 3G 4G31G16G19G 7G 9G11G15
                                G 6G28G21G17G32G26G10G 8G23G13G14G27
                                G30G20G29G24G18
  21597789.889   113497195.214       -1227.228          48.000  
  21597778.452   113497100.181       -1227.205          49.000  
  21597839.736   113497367.764       -1227.203          49.000  
  21597851.439   113497308.081       -1227.294          49.000  
  21597760.116   113497130.338       -1227.233          49.000  
  21477055.437   112862713.082       -1227.194          40.000  
  21670763.788   113880663.643       -1227.310          40.000  
  21521304.815   113095206.578       -1227.354          35.000  
  21597901.903   113497613.650       -1227.303          47.000  
  21695671.906   114011532.585       -1227.289          40.000  
  21818460.421   114656789.475       -1227.235          37.000  
  21537422.602   113179945.130       -1227.196          42.000  
  21597815.587   113497347.547       -1227.223          49.000  
  21506654.113   113018250.075       -1227.136          39.000  
  21632370.951   113678900.892       -1227.341          35.000  
  21749304.432   114293386.726       -1227.258          38.000  
  21611563.676   113569589.528       -1227.146          35.000  
  21484381.496   112901191.079       -1227.218          36.000  
  21561160.847   113304667.581       -1227.192          37.000  
  21597779.994   113497141.544       -1227.175          49.000  
  21461232.556   112779555.785       -1227.186          36.000  
  21729957.492   114191680.177       -1227.168          38.000  
  21560283.987   113300060.199       -1227.239          37.000  
  21622995.092   113629644.127       -1227.306          41.000  
  21717941.409   114128554.059       -1227.294          38.000  
  21761607.758   114358114.152       -1227.301          37.000  
  21463571.308   112791837.582       -1227.360          38.000  
  21650830.980   113775882.006       -1227.246          38.000  
  21498446.342   112975136.140       -1227.183          36.000  
 25  8 12  8 47 33.0000000  0 29G 5G 1G 2G 3G 4G31G16G19G 7G 9G11G15
                                G 6G28G21G17G32G26G10G 8G23G13G14G27
                                G30G20G29G24G18
  21597836.537   113497440.613       -1226.968          48.000  
  21597825.136   113497345.582       -1226.980          49.000  
  21597886.438   113497613.165       -1226.952          49.000  
  21597898.132   113497553.488       -1226.957          49.000  
  21597806.401   113497375.745       -1226.857          49.000  
  21477102.070   112862958.483       -1226.854          40.000  
  21670810.483   113880909.036       -1226.798          40.000  
  21521351.464   113095451.964       -1226.763          35.000  
  21597948.629   113497859.040       -1226.892          47.000  
  21695718.657   114011777.978       -1226.843          40.000  
  21818507.064   114657034.882       -1227.012          37.000  
  21537469.329   113180190.531       -1226.864          42.000  
  21597862.283   113497592.946       -1227.016          49.000  
  21506700.786   113018495.486       -1227.018          39.000  
  21632417.610   113679146.274       -1226.775          35.000  
  21749351.150   114293632.125       -1226.881          38.000  
  21611610.380   113569834.931       -1227.005          36.000  
  21484428.166   112901436.476       -1226.899          36.000  
  21561207.548   113304912.984       -1226.910          37.000  
  21597826.684   113497386.943       -1226.913          49.000  
  21461279.248   112779801.198       -1226.975          36.000  
  21730004.184   114191925.583       -1226.934          38.000  
  21560330.716   113300305.603       -1227.001          37.000  
  21623041.809   113629889.520       -1226.881          41.000  
  21717988.136   114128799.448       -1226.819          38.000  
  21761654.446   114358359.543       -1226.751          37.000  
  21463617.958   112792082.967       -1226.880          38.000  
  21650877.647   113776127.408       -1226.952          38.000  
  21498493.028   112975381.546       -1226.949          36.000  
 25  8 12  8 47 33.2000000  0 29G 5G 1G 2G 3G 4G31G16G19G 7G 9G11G15
                                G 6G28G21G17G32G26G10G 8G23G13G14G27
                                G30G20G29G24G18
  21597883.294   113497686.019       -1226.954          48.000  
  21597871.830   113497590.980       -1226.877          49.000  
  21597933.156   113497858.565       -1227.004          49.000  
  21597944.843   113497798.884       -1226.953          49.000  
  21597853.453   113497621.145       -1226.950          49.000  
  21477148.771   112863203.884       -1226.881          40.000  
  21670857.122   113881154.446       -1226.968          40.000  
  21521398.146   113095697.379       -1227.073          35.000  
  21597995.328   113498104.444       -1226.869          47.000  
  21695765.301   114012023.383       -1226.908          40.000  
  21818553.754   114657280.280       -1227.053          37.000  
  21537516.007   113180435.936       -1226.995          41.000  
  21597908.973   113497838.342       -1226.939          49.000  
  21506747.511   113018740.878       -1226.952          39.000  
  21632464.297   113679391.692       -1227.050          35.000  
  21749397.841   114293877.529       -1227.022          38.000  
  21611657.130   113570080.334       -1226.943          36.000  
  21484474.875   112901681.878       -1226.976          36.000  
  21561254.228   113305158.388       -1227.021          37.000  
  21597873.396   113497632.347       -1226.903          49.000  
  21461325.923   112780046.584       -1226.858          36.000  
  21730050.915   114192170.974       -1226.799          38.000  
  21560377.362   113300551.017       -1227.329          37.000  
  21623088.512   113630134.924       -1226.922          41.000  
  21718034.801   114129044.858       -1226.921          38.000  
  21761701.113   114358604.961       -1226.949          37.000  
  21463664.690   112792328.375       -1226.844          38.000  
  21650924.310   113776372.811       -1227.096          38.000  
  21498539.732   112975626.949       -1227.043          36.000  
 25  8 12  8 47 33.4000000  0 29G 5G 1G 2G 3G 4G31G16G19G 7G 9G11G15
                                G 6G28G21G17G32G26G10G 8G23G13G14G27
                                G30G20G29G24G18
  21597930.009   113497931.430       -1227.262          48.000  
  21597918.527   113497836.400       -1227.128          49.000  
  21597979.871   113498103.976       -1227.158          49.000  
  21597991.555   113498044.303       -1227.201          49.000  
  21597900.454   113497866.565       -1227.217          49.000  
  21477195.450   112863449.297       -1227.255          40.000  
  21670903.826   113881399.862       -1227.206          40.000  
  21521444.850   113095942.799       -1227.291          35.000  
  21598042.064   113498349.862       -1227.241          47.000  
  21695812.012   114012268.797       -1227.188          40.000  
  21818600.422   114657525.704       -1227.079          37.000  
  21537562.694   113180681.352       -1227.180          41.000  
  21597955.671   113498083.760       -1227.129          49.000  
  21506794.190   113018986.289       -1227.170          39.000  
  21632511.015   113679637.113       -1227.297          35.000  
  21749444.529   114294122.941       -1227.150          38.000  
  21611703.824   113570325.753       -1227.238          36.000  
  21484521.556   112901927.298       -1227.209          36.000  
  21561300.965   113305403.799       -1227.268          37.000  
  21597920.086   113497877.762       -1227.169          49.000  
  21461372.650   112780292.006       -1227.122          36.000  
  21730097.575   114192416.389       -1227.268          38.000  
  21560424.079   113300796.434       -1227.042          37.000  
  21623135.236   113630380.338       -1227.213          41.000  
  21718081.510   114129290.279       -1227.265          38.000  
  21761747.808   114358850.380       -1227.421          37.000  
  21463711.328   112792573.793       -1227.373          38.000  
  21650970.962   113776618.230       -1227.086          38.000  
  21498586.435   112975872.359       -1227.152          36.000  
 25  8 12  8 47 33.6000000  0 29G 5G 1G 2G 3G 4G31G16G19G 7G 9G11G15
                                G 6G28G21G17G32G26G10G 8G23G13G14G27
                                G30G20G29G24G18
  21597976.735   113498176.858       -1227.348          48.000  
  21597965.188   113498081.842       -1227.409          49.000  
  21598026.604   113498349.412       -1227.404          49.000  
  21598038.271   113498289.734       -1227.418          49.000  
  21597947.383   113498111.994       -1227.415          49.000  
  21477242.156   112863694.729       -1227.417          40.000  
  21670950.507   113881645.287       -1227.296          40.000  
  21521491.533   113096188.220       -1227.485          35.000  
  21598088.794   113498595.294       -1227.403          47.000  
  21695858.670   114012514.230       -1227.359          40.000  
  21818647.129   114657771.138       -1227.319          37.000  
  21537609.389   113180926.788       -1227.434          41.000  
  21598002.374   113498329.195       -1227.379          49.000  
  21506840.933   113019231.725       -1227.437          39.000  
  21632557.733   113679882.538       -1227.409          35.000  
  21749491.244   114294368.379       -1227.444          38.000  
  21611750.504   113570571.193       -1227.563          36.000  
  21484568.221   112902172.727       -1227.471          36.000  
  21561347.649   113305649.227       -1227.423          37.000  
  21597966.803   113498123.196       -1227.357          49.000  
  21461419.343   112780537.445       -1227.406          36.000  
  21730144.275   114192661.819       -1227.362          38.000  
  21560470.802   113301041.878       -1227.487          37.000  
  21623181.914   113630625.767       -1227.373          41.000  
  21718128.186   114129535.706       -1227.373          38.000  
  21761794.528   114359095.799       -1227.330          37.000  
  21463758.063   112792819.216       -1227.418          38.000  
  21651017.688   113776863.667       -1227.407          38.000  
  21498633.204   112976117.799       -1227.386          36.000  
 25  8 12  8 47 33.8000000  0 29G 5G 1G 2G 3G 4G31G16G19G 7G 9G11G15
                                G 6G28G21G17G32G26G10G 8G23G13G14G27
                                G30G20G29G24G18
  21598023.370   113498422.285       -1227.223          47.000  
  21598011.901   113498327.260       -1227.144          49.000  
  21598073.320   113498594.835       -1227.222          49.000  
  21598084.977   113498535.156       -1227.208          49.000  
  21597994.511   113498357.412       -1227.097          49.000  
  21477288.853   112863940.151       -1227.172          40.000  
  21670997.219   113881890.711       -1227.240          40.000  
  21521538.231   113096433.645       -1227.205          35.000  
  21598135.480   113498840.714       -1227.141          47.000  
  21695905.397   114012759.653       -1227.225          40.000  
  21818693.809   114658016.560       -1227.166          38.000  
  21537656.107   113181172.208       -1227.179          41.000  
  21598049.098   113498574.622       -1227.213          49.000  
  21506887.577   113019477.149       -1227.178          39.000  
  21632604.427   113680127.969       -1227.227          35.000  
  21749537.922   114294613.802       -1227.224          38.000  
  21611797.187   113570816.612       -1227.156          36.000  
  21484614.921   112902418.144       -1227.234          36.000  
  21561394.332   113305894.648       -1227.234          37.000  
  21598013.503   113498368.617       -1227.144          49.000  
  21461466.040   112780782.868       -1227.219          36.000  
  21730190.957   114192907.239       -1227.142          38.000  
  21560517.552   113301287.305       -1227.275          37.000  
  21623228.617   113630871.190       -1227.204          41.000  
  21718174.886   114129781.128       -1227.192          38.000  
  21761841.209   114359341.217       -1227.096          37.000  
  21463804.718   112793064.637       -1227.216          38.000  
  21651064.374   113777109.093       -1227.135          38.000  
  21498679.928   112976363.215       -1227.115          36.000  
 25  8 12  8 47 34.0000000  0 29G 5G 1G 2G 3G 4G31G16G19G 7G 9G11G15
                                G 6G28G21G17G32G26G10G 8G23G13G14G27
                                G30G20G29G24G18
  21598070.024   113498667.717       -1227.169          47.000  
  21598058.604   113498572.693       -1227.281          49.000  
  21598120.009   113498840.272       -1227.326          49.000  
  21598131.688   113498780.588       -1227.229          49.000  
  21598041.835   113498602.852       -1227.201          49.000  
  21477335.598   112864185.583       -1227.238          40.000  
  21671043.909   113882136.144       -1227.229          40.000  
  21521584.911   113096679.081       -1227.220          35.000  
  21598182.189   113499086.145       -1227.189          47.000  
  21695952.080   114013005.085       -1227.236          40.000  
  21818740.526   114658261.993       -1227.222          38.000  
  21537702.818   113181417.643       -1227.263          41.000  
  21598095.799   113498820.060       -1227.287          49.000  
  21506934.302   113019722.580       -1227.197          39.000  
  21632651.173   113680373.403       -1227.386          35.000  
  21749584.606   114294859.234       -1227.244          38.000  
  21611843.854   113571062.044       -1227.283          36.000  
  21484661.636   112902663.576       -1227.291          36.000  
  21561441.005   113306140.083       -1227.329          37.000  
  21598060.227   113498614.048       -1227.269          49.000  
  21461512.731   112781028.297       -1227.158          36.000  
  21730237.677   114193152.675       -1227.249          38.000  
  21560564.289   113301532.737       -1227.263          37.000  
  21623275.319   113631116.627       -1227.256          41.000  
  21718221.554   114130026.559       -1227.163          38.000  
  21761887.906   114359586.654       -1227.272          37.000  
  21463851.451   112793310.067       -1227.158          37.000  
  21651111.134   113777354.533       -1227.266          38.000  
  21498726.633   112976608.649       -1227.305          36.000  
 25  8 12  8 47 34.2000000  0 29G 5G 1G 2G 3G 4G31G16G19G 7G 9G11G15
                                G 6G28G21G17G32G26G10G 8G23G13G14G27
                                G30G20G29G24G18
  21598116.648   113498913.159       -1227.251          47.000  
  21598105.300   113498818.124       -1227.150          49.000  
  21598166.735   113499085.705       -1227.188          49.000  
  21598178.395   113499026.021       -1227.116          49.000  
  21598089.165   113498848.288       -1227.220          49.000  
  21477382.267   112864431.019       -1227.162          40.000  
  21671090.605   113882381.584       -1227.107          40.000  
  21521631.586   113096924.515       -1227.205          35.000  
  21598228.870   113499331.587       -1227.139          47.000  
  21695998.789   114013250.523       -1227.167          40.000  
  21818787.211   114658507.428       -1227.095          38.000  
  21537749.503   113181663.076       -1227.081          41.000  
  21598142.521   113499065.488       -1227.184          49.000  
  21506980.964   113019968.015       -1227.166          39.000  
  21632697.866   113680618.828       -1227.228          35.000  
  21749631.308   114295104.666       -1227.077          38.000  
  21611890.500   113571307.477       -1227.175          36.000  
  21484708.365   112902909.010       -1227.123          36.000  
  21561487.660   113306385.518       -1227.119          37.000  
  21598106.934   113498859.484       -1227.176          49.000  
  21461559.435   112781273.728       -1227.069          36.000  
  21730284.379   114193398.111       -1227.047          38.000  
  21560611.023   113301778.165       -1227.214          37.000  
  21623322.035   113631362.062       -1227.156          41.000  
  21718268.246   114130272.003       -1227.273          38.000  
  21761934.577   114359832.089       -1227.182          37.000  
  21463898.114   112793555.513       -1227.250          37.000  
  21651157.867   113777599.962       -1227.189          38.000  
  21498773.351   112976854.087       -1227.159          36.000  
 25  8 12  8 47 34.4000000  0 29G 5G 1G 2G 3G 4G31G16G19G 7G 9G11G15
                                G 6G28G21G17G32G26G10G 8G23G13G14G27
                                G30G20G29G24G18
  21598163.348   113499158.565       -1227.061          47.000  
  21598151.957   113499063.548       -1227.141          49.000  
  21598213.470   113499331.134       -1227.219          49.000  
  21598225.104   113499271.446       -1227.159          49.000  
  21598136.416   113499093.704       -1227.070          49.000  
  21477428.988   112864676.440       -1227.101          40.000  
  21671137.276   113882627.006       -1227.100          40.000  
  21521678.261   113097169.929       -1227.122          34.000  
  21598275.566   113499577.001       -1227.104          47.000  
  21696045.452   114013495.939       -1227.049          40.000  
  21818833.934   114658752.848       -1226.996          38.000  
  21537796.172   113181908.503       -1227.153          41.000  
  21598189.239   113499310.908       -1227.110          49.000  
  21507027.650   113020213.440       -1227.188          39.000  
  21632744.555   113680864.245       -1227.154          35.000  
  21749678.011   114295350.092       -1227.140          38.000  
  21611937.185   113571552.899       -1227.168          36.000  
  21484755.047   112903154.428       -1227.089          36.000  
  21561534.347   113306630.940       -1227.191          37.000  
  21598153.639   113499104.908       -1227.119          49.000  
  21461606.133   112781519.156       -1227.155          36.000  
  21730331.086   114193643.534       -1227.101          38.000  
  21560657.745   113302023.589       -1227.219          37.000  
  21623368.739   113631607.483       -1227.119          41.000  
  21718314.947   114130517.415       -1227.085          38.000  
  21761981.304   114360077.509       -1227.061          37.000  
  21463944.845   112793800.924       -1227.131          37.000  
  21651204.573   113777845.382       -1227.113          38.000  
  21498820.078   112977099.505       -1227.047          36.000  
 25  8 12  8 47 34.6000000  0 29G 5G 1G 2G 3G 4G31G16G19G 7G 9G11G15
                                G 6G28G21G17G32G26G10G 8G23G13G14G27
                                G30G20G29G24G18
  21598210.007   113499403.979       -1227.197          47.000  
  21598198.654   113499308.971       -1227.220          49.000  
  21598260.201   113499576.555       -1227.157          49.000  
  21598271.807   113499516.861       -1227.223          49.000  
  21598183.415   113499339.117       -1227.099          48.000  
  21477475.681   112864921.859       -1227.085          40.000  
  21671183.984   113882872.422       -1227.190          40.000  
  21521724.944   113097415.344       -1227.256          35.000  
  21598322.206   113499822.432       -1227.082          47.000  
  21696092.193   114013741.358       -1227.143          40.000  
  21818880.600   114658998.271       -1227.207          38.000  
  21537842.850   113182153.920       -1227.136          41.000  
  21598235.924   113499556.326       -1227.204          49.000  
  21507074.273   113020458.853       -1227.126          39.000  
  21632791.280   113681109.665       -1227.152          35.000  
  21749724.718   114295595.504       -1227.047          38.000  
  21611983.828   113571798.324       -1227.044          36.000  
  21484801.782   112903399.839       -1227.242          36.000  
  21561580.984   113306876.351       -1227.168          36.000  
  21598200.344   113499350.325       -1227.125          49.000  
  21461652.882   112781764.569       -1227.113          36.000  
  21730377.784   114193888.953       -1227.154          39.000  
  21560704.537   113302269.014       -1227.118          37.000  
  21623415.460   113631852.898       -1227.133          41.000  
  21718361.680   114130762.834       -1227.110          38.000  
  21762028.004   114360322.937       -1227.276          37.000  
  21463991.501   112794046.344       -1227.141          37.000  
  21651251.289   113778090.803       -1227.103          38.000  
  21498866.782   112977344.929       -1227.239          36.000  
 25  8 12  8 47 34.8000000  0 29G 5G 1G 2G 3G 4G31G16G19G 7G 9G11G15
                                G 6G28G21G17G32G26G10G 8G23G13G14G27
                                G30G20G29G24G18
  21598256.737   113499649.390       -1226.956          47.000  
  21598245.353   113499554.378       -1226.978          49.000  
  21598306.899   113499821.966       -1227.010          49.000  
  21598318.509   113499762.264       -1226.913          49.000  
  21598230.407   113499584.528       -1226.957          48.000  
  21477522.403   112865167.266       -1226.892          40.000  
  21671230.652   113883117.837       -1227.123          40.000  
  21521771.649   113097660.755       -1227.051          35.000  
  21598368.901   113500067.833       -1227.020          47.000  
  21696138.857   114013986.769       -1226.976          40.000  
  21818927.312   114659243.679       -1226.957          38.000  
  21537889.566   113182399.325       -1226.953          41.000  
  21598282.620   113499801.737       -1227.029          49.000  
  21507121.010   113020704.262       -1226.882          39.000  
  21632838.020   113681355.073       -1226.817          35.000  
  21749771.406   114295840.920       -1226.940          38.000  
  21612030.458   113572043.728       -1226.938          36.000  
  21484848.537   112903645.256       -1227.030          36.000  
  21561627.663   113307121.766       -1227.070          36.000  
  21598247.071   113499595.739       -1227.107          49.000  
  21461699.593   112782009.981       -1226.898          36.000  
  21730424.472   114194134.364       -1227.063          39.000  
  21560751.305   113302514.416       -1226.766          37.000  
  21623462.168   113632098.309       -1226.985          41.000  
  21718408.384   114131008.247       -1227.058          38.000  
  21762074.714   114360568.337       -1226.987          37.000  
  21464038.262   112794291.752       -1227.041          37.000  
  21651297.999   113778336.205       -1226.841          38.000  
  21498913.445   112977590.332       -1226.956          36.000  
 25  8 12  8 47 35.0000000  0 29G 5G 1G 2G 3G 4G31G16G19G 7G 9G11G15
                                G 6G28G21G17G32G26G10G 8G23G13G14G27
                                G30G20G29G24G18
  21598303.509   113499894.820       -1227.347          47.000  
  21598292.045   113499799.802       -1227.302          49.000  
  21598353.599   113500067.391       -1227.269          49.000  
  21598365.221   113500007.695       -1227.353          49.000  
  21598277.606   113499829.951       -1227.335          48.000  
  21477569.118   112865412.696       -1227.369          40.000  
  21671277.353   113883363.263       -1227.267          40.000  
  21521818.357   113097906.191       -1227.319          35.000  
  21598415.651   113500313.266       -1227.344          47.000  
  21696185.597   114014232.199       -1227.380          40.000  
  21818974.023   114659489.104       -1227.470          38.000  
  21537936.280   113182644.754       -1227.330          41.000  
  21598329.326   113500047.159       -1227.283          49.000  
  21507167.667   113020949.689       -1227.395          39.000  
  21632884.809   113681600.511       -1227.292          35.000  
  21749818.083   114296086.347       -1227.387          38.000  
  21612077.141   113572289.152       -1227.368          36.000  
  21484895.292   112903890.688       -1227.307          36.000  
  21561674.377   113307367.196       -1227.329          37.000  
  21598293.772   113499841.165       -1227.254          49.000  
  21461746.273   112782255.404       -1227.335          36.000  
  21730471.175   114194379.787       -1227.329          38.000  
  21560797.982   113302759.848       -1227.325          37.000  
  21623508.894   113632343.740       -1227.314          41.000  
  21718455.089   114131253.676       -1227.248          38.000  
  21762121.456   114360813.783       -1227.306          37.000  
  21464084.939   112794537.182       -1227.268          38.000  
  21651344.676   113778581.633       -1227.361          38.000  
  21498960.168   112977835.762       -1227.458          36.000  
 25  8 12  8 47 35.2000000  0 29G 5G 1G 2G 3G 4G31G16G19G 7G 9G11G15
                                G 6G28G21G17G32G26G10G 8G23G13G14G27
                                G30G20G29G24G18
  21598350.208   113500140.220       -1227.056          48.000  
  21598338.731   113500045.210       -1227.012          49.000  
  21598400.310   113500312.796       -1227.018          49.000  
  21598411.919   113500253.095       -1227.000          49.000  
  21598324.806   113500075.353       -1226.996          48.000  
  21477615.838   112865658.101       -1227.107          41.000  
  21671324.019   113883608.669       -1227.013          40.000  
  21521865.061   113098151.598       -1227.158          34.000  
  21598462.354   113500558.670       -1227.073          47.000  
  21696232.283   114014477.597       -1226.982          40.000  
  21819020.725   114659734.506       -1226.967          38.000  
  21537982.983   113182890.157       -1227.014          41.000  
  21598376.034   113500292.564       -1227.018          49.000  
  21507214.397   113021195.089       -1227.025          39.000  
  21632931.443   113681845.915       -1227.059          35.000  
  21749864.750   114296331.748       -1227.020          38.000  
  21612123.887   113572534.562       -1227.111          36.000  
  21484941.981   112904136.090       -1227.068          36.000  
  21561721.114   113307612.599       -1227.056          37.000  
  21598340.482   113500086.569       -1227.065          49.000  
  21461793.012   112782500.806       -1227.029          36.000  
  21730517.887   114194625.190       -1227.029          38.000  
  21560844.636   113303005.255       -1227.045          37.000  
  21623555.575   113632589.142       -1227.028          41.000  
  21718501.750   114131499.081       -1227.047          38.000  
  21762168.160   114361059.182       -1227.002          37.000  
  21464131.682   112794782.591       -1227.079          38.000  
  21651391.385   113778827.033       -1227.067          38.000  
  21499006.888   112978081.162       -1226.886          35.000  
 25  8 12  8 47 35.4000000  0 29G 5G 1G 2G 3G 4G31G16G19G 7G 9G11G15
                                G 6G28G21G17G32G26G10G 8G23G13G14G27
                                G30G20G29G24G18
  21598396.852   113500385.614       -1227.085          48.000  
  21598385.399   113500290.608       -1227.077          49.000  
  21598447.037   113500558.194       -1227.050          49.000  
  21598458.615   113500498.494       -1227.097          49.000  
  21598371.849   113500320.751       -1227.077          48.000  
  21477662.504   112865903.492       -1227.048          41.000  
  21671370.711   113883854.068       -1227.083          40.000  
  21521911.794   113098396.994       -1227.196          34.000  
  21598509.050   113500804.069       -1227.078          47.000  
  21696279.035   114014722.999       -1227.097          40.000  
  21819067.406   114659979.905       -1227.099          38.000  
  21538029.686   113183135.556       -1227.111          41.000  
  21598422.775   113500537.962       -1227.056          49.000  
  21507261.067   113021440.486       -1227.052          39.000  
  21632978.103   113682091.312       -1227.072          36.000  
  21749911.454   114296577.144       -1227.025          38.000  
  21612170.578   113572779.949       -1226.986          35.000  
  21484988.676   112904381.484       -1227.030          36.000  
  21561767.838   113307857.997       -1227.120          37.000  
  21598387.186   113500331.963       -1227.071          49.000  
  21461839.711   112782746.203       -1227.032          36.000  
  21730564.550   114194870.591       -1227.103          38.000  
  21560891.315   113303250.652       -1227.080          37.000  
  21623602.293   113632834.539       -1227.098          41.000  
  21718548.435   114131744.484       -1227.161          38.000  
  21762214.866   114361304.584       -1227.070          37.000  
  21464178.328   112795027.990       -1227.157          38.000  
  21651438.014   113779072.428       -1227.059          38.000  
  21499053.568   112978326.568       -1227.137          35.000  
 25  8 12  8 47 35.6000000  0 29G 5G 1G 2G 3G 4G31G16G19G 7G 9G11G15
                                G 6G28G21G17G32G26G10G 8G23G13G14G27
                                G30G20G29G24G18
  21598443.546   113500630.998       -1227.031          48.000  
  21598432.060   113500535.991       -1227.023          49.000  
  21598493.754   113500803.577       -1227.022          49.000  
  21598505.315   113500743.879       -1227.088          49.000  
  21598419.037   113500566.133       -1227.058          49.000  
  21477709.228   112866148.880       -1227.051          41.000  
  21671417.386   113884099.451       -1227.070          40.000  
  21521958.510   113098642.376       -1227.029          34.000  
  21598555.772   113501049.451       -1227.019          47.000  
  21696325.669   114014968.383       -1227.069          40.000  
  21819114.135   114660225.289       -1227.036          38.000  
  21538076.389   113183380.939       -1227.026          41.000  
  21598469.461   113500783.346       -1227.022          49.000  
  21507307.793   113021685.873       -1227.051          39.000  
  21633024.778   113682336.691       -1227.020          36.000  
  21749958.132   114296822.529       -1227.043          38.000  
  21612217.254   113573025.338       -1227.032          35.000  
  21485035.373   112904626.873       -1227.151          36.000  
  21561814.555   113308103.380       -1227.012          37.000  
  21598433.893   113500577.351       -1227.068          49.000  
  21461886.399   112782991.586       -1226.984          36.000  
  21730611.245   114195115.975       -1227.070          38.000  
  21560937.967   113303496.034       -1226.991          37.000  
  21623648.994   113633079.927       -1227.089          41.000  
  21718595.121   114131989.864       -1227.051          38.000  
  21762261.547   114361549.972       -1227.099          37.000  
  21464225.088   112795273.368       -1226.995          38.000  
  21651484.687   113779317.812       -1227.072          38.000  
  21499100.252   112978571.952       -1227.039          35.000  
 25  8 12  8 47 35.8000000  0 29G 5G 1G 2G 3G 4G31G16G19G 7G 9G11G15
                                G 6G28G21G17G32G26G10G 8G23G13G14G27
                                G30G20G29G24G18
  21598490.163   113500876.380       -1227.066          48.000  
  21598478.715   113500781.366       -1226.915          49.000  
  21598540.443   113501048.954       -1226.914          49.000  
  21598552.007   113500989.257       -1226.941          49.000  
  21598466.085   113500811.509       -1226.967          48.000  
  21477755.911   112866394.256       -1226.875          41.000  
  21671464.114   113884344.830       -1227.192          40.000  
  21522005.229   113098887.756       -1227.278          34.000  
  21598602.484   113501294.825       -1226.903          47.000  
  21696372.412   114015213.759       -1226.997          40.000  
  21819160.837   114660470.671       -1226.938          38.000  
  21538123.085   113183626.317       -1226.956          41.000  
  21598516.136   113501028.724       -1226.960          49.000  
  21507354.474   113021931.247       -1226.796          39.000  
  21633071.485   113682582.071       -1226.991          36.000  
  21750004.863   114297067.910       -1227.024          38.000  
  21612263.882   113573270.708       -1226.685          35.000  
  21485082.098   112904872.245       -1227.090          36.000  
  21561861.211   113308348.762       -1227.134          37.000  
  21598480.592   113500822.727       -1227.039          49.000  
  21461933.149   112783236.964       -1226.809          36.000  
  21730657.904   114195361.352       -1226.921          38.000  
  21560984.696   113303741.407       -1226.708          37.000  
  21623695.664   113633325.307       -1227.194          41.000  
  21718641.789   114132235.244       -1227.159          38.000  
  21762308.232   114361795.343       -1227.310          37.000  
  21464271.742   112795518.752       -1227.107          38.000  
  21651531.369   113779563.190       -1226.649          38.000  
  21499146.937   112978817.325       -1227.014          35.000  
 25  8 12  8 47 36.0000000  0 29G 5G 1G 2G 3G 4G31G16G19G 7G 9G11G15
                                G 6G28G21G17G32G26G10G 8G23G13G14G27
                                G30G20G29G24G18
  21598536.796   113501121.763       -1226.852          48.000  
  21598525.381   113501026.745       -1226.893          49.000  
  21598587.193   113501294.332       -1226.883          49.000  
  21598598.701   113501234.639       -1226.886          49.000  
  21598513.170   113501056.888       -1226.866          48.000  
  21477802.609   112866639.653       -1226.970          41.000  
  21671510.783   113884590.195       -1226.694          40.000  
  21522051.897   113099133.119       -1226.625          35.000  
  21598649.186   113501540.207       -1226.819          47.000  
  21696419.074   114015459.147       -1226.875          40.000  
  21819207.563   114660716.042       -1227.003          38.000  
  21538169.815   113183871.699       -1226.892          41.000  
  21598562.806   113501274.105       -1226.900          49.000  
  21507401.224   113022176.645       -1226.976          39.000  
  21633118.173   113682827.429       -1226.787          36.000  
  21750051.584   114297313.293       -1226.919          38.000  
  21612310.612   113573516.102       -1226.813          35.000  
  21485128.816   112905117.619       -1226.737          36.000  
  21561907.934   113308594.143       -1226.780          37.000  
  21598527.264   113501068.108       -1226.861          49.000  
  21461979.831   112783482.353       -1227.020          36.000  
  21730704.601   114195606.749       -1226.934          38.000  
  21561031.396   113303986.766       -1226.863          37.000  
  21623742.353   113633570.676       -1226.726          41.000  
  21718688.482   114132480.608       -1226.729          38.000  
  21762354.925   114362040.695       -1226.600          37.000  
  21464318.454   112795764.123       -1226.738          38.000  
  21651578.036   113779808.571       -1227.014          38.000  
  21499193.623   112979062.711       -1226.895          36.000  
 25  8 12  8 47 36.2000000  0 29G 5G 1G 2G 3G 4G31G16G19G 7G 9G11G15
                                G 6G28G21G17G32G26G10G 8G23G13G14G27
                                G30G20G29G24G18
  21598583.479   113501367.153       -1226.954          48.000  
  21598572.066   113501272.121       -1226.888          49.000  
  21598633.871   113501539.711       -1226.946          49.000  
  21598645.399   113501480.017       -1226.888          49.000  
  21598560.294   113501302.268       -1226.873          48.000  
  21477849.310   112866885.026       -1226.970          40.000  
  21671557.512   113884835.582       -1226.866          40.000  
  21522098.631   113099378.518       -1226.941          35.000  
  21598695.900   113501785.589       -1226.938          47.000  
  21696465.756   114015704.528       -1226.958          40.000  
  21819254.282   114660961.423       -1227.098          38.000  
  21538216.484   113184117.078       -1226.920          41.000  
  21598609.506   113501519.484       -1226.934          49.000  
  21507447.873   113022422.019       -1226.954          39.000  
  21633164.875   113683072.814       -1226.769          36.000  
  21750098.309   114297558.670       -1226.934          38.000  
  21612357.305   113573761.476       -1226.906          35.000  
  21485175.520   112905363.013       -1226.935          36.000  
  21561954.662   113308839.527       -1226.937          37.000  
  21598573.956   113501313.490       -1226.928          49.000  
  21462026.504   112783727.724       -1226.976          36.000  
  21730751.311   114195852.126       -1227.068          38.000  
  21561078.080   113304232.144       -1226.854          37.000  
  21623789.070   113633816.065       -1226.885          41.000  
  21718735.155   114132726.001       -1226.932          38.000  
  21762401.642   114362286.092       -1226.881          37.000  
  21464365.132   112796009.511       -1226.870          38.000  
  21651624.724   113780053.945       -1226.988          38.000  
  21499240.305   112979308.084       -1226.923          36.000  
 25  8 12  8 47 36.4000000  0 29G 5G 1G 2G 3G 4G31G16G19G 7G 9G11G15
                                G 6G28G21G17G32G26G10G 8G23G13G14G27
                                G30G20G29G24G18
  21598630.189   113501612.536       -1226.879          48.000  
  21598618.726   113501517.502       -1226.815          49.000  
  21598680.586   113501785.094       -1226.888          49.000  
  21598692.101   113501725.398       -1226.817          49.000  
  21598607.303   113501547.652       -1226.854          49.000  
  21477896.033   112867130.406       -1226.836          40.000  
  21671604.168   113885080.967       -1226.845          40.000  
  21522145.347   113099623.901       -1226.790          35.000  
  21598742.595   113502030.972       -1226.793          47.000  
  21696512.413   114015949.909       -1226.787          40.000  
  21819300.939   114661206.792       -1226.871          37.000  
  21538263.161   113184362.456       -1226.797          41.000  
  21598656.229   113501764.864       -1226.855          49.000  
  21507494.568   113022667.399       -1226.848          39.000  
  21633211.559   113683318.216       -1226.955          36.000  
  21750145.042   114297804.054       -1226.866          38.000  
  21612403.972   113574006.854       -1226.796          35.000  
  21485222.236   112905608.396       -1226.863          36.000  
  21562001.381   113309084.912       -1226.843          37.000  
  21598620.644   113501558.870       -1226.822          49.000  
  21462073.214   112783973.099       -1226.744          36.000  
  21730797.983   114196097.504       -1226.829          38.000  
  21561124.790   113304477.531       -1226.804          37.000  
  21623835.702   113634061.448       -1226.804          41.000  
  21718781.854   114132971.381       -1226.834          38.000  
  21762448.370   114362531.478       -1226.882          37.000  
  21464411.856   112796254.892       -1226.764          38.000  
  21651671.398   113780299.323       -1226.823          38.000  
  21499287.006   112979553.467       -1226.853          36.000  
 25  8 12  8 47 36.6000000  0 29G 5G 1G 2G 3G 4G31G16G19G 7G 9G11G15
                                G 6G28G21G17G32G26G10G 8G23G13G14G27
                                G30G20G29G24G18
  21598676.876   113501857.924       -1226.983          48.000  
  21598665.404   113501762.892       -1226.984          49.000  
  21598727.281   113502030.480       -1227.018          49.000  
  21598738.809   113501970.786       -1227.010          49.000  
  21598653.722   113501793.038       -1226.958          49.000  
  21477942.730   112867375.795       -1226.997          40.000  
  21671650.894   113885326.346       -1226.845          40.000  
  21522192.034   113099869.284       -1226.919          35.000  
  21598789.264   113502276.360       -1226.958          47.000  
  21696559.148   114016195.299       -1227.009          40.000  
  21819347.629   114661452.190       -1227.161          37.000  
  21538309.876   113184607.846       -1226.992          41.000  
  21598702.912   113502010.254       -1227.004          49.000  
  21507541.258   113022912.785       -1226.956          39.000  
  21633258.260   113683563.584       -1226.811          36.000  
  21750191.787   114298049.439       -1226.910          38.000  
  21612450.660   113574252.252       -1227.107          35.000  
  21485268.927   112905853.780       -1226.820          36.000  
  21562048.106   113309330.293       -1226.938          37.000  
  21598667.331   113501804.255       -1226.919          49.000  
  21462119.947   112784218.501       -1227.107          36.000  
  21730844.681   114196342.898       -1227.155          38.000  
  21561171.477   113304722.918       -1226.992          37.000  
  21623882.423   113634306.831       -1226.925          41.000  
  21718828.581   114133216.767       -1226.896          38.000  
  21762495.022   114362776.853       -1226.775          37.000  
  21464458.544   112796500.281       -1226.997          38.000  
  21651718.102   113780544.717       -1227.116          38.000  
  21499333.703   112979798.854       -1227.004          36.000  
 25  8 12  8 47 36.8000000  0 29G 5G 1G 2G 3G 4G31G16G19G 7G 9G11G15
                                G 6G28G21G17G32G26G10G 8G23G13G14G27
                                G30G20G29G24G18
  21598723.528   113502103.304       -1226.892          48.000  
  21598712.063   113502008.278       -1226.978          49.000  
  21598774.017   113502275.860       -1226.899          49.000  
  21598785.505   113502216.168       -1226.952          49.000  
  21598700.187   113502038.422       -1226.912          49.000  
  21477989.417   112867621.179       -1226.965          40.000  
  21671697.586   113885571.746       -1227.167          40.000  
  21522238.779   113100114.679       -1227.103          35.000  
  21598835.951   113502521.738       -1226.833          47.000  
  21696605.838   114016440.678       -1226.939          40.000  
  21819394.326   114661697.572       -1227.067          37.000  
  21538356.599   113184853.224       -1226.814          41.000  
  21598749.603   113502255.635       -1226.906          49.000  
  21507587.982   113023158.159       -1226.735          39.000  
  21633305.001   113683808.958       -1226.580          36.000  
  21750238.508   114298294.815       -1226.761          38.000  
  21612497.386   113574497.628       -1226.888          35.000  
  21485315.597   112906099.165       -1226.926          36.000  
  21562094.860   113309575.680       -1226.971          37.000  
  21598714.058   113502049.645       -1227.016          49.000  
  21462166.616   112784463.872       -1226.892          36.000  
  21730891.392   114196588.278       -1227.060          38.000  
  21561218.182   113304968.301       -1226.904          37.000  
  21623929.096   113634552.219       -1226.971          41.000  
  21718875.234   114133462.150       -1226.885          38.000  
  21762541.718   114363022.246       -1226.994          37.000  
  21464505.293   112796745.676       -1227.183          38.000  
  21651764.807   113780790.086       -1226.776          38.000  
  21499380.367   112980044.243       -1227.024          36.000  
 25  8 12  8 47 37.0000000  0 29G 5G 1G 2G 3G 4G31G16G19G 7G 9G11G15
                                G 6G28G21G17G32G26G10G 8G23G13G14G27
                                G30G20G29G24G18
  21598770.232   113502348.694       -1227.058          48.000  
  21598758.744   113502253.667       -1227.034          49.000  
  21598820.750   113502521.251       -1226.999          49.000  
  21598832.217   113502461.559       -1227.013          49.000  
  21598746.576   113502283.812       -1227.059          49.000  
  21478036.124   112867866.573       -1227.026          40.000  
  21671744.300   113885817.130       -1226.991          40.000  
  21522285.464   113100360.060       -1226.940          35.000  
  21598882.648   113502767.127       -1227.045          47.000  
  21696652.521   114016686.068       -1227.065          40.000  
  21819441.050   114661942.977       -1227.112          37.000  
  21538403.285   113185098.614       -1227.032          41.000  
  21598796.291   113502501.025       -1227.001          49.000  
  21507634.669   113023403.553       -1227.112          39.000  
  21633351.717   113684054.342       -1227.072          36.000  
  21750285.233   114298540.200       -1227.138          38.000  
  21612544.053   113574743.027       -1227.089          35.000  
  21485362.332   112906344.551       -1227.108          36.000  
  21562141.529   113309821.065       -1226.990          37.000  
  21598760.763   113502295.031       -1227.036          49.000  
  21462213.300   112784709.271       -1227.014          36.000  
  21730938.080   114196833.673       -1227.068          38.000  
  21561264.923   113305213.698       -1227.090          37.000  
  21623975.806   113634797.606       -1227.013          41.000  
  21718921.919   114133707.533       -1227.051          38.000  
  21762588.438   114363267.622       -1227.090          37.000  
  21464551.981   112796991.058       -1226.923          38.000  
  21651811.506   113781035.487       -1227.020          38.000  
  21499427.044   112980289.636       -1227.018          36.000  
 25  8 12  8 47 37.2000000  0 29G 5G 1G 2G 3G 4G31G16G19G 7G 9G11G15
                                G 6G28G21G17G32G26G10G 8G23G13G14G27
                                G30G20G29G24G18
  21598816.881   113502594.094       -1227.050          48.000  
  21598805.434   113502499.064       -1227.025          49.000  
  21598867.473   113502766.649       -1227.011          49.000  
  21598878.925   113502706.961       -1227.042          49.000  
  21598792.759   113502529.208       -1227.005          49.000  
  21478082.801   112868111.970       -1227.046          40.000  
  21671790.950   113886062.535       -1227.049          40.000  
  21522332.193   113100605.464       -1226.898          35.000  
  21598929.369   113503012.527       -1227.050          47.000  
  21696699.220   114016931.466       -1227.037          40.000  
  21819487.769   114662188.373       -1227.130          37.000  
  21538449.995   113185344.012       -1227.000          41.000  
  21598842.984   113502746.425       -1227.025          49.000  
  21507681.345   113023648.951       -1227.032          39.000  
  21633398.394   113684299.738       -1226.925          36.000  
  21750331.959   114298785.596       -1227.047          38.000  
  21612590.742   113574988.421       -1227.079          35.000  
  21485409.000   112906589.949       -1226.979          36.000  
  21562188.241   113310066.475       -1227.114          37.000  
  21598807.464   113502540.433       -1227.045          49.000  
  21462259.960   112784954.669       -1227.061          36.000  
  21730984.761   114197079.071       -1227.078          38.000  
  21561311.609   113305459.089       -1227.061          37.000  
  21624022.477   113635043.005       -1226.971          41.000  
  21718968.656   114133952.934       -1227.004          38.000  
  21762635.161   114363513.020       -1226.852          37.000  
  21464598.740   112797236.464       -1227.017          38.000  
  21651858.197   113781280.882       -1227.062          38.000  
  21499473.754   112980535.033       -1226.954          36.000  
 25  8 12  8 47 37.4000000  0 29G 5G 1G 2G 3G 4G31G16G19G 7G 9G11G15
                                G 6G28G21G17G32G26G10G 8G23G13G14G27
                                G30G20G29G24G18
  21598863.598   113502839.481       -1227.007          48.000  
  21598852.115   113502744.456       -1227.011          49.000  
  21598914.168   113503012.038       -1226.974          49.000  
  21598925.635   113502952.352       -1227.026          49.000  
  21598838.950   113502774.599       -1227.021          49.000  
  21478129.508   112868357.362       -1227.036          40.000  
  21671837.675   113886307.926       -1227.086          40.000  
  21522378.945   113100850.866       -1227.172          35.000  
  21598976.071   113503257.917       -1227.027          47.000  
  21696745.951   114017176.859       -1227.080          40.000  
  21819534.440   114662433.768       -1227.170          37.000  
  21538496.686   113185589.405       -1227.026          41.000  
  21598889.704   113502991.814       -1226.993          49.000  
  21507728.023   113023894.341       -1227.021          39.000  
  21633445.144   113684545.133       -1227.045          35.000  
  21750378.675   114299030.986       -1227.027          39.000  
  21612637.416   113575233.809       -1227.073          35.000  
  21485455.745   112906835.340       -1226.995          37.000  
  21562234.950   113310311.862       -1227.013          37.000  
  21598854.150   113502785.825       -1227.038          49.000  
  21462306.647   112785200.054       -1226.808          36.000  
  21731031.505   114197324.463       -1227.039          38.000  
  21561358.308   113305704.476       -1226.937          37.000  
  21624069.195   113635288.398       -1227.038          41.000  
  21719015.332   114134198.326       -1227.091          38.000  
  21762681.841   114363758.419       -1227.156          37.000  
  21464645.419   112797481.853       -1227.042          38.000  
  21651904.883   113781526.270       -1227.002          38.000  
  21499520.456   112980780.429       -1227.025          36.000  
 25  8 12  8 47 37.6000000  0 29G 5G 1G 2G 3G 4G31G16G19G 7G 9G11G15
                                G 6G28G21G17G32G26G10G 8G23G13G14G27
                                G30G20G29G24G18
  21598910.335   113503084.864       -1227.042          48.000  
  21598898.795   113502989.841       -1227.024          49.000  
  21598960.849   113503257.422       -1226.990          49.000  
  21598972.338   113503197.732       -1227.042          49.000  
  21598885.214   113503019.984       -1227.109          49.000  
  21478176.203   112868602.743       -1227.031          40.000  
  21671884.360   113886553.314       -1227.177          40.000  
  21522425.642   113101096.247       -1227.081          35.000  
  21599022.787   113503503.299       -1227.065          47.000  
  21696792.668   114017422.237       -1227.010          40.000  
  21819581.116   114662679.140       -1227.100          37.000  
  21538543.415   113185834.785       -1227.041          41.000  
  21598936.428   113503237.195       -1226.970          49.000  
  21507774.707   113024139.720       -1227.007          39.000  
  21633491.845   113684790.521       -1227.033          35.000  
  21750425.354   114299276.370       -1227.084          39.000  
  21612684.099   113575479.187       -1227.034          35.000  
  21485502.433   112907080.724       -1227.103          37.000  
  21562281.683   113310557.247       -1227.108          37.000  
  21598900.852   113503031.206       -1226.995          49.000  
  21462353.371   112785445.440       -1226.982          36.000  
  21731078.228   114197569.838       -1227.008          38.000  
  21561404.994   113305949.865       -1226.991          37.000  
  21624115.893   113635533.781       -1227.074          41.000  
  21719062.037   114134443.712       -1227.063          38.000  
  21762728.557   114364003.808       -1227.162          37.000  
  21464692.158   112797727.241       -1227.067          38.000  
  21651951.569   113781771.646       -1226.963          38.000  
  21499567.158   112981025.809       -1227.080          36.000  
 25  8 12  8 47 37.8000000  0 29G 5G 1G 2G 3G 4G31G16G19G 7G 9G11G15
                                G 6G28G21G17G32G26G10G 8G23G13G14G27
                                G30G20G29G24G18
  21598957.041   113503330.249       -1226.933          48.000  
  21598945.482   113503235.229       -1226.925          49.000  
  21599007.559   113503502.808       -1226.926          49.000  
  21599019.032   113503443.122       -1226.931          49.000  
  21598931.559   113503265.365       -1226.843          49.000  
  21478222.873   112868848.119       -1226.909          40.000  
  21671931.043   113886798.694       -1227.073          40.000  
  21522472.377   113101341.644       -1227.373          35.000  
  21599069.467   113503748.691       -1226.869          47.000  
  21696839.371   114017667.626       -1226.913          40.000  
  21819627.820   114662924.525       -1226.750          37.000  
  21538590.121   113186080.185       -1226.895          41.000  
  21598983.122   113503482.591       -1226.989          49.000  
  21507821.376   113024385.103       -1226.821          39.000  
  21633538.544   113685035.965       -1227.139          35.000  
  21750472.054   114299521.756       -1226.805          38.000  
  21612730.797   113575724.589       -1226.656          35.000  
  21485549.141   112907326.113       -1227.106          37.000  
  21562328.351   113310802.631       -1227.047          37.000  
  21598947.550   113503276.593       -1227.045          49.000  
  21462400.066   112785690.817       -1226.652          36.000  
  21731124.956   114197815.198       -1226.728          38.000  
  21561451.731   113306195.276       -1226.938          37.000  
  21624162.564   113635779.165       -1226.906          41.000  
  21719108.715   114134689.108       -1227.029          38.000  
  21762775.259   114364249.214       -1227.094          37.000  
  21464738.835   112797972.625       -1227.012          37.000  
  21651998.252   113782017.063       -1226.792          38.000  
  21499613.807   112981271.175       -1226.652          36.000  
 25  8 12  8 47 38.0000000  0 29G 5G 1G 2G 3G 4G31G16G19G 7G 9G11G15
                                G 6G28G21G17G32G26G10G 8G23G13G14G27
                                G30G20G29G24G18
  21599003.685   113503575.628       -1226.894          48.000  
  21598992.118   113503480.617       -1226.930          49.000  
  21599054.278   113503748.196       -1226.964          49.000  
  21599065.731   113503688.507       -1226.971          49.000  
  21598977.848   113503510.752       -1226.942          49.000  
  21478269.575   112869093.505       -1226.857          40.000  
  21671977.717   113887044.082       -1226.971          40.000  
  21522519.042   113101587.022       -1227.025          35.000  
  21599116.150   113503994.077       -1226.891          47.000  
  21696886.071   114017913.011       -1226.904          40.000  
  21819674.509   114663169.909       -1226.875          37.000  
  21538636.810   113186325.569       -1226.998          41.000  
  21599029.836   113503727.972       -1226.938          49.000  
  21507868.093   113024630.496       -1226.990          39.000  
  21633585.254   113685281.342       -1227.114          35.000  
  21750518.782   114299767.146       -1226.990          38.000  
  21612777.521   113575969.979       -1226.958          35.000  
  21485595.839   112907571.498       -1226.995          37.000  
  21562375.064   113311048.015       -1226.976          37.000  
  21598994.238   113503521.976       -1226.943          49.000  
  21462446.778   112785936.211       -1226.974          36.000  
  21731171.647   114198060.589       -1226.814          38.000  
  21561498.430   113306440.654       -1226.864          37.000  
  21624209.260   113636024.555       -1226.967          41.000  
  21719155.449   114134934.491       -1227.023          38.000  
  21762821.927   114364494.600       -1227.052          37.000  
  21464785.551   112798218.013       -1227.036          37.000  
  21652044.958   113782262.441       -1226.931          38.000  
  21499660.503   112981516.572       -1226.929          36.000  
 25  8 12  8 47 38.2000000  0 29G 5G 1G 2G 3G 4G31G16G19G 7G 9G11G15
                                G 6G28G21G17G32G26G10G 8G23G13G14G27
                                G30G20G29G24G18
  21599050.325   113503821.007       -1226.887          48.000  
  21599038.788   113503725.995       -1226.867          49.000  
  21599101.002   113503993.579       -1226.938          49.000  
  21599112.433   113503933.884       -1226.869          49.000  
  21599023.977   113503756.135       -1226.877          49.000  
  21478316.259   112869338.890       -1226.932          40.000  
  21672024.431   113887289.462       -1226.932          40.000  
  21522565.763   113101832.397       -1226.984          34.000  
  21599162.817   113504239.459       -1226.821          47.000  
  21696932.772   114018158.391       -1226.887          40.000  
  21819721.180   114663415.292       -1226.857          37.000  
  21538683.467   113186570.947       -1226.866          41.000  
  21599076.533   113503973.356       -1226.904          49.000  
  21507914.700   113024875.873       -1226.913          39.000  
  21633631.903   113685526.715       -1226.849          35.000  
  21750565.460   114300012.525       -1226.872          38.000  
  21612824.205   113576215.361       -1226.858          35.000  
  21485642.494   112907816.878       -1226.945          37.000  
  21562421.700   113311293.391       -1226.881          37.000  
  21599040.938   113503767.354       -1226.867          49.000  
  21462493.455   112786181.591       -1226.866          36.000  
  21731218.340   114198305.975       -1226.937          38.000  
  21561545.107   113306686.040       -1226.831          37.000  
  21624255.986   113636269.932       -1226.921          41.000  
  21719202.137   114135179.870       -1226.868          38.000  
  21762868.634   114364739.973       -1226.878          37.000  
  21464832.231   112798463.392       -1226.987          37.000  
  21652091.632   113782507.827       -1226.845          38.000  
  21499707.191   112981761.956       -1226.971          36.000  
 25  8 12  8 47 38.4000000  0 29G 5G 1G 2G 3G 4G31G16G19G 7G 9G11G15
                                G 6G28G21G17G32G26G10G 8G23G13G14G27
                                G30G20G29G24G18
  21599096.998   113504066.392       -1226.996          48.000  
  21599085.413   113503971.375       -1226.934          49.000  
  21599147.716   113504238.960       -1226.939          49.000  
  21599159.129   113504179.268       -1226.972          49.000  
  21599070.129   113504001.518       -1227.049          49.000  
  21478362.942   112869584.268       -1226.899          40.000  
  21672071.099   113887534.835       -1226.914          40.000  
  21522612.448   113102077.763       -1226.871          34.000  
  21599209.535   113504484.844       -1227.022          47.000  
  21696979.501   114018403.774       -1226.929          40.000  
  21819767.882   114663660.678       -1226.883          38.000  
  21538730.146   113186816.334       -1227.070          41.000  
  21599123.219   113504218.733       -1226.906          49.000  
  21507961.396   113025121.256       -1226.990          39.000  
  21633678.557   113685772.092       -1226.993          35.000  
  21750612.135   114300257.911       -1227.064          38.000  
  21612870.946   113576460.744       -1226.913          35.000  
  21485689.156   112908062.252       -1226.981          37.000  
  21562468.382   113311538.771       -1226.970          37.000  
  21599087.629   113504012.735       -1226.910          49.000  
  21462540.155   112786426.979       -1227.025          36.000  
  21731265.042   114198551.360       -1226.960          38.000  
  21561591.813   113306931.422       -1227.012          37.000  
  21624302.658   113636515.310       -1226.934          41.000  
  21719248.849   114135425.248       -1226.919          38.000  
  21762915.342   114364985.353       -1227.013          37.000  
  21464878.955   112798708.768       -1227.021          37.000  
  21652138.325   113782753.218       -1227.033          38.000  
  21499753.914   112982007.338       -1226.984          36.000  
 25  8 12  8 47 38.6000000  0 29G 5G 1G 2G 3G 4G31G16G19G 7G 9G11G15
                                G 6G28G21G17G32G26G10G 8G23G13G14G27
                                G30G20G29G24G18
  21599143.713   113504311.792       -1227.161          48.000  
  21599132.076   113504216.762       -1227.010          49.000  
  21599194.431   113504484.351       -1226.930          49.000  
  21599205.832   113504424.657       -1227.035          49.000  
  21599116.283   113504246.907       -1227.048          49.000  
  21478409.639   112869829.663       -1227.067          40.000  
  21672117.782   113887780.226       -1226.882          40.000  
  21522659.177   113102323.165       -1226.904          34.000  
  21599256.206   113504730.226       -1226.897          47.000  
  21697026.206   114018649.164       -1227.047          40.000  
  21819814.595   114663906.062       -1226.920          38.000  
  21538776.839   113187061.717       -1226.997          41.000  
  21599169.912   113504464.122       -1226.898          49.000  
  21508008.091   113025366.641       -1226.992          39.000  
  21633725.229   113686017.483       -1226.728          35.000  
  21750658.835   114300503.297       -1227.016          38.000  
  21612917.615   113576706.120       -1226.754          35.000  
  21485735.844   112908307.656       -1227.239          37.000  
  21562515.076   113311784.170       -1227.173          37.000  
  21599134.310   113504258.123       -1226.949          49.000  
  21462586.876   112786672.368       -1227.065          36.000  
  21731311.752   114198796.750       -1227.224          38.000  
  21561638.541   113307176.796       -1226.825          36.000  
  21624349.345   113636760.698       -1226.900          41.000  
  21719295.546   114135670.639       -1226.860          38.000  
  21762962.059   114365230.737       -1226.773          37.000  
  21464925.629   112798954.168       -1227.172          37.000  
  21652185.009   113782998.581       -1226.580          38.000  
  21499800.618   112982252.714       -1226.931          36.000  
 25  8 12  8 47 38.8000000  0 29G 5G 1G 2G 3G 4G31G16G19G 7G 9G11G15
                                G 6G28G21G17G32G26G10G 8G23G13G14G27
                                G30G20G29G24G18
  21599190.429   113504557.189       -1226.931          48.000  
  21599178.751   113504462.158       -1226.958          49.000  
  21599241.173   113504729.748       -1226.954          49.000  
  21599252.539   113504670.054       -1226.979          49.000  
  21599162.362   113504492.307       -1226.950          49.000  
  21478456.292   112870075.059       -1226.967          40.000  
  21672164.508   113888025.630       -1227.079          39.000  
  21522705.926   113102568.562       -1227.064          35.000  
  21599302.928   113504975.625       -1227.068          47.000  
  21697072.918   114018894.554       -1226.927          40.000  
  21819861.270   114664151.455       -1226.941          38.000  
  21538823.536   113187307.112       -1226.980          41.000  
  21599216.638   113504709.515       -1226.895          49.000  
  21508054.777   113025612.038       -1226.954          39.000  
  21633771.930   113686262.886       -1227.089          35.000  
  21750705.554   114300748.691       -1226.895          38.000  
  21612964.337   113576951.520       -1227.057          35.000  
  21485782.582   112908553.056       -1226.837          37.000  
  21562561.827   113312029.572       -1226.970          37.000  
  21599181.017   113504503.526       -1227.041          49.000  
  21462633.585   112786917.767       -1226.913          36.000  
  21731358.454   114199042.146       -1226.937          38.000  
  21561685.174   113307422.196       -1227.087          36.000  
  21624396.071   113637006.098       -1226.949          41.000  
  21719342.269   114135916.039       -1227.006          38.000  
  21763008.778   114365476.140       -1227.194          37.000  
  21464972.359   112799199.560       -1226.943          37.000  
  21652231.737   113783243.980       -1227.080          38.000  
  21499847.319   112982498.118       -1226.865          36.000  
 25  8 12  8 47 39.0000000  0 29G 5G 1G 2G 3G 4G31G16G19G 7G 9G11G15
                                G 6G28G21G17G32G26G10G 8G23G13G14G27
                                G30G20G29G24G18
  21599237.183   113504802.593       -1226.990          48.000  
  21599225.433   113504707.571       -1227.186          49.000  
  21599287.886   113504975.156       -1227.130          49.000  
  21599299.244   113504915.459       -1227.050          49.000  
  21599208.485   113504737.713       -1227.115          49.000  
  21478502.988   112870320.470       -1227.174          40.000  
  21672211.225   113888271.025       -1226.979          39.000  
  21522752.660   113102813.950       -1226.876          35.000  
  21599349.619   113505221.029       -1227.120          47.000  
  21697119.651   114019139.966       -1227.148          40.000  
  21819907.947   114664396.867       -1227.219          38.000  
  21538870.216   113187552.519       -1227.123          41.000  
  21599263.356   113504954.926       -1227.162          49.000  
  21508101.451   113025857.448       -1227.129          39.000  
  21633818.632   113686508.270       -1226.930          35.000  
  21750752.255   114300994.108       -1227.212          38.000  
  21613011.024   113577196.928       -1227.216          35.000  
  21485829.275   112908798.448       -1226.788          36.000  
  21562608.528   113312274.974       -1227.050          37.000  
  21599227.708   113504748.925       -1227.018          49.000  
  21462680.231   112787163.182       -1227.212          37.000  
  21731405.169   114199287.559       -1227.147          38.000  
  21561731.879   113307667.604       -1227.285          36.000  
  21624442.784   113637251.502       -1227.038          41.000  
  21719388.935   114136161.431       -1226.922          38.000  
  21763055.464   114365721.531       -1227.028          37.000  
  21465019.024   112799444.960       -1226.965          37.000  
  21652278.433   113783489.389       -1227.212          38.000  
  21499894.007   112982743.535       -1227.175          36.000  
 25  8 12  8 47 39.2000000  0 29G 5G 1G 2G 3G 4G31G16G19G 7G 9G11G15
                                G 6G28G21G17G32G26G10G 8G23G13G14G27
                                G30G20G29G24G18
  21599283.842   113505047.985       -1226.921          48.000  
  21599272.069   113504952.955       -1226.924          49.000  
  21599334.577   113505220.538       -1226.832          49.000  
  21599345.944   113505160.850       -1226.849          49.000  
  21599254.597   113504983.100       -1226.876          49.000  
  21478549.664   112870565.852       -1226.937          40.000  
  21672257.929   113888516.421       -1226.882          39.000  
  21522799.371   113103059.357       -1226.865          35.000  
  21599396.311   113505466.416       -1226.917          47.000  
  21697166.358   114019385.352       -1226.902          40.000  
  21819954.660   114664642.243       -1226.888          37.000  
  21538916.902   113187797.905       -1226.918          41.000  
  21599310.056   113505200.310       -1226.923          49.000  
  21508148.163   113026102.831       -1226.901          39.000  
  21633865.287   113686753.668       -1226.781          35.000  
  21750798.908   114301239.486       -1226.880          38.000  
  21613057.715   113577442.309       -1227.052          35.000  
  21485875.966   112909043.857       -1226.896          36.000  
  21562655.258   113312520.366       -1226.866          37.000  
  21599274.404   113504994.315       -1226.917          49.000  
  21462726.906   112787408.562       -1226.931          37.000  
  21731451.835   114199532.944       -1226.993          38.000  
  21561778.528   113307912.984       -1226.925          36.000  
  21624489.477   113637496.894       -1226.917          41.000  
  21719435.633   114136406.831       -1226.912          38.000  
  21763102.185   114365966.926       -1226.849          37.000  
  21465065.719   112799690.360       -1226.943          37.000  
  21652325.091   113783734.767       -1226.874          39.000  
  21499940.700   112982988.918       -1226.958          36.000  
 25  8 12  8 47 39.4000000  0 29G 5G 1G 2G 3G 4G31G16G19G 7G 9G11G15
                                G 6G28G21G17G32G26G10G 8G23G13G14G27
                                G30G20G29G24G18
  21599330.515   113505293.363       -1226.834          48.000  
  21599318.726   113505198.336       -1226.840          49.000  
  21599381.283   113505465.920       -1226.866          49.000  
  21599392.650   113505406.233       -1226.899          49.000  
  21599300.907   113505228.487       -1226.982          49.000  
  21478596.373   112870811.231       -1226.826          40.000  
  21672304.609   113888761.803       -1226.903          39.000  
  21522846.096   113103304.743       -1227.174          35.000  
  21599443.003   113505711.794       -1226.862          47.000  
  21697213.062   114019630.732       -1226.867          40.000  
  21820001.331   114664887.620       -1226.685          37.000  
  21538963.597   113188043.287       -1226.892          41.000  
  21599356.800   113505445.690       -1226.888          49.000  
  21508194.872   113026348.213       -1226.785          39.000  
  21633911.992   113686999.056       -1227.078          35.000  
  21750845.603   114301484.873       -1226.945          38.000  
  21613104.380   113577687.687       -1226.776          35.000  
  21485922.669   112909289.236       -1226.971          36.000  
  21562701.963   113312765.746       -1226.830          37.000  
  21599321.104   113505239.698       -1226.884          49.000  
  21462773.616   112787653.945       -1226.863          37.000  
  21731498.521   114199778.320       -1226.743          38.000  
  21561825.219   113308158.366       -1226.957          36.000  
  21624536.187   113637742.278       -1226.958          41.000  
  21719482.301   114136652.211       -1226.997          38.000  
  21763148.869   114366212.311       -1226.988          37.000  
  21465112.407   112799935.741       -1227.046          37.000  
  21652371.773   113783980.150       -1226.868          39.000  
  21499987.407   112983234.296       -1226.726          36.000  
 25  8 12  8 47 39.6000000  0 29G 5G 1G 2G 3G 4G31G16G19G 7G 9G11G15
                                G 6G28G21G17G32G26G10G 8G23G13G14G27
                                G30G20G29G24G18
  21599377.248   113505538.756       -1226.938          48.000  
  21599365.419   113505443.719       -1226.767          49.000  
  21599428.010   113505711.301       -1226.827          49.000  
  21599439.357   113505651.611       -1226.788          49.000  
  21599347.483   113505473.868       -1226.871          49.000  
  21478643.038   112871056.623       -1226.919          40.000  
  21672351.315   113889007.176       -1226.787          39.000  
  21522892.756   113103550.097       -1226.761          35.000  
  21599489.691   113505957.178       -1226.730          47.000  
  21697259.769   114019876.117       -1226.776          40.000  
  21820048.045   114665133.004       -1226.699          37.000  
  21539010.296   113188288.665       -1226.801          41.000  
  21599403.508   113505691.069       -1226.768          49.000  
  21508241.567   113026593.613       -1226.813          39.000  
  21633958.691   113687244.407       -1226.846          35.000  
  21750892.288   114301730.258       -1226.849          38.000  
  21613151.087   113577933.072       -1226.919          35.000  
  21485969.396   112909534.592       -1226.622          36.000  
  21562748.706   113313011.121       -1226.941          37.000  
  21599367.782   113505485.075       -1226.781          49.000  
  21462820.309   112787899.333       -1226.868          36.000  
  21731545.206   114200023.720       -1226.790          38.000  
  21561871.946   113308403.735       -1226.868          36.000  
  21624582.878   113637987.653       -1226.846          41.000  
  21719528.994   114136897.583       -1226.745          38.000  
  21763195.540   114366457.682       -1226.753          37.000  
  21465159.130   112800181.099       -1226.696          37.000  
  21652418.477   113784225.541       -1226.935          39.000  
  21500034.120   112983479.671       -1226.743          36.000  
 25  8 12  8 47 39.8000000  0 29G 5G 1G 2G 3G 4G31G16G19G 7G 9G11G15
                                G 6G28G21G17G32G26G10G 8G23G13G14G27
                                G30G20G29G24G18
  21599423.975   113505784.116       -1226.917          48.000  
  21599412.090   113505689.079       -1226.806          49.000  
  21599474.735   113505956.666       -1226.856          49.000  
  21599486.056   113505896.977       -1226.882          49.000  
  21599394.413   113505719.225       -1226.725          49.000  
  21478689.747   112871301.982       -1226.904          40.000  
  21672398.032   113889252.533       -1226.841          40.000  
  21522939.497   113103795.463       -1226.804          35.000  
  21599536.383   113506202.544       -1226.928          47.000  
  21697306.434   114020121.479       -1226.899          40.000  
  21820094.735   114665378.365       -1226.773          37.000  
  21539056.971   113188534.029       -1226.841          41.000  
  21599450.216   113505936.435       -1226.866          49.000  
  21508288.265   113026838.975       -1226.885          39.000  
  21634005.365   113687489.769       -1226.721          35.000  
  21750939.001   114301975.618       -1226.742          38.000  
  21613197.720   113578178.436       -1226.949          35.000  
  21486016.137   112909779.959       -1226.799          36.000  
  21562795.355   113313256.482       -1226.804          37.000  
  21599414.494   113505730.442       -1226.864          49.000  
  21462867.014   112788144.693       -1226.780          36.000  
  21731591.918   114200269.076       -1226.874          38.000  
  21561918.675   113308649.099       -1226.738          37.000  
  21624629.584   113638233.015       -1226.872          41.000  
  21719575.652   114137142.947       -1226.886          38.000  
  21763242.258   114366703.043       -1226.812          37.000  
  21465205.785   112800426.463       -1226.718          37.000  
  21652465.194   113784470.900       -1226.775          38.000  
  21500080.785   112983725.034       -1226.792          36.000  
 25  8 12  8 47 40.0000000  0 29G 5G 1G 2G 3G 4G31G16G19G 7G 9G11G15
                                G 6G28G21G17G32G26G10G 8G23G13G14G27
                                G30G20G29G24G18
  21599470.643   113506029.487       -1226.824          48.000  
  21599458.774   113505934.457       -1226.841          49.000  
  21599521.457   113506202.037       -1226.824          49.000  
  21599532.753   113506142.355       -1226.840          49.000  
  21599441.290   113505964.608       -1226.891          49.000  
  21478736.466   112871547.356       -1226.781          40.000  
  21672444.713   113889497.914       -1226.851          40.000  
  21522986.204   113104040.841       -1226.812          36.000  
  21599583.072   113506447.916       -1226.861          47.000  
  21697353.170   114020366.851       -1226.758          40.000  
  21820141.404   114665623.748       -1226.818          38.000  
  21539103.646   113188779.406       -1226.868          42.000  
  21599496.925   113506181.814       -1226.854          49.000  
  21508334.959   113027084.351       -1226.808          39.000  
  21634052.077   113687735.151       -1226.805          35.000  
  21750985.694   114302220.998       -1226.912          38.000  
  21613244.396   113578423.809       -1226.800          35.000  
  21486062.863   112910025.343       -1226.852          36.000  
  21562842.041   113313501.863       -1226.843          37.000  
  21599461.185   113505975.815       -1226.830          49.000  
  21462913.711   112788390.073       -1226.945          36.000  
  21731638.630   114200514.456       -1226.844          38.000  
  21561965.442   113308894.477       -1226.805          37.000  
  21624676.270   113638478.392       -1226.819          41.000  
  21719622.374   114137388.318       -1226.755          38.000  
  21763288.970   114366948.417       -1226.823          37.000  
  21465252.498   112800671.843       -1226.827          37.000  
  21652511.911   113784716.280       -1226.862          38.000  
  21500127.484   112983970.414       -1226.885          36.000  
 25  8 12  8 47 40.2000000  0 29G 5G 1G 2G 3G 4G31G16G19G 7G 9G11G15
                                G 6G28G21G17G32G26G10G 8G23G13G14G27
                                G30G20G29G24G18
  21599517.382   113506274.842       -1227.016          48.000  
  21599505.457   113506179.812       -1226.955          49.000  
  21599568.129   113506447.392       -1226.815          49.000  
  21599579.455   113506387.709       -1226.834          49.000  
  21599487.993   113506209.962       -1226.936          49.000  
  21478783.211   112871792.711       -1226.919          40.000  
  21672491.411   113889743.273       -1226.927          40.000  
  21523032.933   113104286.203       -1227.017          36.000  
  21599629.745   113506693.274       -1226.891          47.000  
  21697399.868   114020612.213       -1226.893          40.000  
  21820188.094   114665869.105       -1226.880          37.000  
  21539150.341   113189024.760       -1226.884          42.000  
  21599543.619   113506427.168       -1226.821          49.000  
  21508381.641   113027329.705       -1226.857          39.000  
  21634098.802   113687980.512       -1227.125          35.000  
  21751032.389   114302466.353       -1226.974          38.000  
  21613291.060   113578669.167       -1227.087          35.000  
  21486109.589   112910270.705       -1227.008          36.000  
  21562888.697   113313747.221       -1227.056          37.000  
  21599507.912   113506221.171       -1226.877          49.000  
  21462960.390   112788635.423       -1226.857          36.000  
  21731685.329   114200759.809       -1226.910          38.000  
  21562012.141   113309139.829       -1226.956          37.000  
  21624722.957   113638723.750       -1226.988          41.000  
  21719669.065   114137633.682       -1226.941          38.000  
  21763335.644   114367193.775       -1226.985          37.000  
  21465299.168   112800917.206       -1226.948          37.000  
  21652558.615   113784961.632       -1226.834          38.000  
  21500174.192   112984215.772       -1226.926          37.000  
 25  8 12  8 47 40.4000000  0 29G 5G 1G 2G 3G 4G31G16G19G 7G 9G11G15
                                G 6G28G21G17G32G26G10G 8G23G13G14G27
                                G30G20G29G24G18
  21599564.112   113506520.211       -1227.113          48.000  
  21599552.152   113506425.179       -1227.016          49.000  
  21599614.855   113506692.760       -1226.963          49.000  
  21599626.153   113506633.079       -1227.016          49.000  
  21599534.584   113506455.329       -1227.090          49.000  
  21478829.914   112872038.080       -1227.050          40.000  
  21672538.077   113889988.642       -1227.021          40.000  
  21523079.618   113104531.572       -1227.211          36.000  
  21599676.439   113506938.635       -1226.851          47.000  
  21697446.608   114020857.578       -1226.981          40.000  
  21820234.814   114666114.477       -1227.083          37.000  
  21539197.025   113189270.122       -1226.899          42.000  
  21599590.292   113506672.535       -1226.935          49.000  
  21508428.314   113027575.069       -1226.871          39.000  
  21634145.482   113688225.855       -1226.772          35.000  
  21751079.074   114302711.709       -1226.849          38.000  
  21613337.779   113578914.527       -1227.032          35.000  
  21486156.265   112910516.065       -1226.918          36.000  
  21562935.398   113313992.579       -1227.010          37.000  
  21599554.618   113506466.540       -1226.996          49.000  
  21463007.053   112788880.795       -1227.137          36.000  
  21731732.007   114201005.178       -1226.981          38.000  
  21562058.856   113309385.195       -1227.012          37.000  
  21624769.654   113638969.115       -1227.050          41.000  
  21719715.790   114137879.040       -1226.907          38.000  
  21763382.331   114367439.132       -1226.773          37.000  
  21465345.879   112801162.577       -1227.225          37.000  
  21652605.280   113785207.000       -1227.045          38.000  
  21500220.869   112984461.154       -1227.314          36.000  
 25  8 12  8 47 40.6000000  0 29G 5G 1G 2G 3G 4G31G16G19G 7G 9G11G15
                                G 6G28G21G17G32G26G10G 8G23G13G14G27
                                G30G20G29G24G18
  21599610.764   113506765.564       -1226.792          48.000  
  21599598.788   113506670.541       -1226.807          49.000  
  21599661.564   113506938.122       -1226.774          49.000  
  21599672.849   113506878.440       -1226.821          49.000  
  21599581.292   113506700.690       -1226.829          49.000  
  21478876.657   112872283.442       -1226.761          40.000  
  21672584.772   113890234.003       -1226.828          40.000  
  21523126.354   113104776.923       -1226.763          35.000  
  21599723.134   113507183.998       -1226.893          47.000  
  21697493.275   114021102.932       -1226.790          40.000  
  21820281.457   114666359.836       -1226.755          37.000  
  21539243.735   113189515.482       -1226.781          42.000  
  21599636.988   113506917.894       -1226.816          49.000  
  21508475.002   113027820.432       -1226.881          39.000  
  21634192.205   113688471.217       -1226.938          35.000  
  21751125.793   114302957.074       -1226.872          38.000  
  21613384.392   113579159.894       -1226.813          35.000  
  21486203.023   112910761.423       -1226.962          37.000  
  21562982.091   113314237.937       -1226.826          37.000  
  21599601.305   113506711.901       -1226.807          49.000  
  21463053.756   112789126.145       -1226.707          36.000  
  21731778.737   114201250.541       -1226.853          38.000  
  21562105.595   113309630.566       -1226.699          37.000  
  21624816.332   113639214.477       -1226.783          41.000  
  21719762.452   114138124.399       -1226.901          38.000  
  21763429.034   114367684.498       -1226.962          37.000  
  21465392.573   112801407.933       -1226.643          37.000  
  21652651.976   113785452.366       -1226.788          38.000  
  21500267.534   112984706.509       -1226.769          37.000  
 25  8 12  8 47 40.8000000  0 29G 5G 1G 2G 3G 4G31G16G19G 7G 9G11G15
                                G 6G28G21G17G32G26G10G 8G23G13G14G27
                                G30G20G29G24G18
  21599657.414   113507010.930       -1226.918          48.000  
  21599645.453   113506915.902       -1226.932          49.000  
  21599708.235   113507183.488       -1226.906          49.000  
  21599719.539   113507123.800       -1226.928          49.000  
  21599628.468   113506946.054       -1226.987          49.000  
  21478923.330   112872528.803       -1226.891          40.000  
  21672631.503   113890479.370       -1227.060          40.000  
  21523173.066   113105022.295       -1227.070          35.000  
  21599769.844   113507429.358       -1226.974          47.000  
  21697540.013   114021348.297       -1227.001          40.000  
  21820328.165   114666605.209       -1227.090          37.000  
  21539290.444   113189760.846       -1226.963          42.000  
  21599683.697   113507163.254       -1226.902          49.000  
  21508521.688   113028065.786       -1226.838          39.000  
  21634238.898   113688716.575       -1226.915          35.000  
  21751172.475   114303202.436       -1226.995          38.000  
  21613431.078   113579405.251       -1226.873          35.000  
  21486249.770   112911006.781       -1227.028          37.000  
  21563028.800   113314483.304       -1226.969          36.000  
  21599648.007   113506957.266       -1227.027          49.000  
  21463100.474   112789371.516       -1226.960          36.000  
  21731825.418   114201495.907       -1226.984          38.000  
  21562152.320   113309875.924       -1226.788          37.000  
  21624863.035   113639459.839       -1226.888          41.000  
  21719809.176   114138369.764       -1227.035          38.000  
  21763475.704   114367929.856       -1227.049          37.000  
  21465439.277   112801653.306       -1226.985          37.000  
  21652698.682   113785697.718       -1226.803          38.000  
  21500314.187   112984951.879       -1227.042          37.000  
 25  8 12  8 47 41.0000000  0 29G 5G 1G 2G 3G 4G31G16G19G 7G 9G11G15
                                G 6G28G21G17G32G26G10G 8G23G13G14G27
                                G30G20G29G24G18
  21599704.067   113507256.303       -1226.851          48.000  
  21599692.121   113507161.269       -1226.774          49.000  
  21599754.957   113507428.855       -1226.800          49.000  
  21599766.236   113507369.169       -1226.827          49.000  
  21599675.564   113507191.418       -1226.735          49.000  
  21478970.028   112872774.170       -1226.777          40.000  
  21672678.168   113890724.738       -1226.707          40.000  
  21523219.791   113105267.664       -1226.726          35.000  
  21599816.571   113507674.729       -1226.783          47.000  
  21697586.688   114021593.666       -1226.753          40.000  
  21820374.833   114666850.570       -1226.855          37.000  
  21539337.112   113190006.214       -1226.818          41.000  
  21599730.399   113507408.621       -1226.813          49.000  
  21508568.366   113028311.156       -1226.819          39.000  
  21634285.560   113688961.950       -1226.755          35.000  
  21751219.172   114303447.799       -1226.786          38.000  
  21613477.768   113579650.623       -1226.797          35.000  
  21486296.435   112911252.148       -1226.675          37.000  
  21563075.467   113314728.678       -1226.759          37.000  
  21599694.675   113507202.631       -1226.741          49.000  
  21463147.207   112789616.874       -1226.785          36.000  
  21731872.102   114201741.269       -1226.770          38.000  
  21562198.939   113310121.292       -1226.810          37.000  
  21624909.720   113639705.210       -1226.708          41.000  
  21719855.821   114138615.134       -1226.740          38.000  
  21763522.410   114368175.227       -1226.592          37.000  
  21465485.965   112801898.676       -1226.816          37.000  
  21652745.348   113785943.091       -1226.877          38.000  
  21500360.811   112985197.247       -1226.779          37.000  
 25  8 12  8 47 41.2000000  0 29G 5G 1G 2G 3G 4G31G16G19G 7G 9G11G15
                                G 6G28G21G17G32G26G10G 8G23G13G14G27
                                G30G20G29G24G18
  21599750.782   113507501.696       -1226.875          48.000  
  21599738.810   113507406.656       -1226.861          49.000  
  21599801.659   113507674.240       -1226.858          49.000  
  21599812.937   113507614.556       -1226.921          49.000  
  21599722.405   113507436.815       -1227.002          49.000  
  21479016.717   112873019.564       -1226.998          40.000  
  21672724.837   113890970.130       -1226.940          40.000  
  21523266.492   113105513.061       -1226.877          35.000  
  21599863.261   113507920.123       -1227.000          47.000  
  21697633.433   114021839.058       -1226.971          40.000  
  21820421.524   114667095.962       -1226.927          37.000  
  21539383.820   113190251.607       -1227.012          41.000  
  21599777.122   113507654.013       -1226.853          49.000  
  21508615.072   113028556.548       -1227.007          39.000  
  21634332.256   113689207.343       -1226.979          35.000  
  21751265.853   114303693.188       -1226.874          38.000  
  21613524.512   113579896.012       -1226.918          35.000  
  21486343.091   112911497.547       -1226.953          37.000  
  21563122.203   113314974.071       -1226.986          37.000  
  21599741.364   113507448.022       -1226.929          49.000  
  21463193.886   112789862.268       -1226.987          36.000  
  21731918.795   114201986.661       -1226.946          38.000  
  21562245.573   113310366.683       -1227.029          36.000  
  21624956.464   113639950.606       -1226.962          41.000  
  21719902.561   114138860.533       -1227.008          38.000  
  21763569.092   114368420.626       -1227.022          37.000  
  21465532.666   112802144.068       -1227.024          37.000  
  21652792.056   113786188.483       -1226.990          39.000  
  21500407.541   112985442.628       -1226.802          36.000  
 25  8 12  8 47 41.4000000  0 29G 5G 1G 2G 3G 4G31G16G19G 7G 9G11G15
                                G 6G28G21G17G32G26G10G 8G23G13G14G27
                                G30G20G29G24G18
  21599797.581   113507747.068       -1227.159          48.000  
  21599785.493   113507652.044       -1227.087          49.000  
  21599848.392   113507919.629       -1227.087          49.000  
  21599859.638   113507859.938       -1227.079          49.000  
  21599769.484   113507682.198       -1227.232          49.000  
  21479063.397   112873264.936       -1227.167          40.000  
  21672771.523   113891215.504       -1227.103          40.000  
  21523313.202   113105758.435       -1227.136          35.000  
  21599909.992   113508165.524       -1227.140          47.000  
  21697680.084   114022084.441       -1227.110          40.000  
  21820468.242   114667341.347       -1227.129          37.000  
  21539430.491   113190497.001       -1227.157          41.000  
  21599823.803   113507899.404       -1227.098          49.000  
  21508661.792   113028801.931       -1227.106          39.000  
  21634378.941   113689452.761       -1227.207          35.000  
  21751312.518   114303938.591       -1227.210          38.000  
  21613571.257   113580141.404       -1227.278          35.000  
  21486389.749   112911742.930       -1227.189          37.000  
  21563168.912   113315219.439       -1227.087          37.000  
  21599788.081   113507693.404       -1227.148          49.000  
  21463240.583   112790107.644       -1227.094          36.000  
  21731965.457   114202232.027       -1227.096          38.000  
  21562292.223   113310612.091       -1227.174          37.000  
  21625003.158   113640195.982       -1227.194          41.000  
  21719949.253   114139105.921       -1227.130          38.000  
  21763615.817   114368666.033       -1227.247          37.000  
  21465579.363   112802389.427       -1227.026          38.000  
  21652838.713   113786433.880       -1227.158          38.000  
  21500454.203   112985688.003       -1227.184          36.000  
 25  8 12  8 47 41.6000000  0 29G 5G 1G 2G 3G 4G31G16G19G 7G 9G11G15
                                G 6G28G21G17G32G26G10G 8G23G13G14G27
                                G30G20G29G24G18
  21599844.321   113507992.442       -1226.926          48.000  
  21599832.170   113507897.406       -1226.904          49.000  
  21599895.102   113508164.992       -1226.918          49.000  
  21599906.332   113508105.305       -1226.902          49.000  
  21599816.542   113507927.557       -1226.887          49.000  
  21479110.040   112873510.304       -1226.906          40.000  
  21672818.225   113891460.870       -1226.885          40.000  
  21523359.874   113106003.805       -1226.936          35.000  
  21599956.698   113508410.883       -1227.026          47.000  
  21697726.777   114022329.805       -1226.932          40.000  
  21820514.935   114667586.713       -1226.941          37.000  
  21539477.213   113190742.362       -1226.969          41.000  
  21599870.495   113508144.771       -1226.928          49.000  
  21508708.523   113029047.298       -1226.858          39.000  
  21634425.651   113689698.123       -1227.163          35.000  
  21751359.198   114304183.947       -1226.963          38.000  
  21613617.965   113580386.758       -1226.932          35.000  
  21486436.382   112911988.300       -1226.963          37.000  
  21563215.650   113315464.810       -1226.909          37.000  
  21599834.766   113507938.768       -1226.930          49.000  
  21463287.285   112790353.010       -1226.931          36.000  
  21732012.181   114202477.395       -1226.872          38.000  
  21562338.856   113310857.445       -1227.012          37.000  
  21625049.838   113640441.348       -1226.932          41.000  
  21719995.973   114139351.289       -1226.998          38.000  
  21763662.480   114368911.381       -1226.913          37.000  
  21465626.043   112802634.797       -1226.846          38.000  
  21652885.433   113786679.240       -1226.965          38.000  
  21500500.900   112985933.365       -1226.852          36.000  
